SALE TYPE,SOLD DATE,PROPERTY TYPE,ADDRESS,CITY,STATE OR PROVINCE,ZIP OR POSTAL CODE,PRICE,BEDS,BATHS,LOCATION,SQUARE FEET,LOT SIZE,YEAR BUILT,DAYS ON MARKET,$/SQUARE FEET,HOA/MONTH,STATUS,NEXT OPEN HOUSE START TIME,NEXT OPEN HOUSE END TIME,URL (SEE https://www.redfin.com/buy-a-home/comparative-market-analysis FOR INFO ON PRICING),SOURCE,MLS#,FAVORITE,INTERESTED,LATITUDE,LONGITUDE
"In accordance with local MLS rules, some MLS listings are not included in the download"
MLS Listing,,Condo/Co-op,65 E Monroe St #4521,Chicago,IL,60603,794900,2,2.0,CHI - Loop,1630,,2008,2,488,1383,Active,,,https://www.redfin.com/IL/Chicago/65-E-Monroe-St-60603/unit-4521/home/39567709,MRED as Distributed by MLS Grid,12163318,N,Y,41.8806386,-87.6255308
MLS Listing,,Condo/Co-op,1255 N State Pkwy Unit 2AC,Chicago,IL,60610,750000,2,2.0,Churchill,2000,,1924,2,375,3145,Active,,,https://www.redfin.com/IL/Chicago/1255-N-State-Pkwy-60610/unit-2AC/home/14124162,MRED as Distributed by MLS Grid,12163422,N,Y,41.9056616,-87.6284312
MLS Listing,,Condo/Co-op,6248 S Gullikson Rd Unit 4B,Chicago,IL,60638,235000,2,2.0,CHI - Clearing,1100,,2005,2,214,308,Active,,,https://www.redfin.com/IL/Chicago/6248-S-Gullikson-Rd-60638/unit-4B/home/12732794,MRED as Distributed by MLS Grid,12160061,N,Y,41.7778298,-87.7980166
MLS Listing,,Condo/Co-op,4619 S Prairie Ave Unit GDN,Chicago,IL,60653,225000,3,3.0,CHI - Grand Boulevard,2500,,1902,2,90,228,Active,,,https://www.redfin.com/IL/Chicago/4619-S-Prairie-Ave-60653/unit-GDN/home/12707122,MRED as Distributed by MLS Grid,12153793,N,Y,41.8106269,-87.6191882
MLS Listing,,Condo/Co-op,5140 N Albany Ave #2,Chicago,IL,60625,294900,2,2.0,CHI - North Park,1400,,1924,3,211,359,Active,,,https://www.redfin.com/IL/Chicago/5140-N-Albany-Ave-60625/unit-2/home/12622088,MRED as Distributed by MLS Grid,12158848,N,Y,41.9751609,-87.7065229
MLS Listing,,Single Family Residential,3535 N Neva Ave,Chicago,IL,60634,334900,3,2.0,CHI - Dunning,1176,4064,1951,3,285,,Active,,,https://www.redfin.com/IL/Chicago/3535-N-Neva-Ave-60634/home/13468960,MRED as Distributed by MLS Grid,12152144,N,Y,41.9445311,-87.8054747
MLS Listing,,Condo/Co-op,5625 N Wayne Ave Unit G1,Chicago,IL,60660,265000,2,1.0,CHI - Edgewater,906,,1917,3,292,199,Active,,,https://www.redfin.com/IL/Chicago/5625-N-Wayne-Ave-60660/unit-G1/home/39562307,MRED as Distributed by MLS Grid,12161738,N,Y,41.9843817,-87.6632698
MLS Listing,,Condo/Co-op,2012 W Erie St Unit 3E,Chicago,IL,60612,560000,3,2.0,CHI - West Town,,,2013,3,,261,Active,,,https://www.redfin.com/IL/Chicago/2012-W-Erie-St-60612/unit-3E/home/44648843,MRED as Distributed by MLS Grid,12162701,N,Y,41.893361,-87.6776181
MLS Listing,,Condo/Co-op,212 E Cullerton St #812,Chicago,IL,60616,265000,1,1.0,CHI - Near South Side,907,,2003,3,292,378,Active,,,https://www.redfin.com/IL/Chicago/212-E-Cullerton-St-60616/unit-812/home/12677868,MRED as Distributed by MLS Grid,12162663,N,Y,41.8557482,-87.6217636
MLS Listing,,Single Family Residential,3859 W 55th St,Chicago,IL,60632,320000,5,2.0,CHI - West Elsdon,1755,3484,1950,3,182,,Active,,,https://www.redfin.com/IL/Chicago/3859-W-55th-St-60632/home/14012049,MRED as Distributed by MLS Grid,12151970,N,Y,41.7929699,-87.7205158
MLS Listing,,Condo/Co-op,3763 N Wilton Ave Unit 1S,Chicago,IL,60613,755000,3,3.0,CHI - Lake View,1800,,2008,3,419,275,Active,,,https://www.redfin.com/IL/Chicago/3763-N-Wilton-Ave-60613/unit-1S/home/17457988,MRED as Distributed by MLS Grid,12162578,N,Y,41.9509465,-87.6530437
MLS Listing,,Condo/Co-op,2706 W Chicago Ave #3,Chicago,IL,60622,474900,3,2.0,CHI - West Town,1700,,2007,3,279,128,Active,,,https://www.redfin.com/IL/Chicago/2706-W-Chicago-Ave-60622/unit-3/home/26810505,MRED as Distributed by MLS Grid,12162559,N,Y,41.8958821,-87.6946251
MLS Listing,,Condo/Co-op,4343 N Clarendon Ave #2409,Chicago,IL,60613,145000,0,1.0,CHI - Uptown,600,,1974,3,242,630,Active,,,https://www.redfin.com/IL/Chicago/4343-N-Clarendon-Ave-60613/unit-2409/home/13397846,MRED as Distributed by MLS Grid,12162502,N,Y,41.9612878,-87.6494037
MLS Listing,,Condo/Co-op,111 W Maple St #2407,Chicago,IL,60610,205000,1,1.0,CHI - Near North Side,550,,1991,3,373,394,Active,,,https://www.redfin.com/IL/Chicago/111-W-Maple-St-60610/unit-2407/home/12791793,MRED as Distributed by MLS Grid,12162442,N,Y,41.9016475,-87.6318546
MLS Listing,,Condo/Co-op,850 N Damen Ave Unit 2F,Chicago,IL,60622,249999,2,1.0,CHI - West Town,750,,1915,3,333,200,Active,,,https://www.redfin.com/IL/Chicago/850-N-Damen-Ave-60622/unit-2F/home/40378664,MRED as Distributed by MLS Grid,12159042,N,Y,41.8974111,-87.6773467
MLS Listing,,Condo/Co-op,2306 W Touhy Ave #204,Chicago,IL,60645,377000,2,2.0,CHI - West Ridge,1300,,2007,3,290,270,Active,,,https://www.redfin.com/IL/Chicago/2306-W-Touhy-Ave-60645/unit-204/home/18940881,MRED as Distributed by MLS Grid,12162322,N,Y,42.0125611,-87.6879637
MLS Listing,,Single Family Residential,5930 S Narragansett Ave,Chicago,IL,60638,390000,3,3.0,CHI - Clearing,1732,4356,1998,3,225,,Active,,,https://www.redfin.com/IL/Chicago/5930-S-Narragansett-Ave-60638/home/13997055,MRED as Distributed by MLS Grid,12141748,N,Y,41.7840789,-87.7818045
MLS Listing,,Condo/Co-op,701 S Wells St #1605,Chicago,IL,60607,354900,2,2.0,CHI - Loop,1263,,2002,4,281,945,Active,,,https://www.redfin.com/IL/Chicago/701-S-Wells-St-60607/unit-1605/home/12693469,MRED as Distributed by MLS Grid,12161834,N,Y,41.8731482,-87.6332396
MLS Listing,,Single Family Residential,6014 W Fletcher St,Chicago,IL,60634,330000,3,1.0,CHI - Belmont Cragin,1336,,1940,4,247,,Active,,,https://www.redfin.com/IL/Chicago/6014-W-Fletcher-St-60634/home/13437655,MRED as Distributed by MLS Grid,12126404,N,Y,41.9376988,-87.776878
MLS Listing,,Single Family Residential,32 W 109th Pl,Chicago,IL,60628,210000,3,2.5,CHI - Roseland,1717,6098,1912,4,122,,Active,,,https://www.redfin.com/IL/Chicago/32-W-109th-Pl-60628/home/13075513,MRED as Distributed by MLS Grid,12157808,N,Y,41.6954886,-87.6244211
MLS Listing,,Single Family Residential,21 W 114th Pl,Chicago,IL,60628,195000,5,2.0,CHI - Roseland,1573,6098,1888,4,124,,Active,,,https://www.redfin.com/IL/Chicago/21-W-114th-Pl-60628/home/13062008,MRED as Distributed by MLS Grid,12156061,N,Y,41.6860225,-87.6238466
MLS Listing,,Condo/Co-op,7714 N Paulina St Unit 1S,Chicago,IL,60626,384900,3,2.5,CHI - Rogers Park,1809,,1923,4,213,458,Active,,,https://www.redfin.com/IL/Chicago/7714-N-Paulina-St-60626/unit-1S/home/192496990,MRED as Distributed by MLS Grid,12160754,N,Y,42.0217224,-87.6733902
MLS Listing,,Condo/Co-op,444 W Fullerton Pkwy #1909,Chicago,IL,60614,425000,2,2.0,CHI - Lincoln Park,,,1972,4,,1145,Active,,,https://www.redfin.com/IL/Chicago/444-W-Fullerton-Pkwy-60614/unit-1909/home/22924476,MRED as Distributed by MLS Grid,12161430,N,Y,41.9258338,-87.6408832
MLS Listing,,Condo/Co-op,4355 S Lake Park Ave Unit 2N,Chicago,IL,60653,625000,3,3.0,CHI - Kenwood,2000,,2012,4,313,,Active,,,https://www.redfin.com/IL/Chicago/4355-S-Lake-Park-Ave-60653/unit-2N/home/64226846,MRED as Distributed by MLS Grid,12150936,N,Y,41.8156405,-87.5973525
MLS Listing,,Condo/Co-op,2238 W Walton St #2,Chicago,IL,60622,665000,3,2.0,CHI - West Town,,,1914,4,,195,Active,September-21-2024 11:00 AM,September-21-2024 01:00 PM,https://www.redfin.com/IL/Chicago/2238-W-Walton-St-60622/unit-2/home/190720788,MRED as Distributed by MLS Grid,12159247,N,Y,41.8987532,-87.6835627
MLS Listing,,Multi-Family (2-4 Unit),3342 S Aberdeen St,Chicago,IL,60608,595000,7,4.0,CHI - Bridgeport,,3125,1900,4,,,Active,,,https://www.redfin.com/IL/Chicago/3342-S-Aberdeen-St-60608/home/190326005,MRED as Distributed by MLS Grid,12161031,N,Y,41.833034,-87.6537778
MLS Listing,,Single Family Residential,10942 S Peoria St,Chicago,IL,60643,320000,5,3.0,CHI - Morgan Park,1715,5227,1948,4,187,,Active,,,https://www.redfin.com/IL/Chicago/10942-S-Peoria-St-60643/home/13073619,MRED as Distributed by MLS Grid,12155338,N,Y,41.6947246,-87.6451915
MLS Listing,,Condo/Co-op,808 N Greenview Ave Unit 3E,Chicago,IL,60642,450000,2,2.0,CHI - West Town,1254,,2003,4,359,298,Active,,,https://www.redfin.com/IL/Chicago/808-N-Greenview-Ave-60642/unit-3E/home/21866184,MRED as Distributed by MLS Grid,12161108,N,Y,41.896367,-87.665085
MLS Listing,,Single Family Residential,1643 N Washtenaw Ave,Chicago,IL,60647,999000,4,3.5,CHI - West Town,3200,3123,1894,5,312,,Active,,,https://www.redfin.com/IL/Chicago/1643-N-Washtenaw-Ave-60647/home/13414431,MRED as Distributed by MLS Grid,12156331,N,Y,41.9115988,-87.6943229
MLS Listing,,Condo/Co-op,3110 W Berteau Ave #1,Chicago,IL,60618,349000,3,2.0,CHI - Irving Park,1350,,1926,5,259,405,Active,,,https://www.redfin.com/IL/Chicago/3110-W-Berteau-Ave-60618/unit-1/home/18929282,MRED as Distributed by MLS Grid,12160023,N,Y,41.9577349,-87.7060619
MLS Listing,,Condo/Co-op,2809 W Washington Blvd #101,Chicago,IL,60612,159000,1,1.0,CHI - East Garfield Park,,,1922,5,,279,Active,,,https://www.redfin.com/IL/Chicago/2809-W-Washington-Blvd-60612/unit-101/home/18941089,MRED as Distributed by MLS Grid,12159977,N,Y,41.8825983,-87.6967544
MLS Listing,,Condo/Co-op,1440 S Michigan Ave #420,Chicago,IL,60605,250000,1,1.0,CHI - Near South Side,775,,2001,5,323,366,Active,,,https://www.redfin.com/IL/Chicago/1440-S-Michigan-Ave-60605/unit-420/home/12734088,MRED as Distributed by MLS Grid,12159929,N,Y,41.8629784,-87.6243933
MLS Listing,,Single Family Residential,4543 W Schubert Ave,Chicago,IL,60639,395000,3,2.0,CHI - Hermosa,2252,3720,1927,6,175,,Active,,,https://www.redfin.com/IL/Chicago/4543-W-Schubert-Ave-60639/home/13443451,MRED as Distributed by MLS Grid,12159236,N,Y,41.929338,-87.7409552
MLS Listing,,Condo/Co-op,737 W Washington Blvd #3004,Chicago,IL,60661,569000,2,2.0,CHI - Near West Side,1300,,2003,9,438,1111,Active,,,https://www.redfin.com/IL/Chicago/737-W-Washington-Blvd-60661/unit-3004/home/12681021,MRED as Distributed by MLS Grid,12157517,N,Y,41.8821306,-87.6468599
MLS Listing,,Multi-Family (2-4 Unit),3445 N Oakley Ave,Chicago,IL,60618,875000,6,4.0,CHI - North Center,,,1894,9,,,Active,,,https://www.redfin.com/IL/Chicago/3445-N-Oakley-Ave-60618/home/13387188,MRED as Distributed by MLS Grid,12144296,N,Y,41.9444903,-87.6855308
MLS Listing,,Condo/Co-op,1816 W Belmont Ave #2,Chicago,IL,60657,499000,2,2.0,CHI - North Center,1300,,2005,9,384,125,Active,,,https://www.redfin.com/IL/Chicago/1816-W-Belmont-Ave-60657/unit-2/home/183900525,MRED as Distributed by MLS Grid,12149707,N,Y,41.9398174,-87.674629
MLS Listing,,Condo/Co-op,550 N Saint Clair St #2103,Chicago,IL,60611,515000,2,2.0,CHI - Near North Side,1250,,,9,412,868,Active,,,https://www.redfin.com/IL/Chicago/550-N-Saint-Clair-St-60611/unit-2103/home/39565642,MRED as Distributed by MLS Grid,12157191,N,Y,41.8922991,-87.6229169
MLS Listing,,Multi-Family (2-4 Unit),4304 N Central Park Ave,Chicago,IL,60618,799900,6,4.0,CHI - Irving Park,,3750,1914,10,,,Active,,,https://www.redfin.com/IL/Chicago/4304-N-Central-Park-Ave-60618/home/13484048,MRED as Distributed by MLS Grid,12150112,N,Y,41.9594891,-87.7182697
MLS Listing,,Condo/Co-op,70 W Burton Pl Unit 706F,Chicago,IL,60610,199900,1,1.0,Sandburg Village,,,1965,10,,556,Active,,,https://www.redfin.com/IL/Chicago/70-W-Burton-Pl-60610/unit-706F/home/14113916,MRED as Distributed by MLS Grid,12156754,N,Y,41.9096718,-87.6312396
MLS Listing,,Condo/Co-op,5318 N Ravenswood Ave #107,Chicago,IL,60640,435000,2,2.0,CHI - Lincoln Square,,,2003,10,,252,Active,,,https://www.redfin.com/IL/Chicago/5318-N-Ravenswood-Ave-60640/unit-107/home/12668922,MRED as Distributed by MLS Grid,12156686,N,Y,41.9785654,-87.6754118
MLS Listing,,Condo/Co-op,3815 S Langley Ave #301,Chicago,IL,60653,225000,2,1.5,CHI - Oakland,1200,,2007,10,188,173,Active,,,https://www.redfin.com/IL/Chicago/3815-S-Langley-Ave-60653/unit-301/home/26822528,MRED as Distributed by MLS Grid,12156513,N,Y,41.8252518,-87.6095026
MLS Listing,,Condo/Co-op,3950 N Lake Shore Dr #1506,Chicago,IL,60613,249900,2,1.0,CHI - Lake View,1100,,1957,10,227,894,Active,,,https://www.redfin.com/IL/Chicago/3950-N-Lake-Shore-Dr-60613/unit-1506/home/13380943,MRED as Distributed by MLS Grid,12151885,N,Y,41.954247,-87.6458578
MLS Listing,,Condo/Co-op,1117 W Fry St Unit G,Chicago,IL,60642,342000,2,2.0,CHI - West Town,1600,,1890,10,214,319,Active,,,https://www.redfin.com/IL/Chicago/1117-W-Fry-St-60642/unit-G/home/12789303,MRED as Distributed by MLS Grid,12156573,N,Y,41.8971566,-87.6559008
MLS Listing,,Condo/Co-op,2817 N Oakley Ave Unit 3E,Chicago,IL,60618,549000,2,2.0,CHI - Logan Square,1300,,2018,10,422,250,Active,,,https://www.redfin.com/IL/Chicago/2817-N-Oakley-Ave-60618/unit-3E/home/147586616,MRED as Distributed by MLS Grid,12146545,N,Y,41.9328,-87.6851772
MLS Listing,,Single Family Residential,530 N Paulina St,Chicago,IL,60622,1289000,3,3.5,CHI - West Town,2586,,2000,10,498,,Active,,,https://www.redfin.com/IL/Chicago/530-N-Paulina-St-60622/home/14104361,MRED as Distributed by MLS Grid,12153934,N,Y,41.8918439,-87.6698834
MLS Listing,,Condo/Co-op,2642 N Troy St #3,Chicago,IL,60647,495000,3,1.0,CHI - Logan Square,1300,,1906,10,381,227,Active,,,https://www.redfin.com/IL/Chicago/2642-N-Troy-St-60647/unit-3/home/26806389,MRED as Distributed by MLS Grid,12153939,N,Y,41.9298873,-87.7064901
MLS Listing,,Condo/Co-op,125 E 13th St #1114,Chicago,IL,60605,279900,1,1.0,Museum Park Lofts,800,,2004,10,350,293,Active,,,https://www.redfin.com/IL/Chicago/125-E-13th-St-60605/unit-1114/home/12637700,MRED as Distributed by MLS Grid,12156469,N,Y,41.8656294,-87.6231209
MLS Listing,,Condo/Co-op,4039 N Elston Ave #3,Chicago,IL,60618,524900,3,2.0,CHI - Irving Park,1850,,2020,10,284,202,Active,,,https://www.redfin.com/IL/Chicago/4039-N-Elston-Ave-60618/unit-3/home/171055658,MRED as Distributed by MLS Grid,12148474,N,Y,41.9548287,-87.7202578
MLS Listing,,Multi-Family (2-4 Unit),7910 S Greenwood Ave,Chicago,IL,60619,350000,11,5.0,CHI - Chatham,,3049,2008,11,,,Active,,,https://www.redfin.com/IL/Chicago/7910-S-Greenwood-Ave-60619/home/192022630,MRED as Distributed by MLS Grid,12155518,N,Y,41.7509282,-87.5982382
MLS Listing,,Single Family Residential,5750 S Merrimac Ave,Chicago,IL,60638,550000,4,3.0,CHI - Garfield Ridge,1827,4356,1955,11,301,,Active,,,https://www.redfin.com/IL/Chicago/5750-S-Merrimac-Ave-60638/home/14002900,MRED as Distributed by MLS Grid,12150795,N,Y,41.7872939,-87.7782258
MLS Listing,,Single Family Residential,10563 S Central Park Ave,Chicago,IL,60655,330000,3,2.0,CHI - Mount Greenwood,1200,5043,1938,11,275,,Active,,,https://www.redfin.com/IL/Chicago/10563-S-Central-Park-Ave-60655/home/183860915,MRED as Distributed by MLS Grid,12145481,N,Y,41.7005408,-87.710646
MLS Listing,,Condo/Co-op,1428 W Lunt Ave Unit 2N,Chicago,IL,60626,259900,2,2.0,CHI - Rogers Park,1100,,1913,12,236,328,Active,,,https://www.redfin.com/IL/Chicago/1428-W-Lunt-Ave-60626/unit-2N/home/18918988,MRED as Distributed by MLS Grid,12150736,N,Y,42.0094036,-87.6673133
MLS Listing,,Townhouse,5210 S King Dr Unit F,Chicago,IL,60615,449000,4,2.5,CHI - Washington Park,2340,10000,2010,12,192,,Active,September-21-2024 12:00 PM,September-21-2024 02:00 PM,https://www.redfin.com/IL/Chicago/5210-S-King-Dr-60615/unit-F/home/185198433,MRED as Distributed by MLS Grid,12153803,N,Y,41.800008188,-87.61638378
MLS Listing,,Condo/Co-op,2 E Erie St #3609,Chicago,IL,60611,515000,2,2.0,CHI - Near North Side,1175,,2002,12,438,791,Active,,,https://www.redfin.com/IL/Chicago/2-E-Erie-St-60611/unit-3609/home/12593252,MRED as Distributed by MLS Grid,12149023,N,Y,41.8943685,-87.6275053
MLS Listing,,Condo/Co-op,1715 W Beach Ave #1,Chicago,IL,60622,579000,3,2.5,CHI - West Town,2000,,1882,12,290,250,Active,,,https://www.redfin.com/IL/Chicago/1715-W-Beach-Ave-60622/unit-1/home/14108550,MRED as Distributed by MLS Grid,12150934,N,Y,41.907363,-87.6707028
MLS Listing,,Condo/Co-op,1740 W Foster Ave Unit 3R,Chicago,IL,60640,269900,1,1.5,CHI - Edgewater,,,1929,16,,352,Active,,,https://www.redfin.com/IL/Chicago/1740-W-Foster-Ave-60640/unit-3R/home/18932424,MRED as Distributed by MLS Grid,12151781,N,Y,41.9763951,-87.6737143
MLS Listing,,Condo/Co-op,2495 N Milwaukee Ave Unit 3N,Chicago,IL,60647,649900,3,2.0,CHI - Logan Square,1283,,2016,16,507,370,Active,,,https://www.redfin.com/IL/Chicago/2495-N-Milwaukee-Ave-60647/unit-3N/home/167530518,MRED as Distributed by MLS Grid,12148639,N,Y,41.9267802,-87.7033832
MLS Listing,,Single Family Residential,1329 W 71st St,Chicago,IL,60636,269900,6,2.5,CHI - Englewood,2051,3484,1916,16,132,,Active,,,https://www.redfin.com/IL/Chicago/1329-W-71st-St-60636/home/13915054,MRED as Distributed by MLS Grid,12147444,N,Y,41.7647741,-87.6585444
MLS Listing,,Single Family Residential,3327 W Glenlake Ave,Chicago,IL,60659,899900,6,4.5,CHI - North Park,4230,8276,1946,17,213,,Active,,,https://www.redfin.com/IL/Chicago/3327-W-Glenlake-Ave-60659/home/13516913,MRED as Distributed by MLS Grid,12151110,N,Y,41.9918784,-87.7124855
MLS Listing,,Condo/Co-op,3862 S Lake Park Ave Unit 3N,Chicago,IL,60653,390000,3,2.0,CHI - Oakland,1850,,2007,17,211,389,Active,,,https://www.redfin.com/IL/Chicago/3862-S-Lake-Park-Ave-60653/unit-3N/home/26822858,MRED as Distributed by MLS Grid,12147456,N,Y,41.8252772,-87.6044618
MLS Listing,,Condo/Co-op,6970 N Wolcott Ave Unit G,Chicago,IL,60626,124900,2,1.0,CHI - Rogers Park,900,,1927,18,139,286,Active,,,https://www.redfin.com/IL/Chicago/6970-N-Wolcott-Ave-60626/unit-G/home/12806663,MRED as Distributed by MLS Grid,12149789,N,Y,42.0085572,-87.6782711
MLS Listing,,Condo/Co-op,1101 S State St #1300,Chicago,IL,60605,399000,3,2.0,State Place Tower,1480,,2004,19,270,1276,Active,,,https://www.redfin.com/IL/Chicago/1101-S-State-St-60605/unit-1300/home/183742461,MRED as Distributed by MLS Grid,12148697,N,Y,41.8689674,-87.6270061
MLS Listing,,Condo/Co-op,1715 W Ohio St Unit 2N,Chicago,IL,60622,600000,2,2.0,CHI - West Town,,,1889,19,,505,Active,,,https://www.redfin.com/IL/Chicago/1715-W-Ohio-St-60622/unit-2N/home/12616789,MRED as Distributed by MLS Grid,12145872,N,Y,41.8920115,-87.6703405
MLS Listing,,Single Family Residential,701 W 92nd St,Chicago,IL,60620,215000,3,1.0,CHI - Washington Heights,1036,4443,1950,20,208,,Active,,,https://www.redfin.com/IL/Chicago/701-W-92nd-St-60620/home/13106627,MRED as Distributed by MLS Grid,12143027,N,Y,41.7266484,-87.6411244
MLS Listing,,Single Family Residential,1307 W Schubert Ave,Chicago,IL,60614,1525000,5,3.5,CHI - Lincoln Park,3500,3000,1992,20,436,,Active,,,https://www.redfin.com/IL/Chicago/1307-W-Schubert-Ave-60614/home/13362782,MRED as Distributed by MLS Grid,12147726,N,Y,41.9304999,-87.6614089
MLS Listing,,Condo/Co-op,1334 W Greenleaf Ave Unit 3D,Chicago,IL,60626,285000,2,2.0,CHI - Rogers Park,919,,1925,23,310,323,Active,,,https://www.redfin.com/IL/Chicago/1334-W-Greenleaf-Ave-60626/unit-3D/home/18940023,MRED as Distributed by MLS Grid,12142154,N,Y,42.010693,-87.663991
MLS Listing,,Condo/Co-op,655 W Irving Park Rd #5306,Chicago,IL,60613,235000,1,1.0,CHI - Lake View,816,,1973,23,288,970,Active,,,https://www.redfin.com/IL/Chicago/655-W-Irving-Park-Rd-60613/unit-5306/home/12604285,MRED as Distributed by MLS Grid,12141859,N,Y,41.9543534,-87.6469849
MLS Listing,,Single Family Residential,949 N Central Park Ave,Chicago,IL,60651,287000,5,2.0,CHI - Humboldt Park,1201,3125,1913,24,239,,Active,,,https://www.redfin.com/IL/Chicago/949-N-Central-Park-Ave-60651/home/13284893,MRED as Distributed by MLS Grid,12145208,N,Y,41.898772,-87.7161373
MLS Listing,,Condo/Co-op,4534 N Cumberland Ave #301,Chicago,IL,60656,240000,1,1.0,CHI - O'Hare,,,2002,26,,300,Active,,,https://www.redfin.com/IL/Chicago/4534-N-Cumberland-Ave-60656/unit-301/home/12701627,MRED as Distributed by MLS Grid,12143249,N,Y,41.9620305,-87.8371479
MLS Listing,,Single Family Residential,6666 W Imlay St,Chicago,IL,60631,417900,5,3.0,CHI - Norwood Park,2525,3750,1924,26,166,,Active,,,https://www.redfin.com/IL/Chicago/6666-W-Imlay-St-60631/home/13593792,MRED as Distributed by MLS Grid,12143257,N,Y,41.9993366,-87.7949283
MLS Listing,,Multi-Family (2-4 Unit),3541 N Paulina St,Chicago,IL,60657,799000,6,3.0,CHI - Lake View,,3125,1909,27,,,Active,,,https://www.redfin.com/IL/Chicago/3541-N-Paulina-St-60657/home/13384977,MRED as Distributed by MLS Grid,12139920,N,Y,41.9463741,-87.6709841
MLS Listing,,Single Family Residential,4855 W Montrose Ave,Chicago,IL,60641,479000,3,2.0,CHI - Portage Park,1421,3484,1955,27,337,,Active,,,https://www.redfin.com/IL/Chicago/4855-W-Montrose-Ave-60641/home/13476385,MRED as Distributed by MLS Grid,12137199,N,Y,41.9604971,-87.7497652
MLS Listing,,Condo/Co-op,330 N Jefferson St #1002,Chicago,IL,60661,385000,1,1.0,CHI - Near West Side,864,,2000,27,446,677,Active,,,https://www.redfin.com/IL/Chicago/330-N-Jefferson-St-60661/unit-1002/home/12599519,MRED as Distributed by MLS Grid,12141636,N,Y,41.8876953,-87.6437642
MLS Listing,,Condo/Co-op,728 W Jackson Blvd #525,Chicago,IL,60661,269000,1,1.0,CHI - Near West Side,1000,,1925,30,269,580,Active,,,https://www.redfin.com/IL/Chicago/728-W-Jackson-Blvd-60661/unit-525/home/12814495,MRED as Distributed by MLS Grid,12138238,N,Y,41.8784211,-87.6449756
MLS Listing,,Townhouse,11217 S Avenue L Ave,Chicago,IL,60617,164900,2,1.0,CHI - South Chicago,947,3250,1949,31,174,,Active,,,https://www.redfin.com/IL/Chicago/11217-S-Avenue-L-60617/home/13035074,MRED as Distributed by MLS Grid,12134886,N,Y,41.6912724,-87.5361926
MLS Listing,,Condo/Co-op,5652 W 63rd St Unit 3E,Chicago,IL,60638,249000,2,2.0,CHI - Clearing,1100,,2006,31,226,190,Active,,,https://www.redfin.com/IL/Chicago/5652-W-63rd-St-60638/unit-3E/home/39517861,MRED as Distributed by MLS Grid,12132570,N,Y,41.7782489,-87.7638408
MLS Listing,,Single Family Residential,11079 S Bell Ave,Chicago,IL,60643,595000,4,2.5,CHI - Morgan Park,5126,14505,1916,31,116,,Active,,,https://www.redfin.com/IL/Chicago/11079-S-Bell-Ave-60643/home/13070844,MRED as Distributed by MLS Grid,12133381,N,Y,41.6922307,-87.6772104
MLS Listing,,Single Family Residential,1423 N California Ave,Chicago,IL,60622,875000,4,3.5,CHI - West Town,4000,,2018,31,219,,Active,,,https://www.redfin.com/IL/Chicago/1423-N-California-Ave-60622/home/17557497,MRED as Distributed by MLS Grid,12139295,N,Y,41.9073107,-87.6967204
MLS Listing,,Condo/Co-op,2827 N Woodard St Unit 1S,Chicago,IL,60618,338000,2,1.0,CHI - Avondale,1200,,1920,31,282,294,Active,,,https://www.redfin.com/IL/Chicago/2827-N-Woodard-St-60618/unit-1S/home/12702072,MRED as Distributed by MLS Grid,12136477,N,Y,41.9328942,-87.7118188
MLS Listing,,Condo/Co-op,3900 N Pine Grove Ave #302,Chicago,IL,60613,325000,2,2.0,CHI - Lake View,900,,1976,31,361,675,Active,,,https://www.redfin.com/IL/Chicago/3900-N-Pine-Grove-Ave-60613/unit-302/home/12613600,MRED as Distributed by MLS Grid,12125292,N,Y,41.9531382,-87.6481721
MLS Listing,,Condo/Co-op,3150 N Lake Shore Dr Unit 8E,Chicago,IL,60657,429000,3,2.0,CHI - Lake View,1650,,1963,32,260,1193,Active,,,https://www.redfin.com/IL/Chicago/3150-N-Lake-Shore-Dr-60657/unit-8E/home/13371357,MRED as Distributed by MLS Grid,12137916,N,Y,41.9390365,-87.6385457
MLS Listing,,Multi-Family (2-4 Unit),7408 S Eberhart Ave,Chicago,IL,60619,420000,6,4.0,CHI - Greater Grand Crossing,,3049,1921,34,,,Active,,,https://www.redfin.com/IL/Chicago/7408-S-Eberhart-Ave-60619/home/13918408,MRED as Distributed by MLS Grid,12131084,N,Y,41.7599364,-87.6129876
MLS Listing,,Condo/Co-op,2101 W Rice St #101,Chicago,IL,60622,479900,2,2.0,CHI - West Town,1500,,2001,37,320,362,Active,,,https://www.redfin.com/IL/Chicago/2101-W-Rice-St-60622/unit-101/home/12739819,MRED as Distributed by MLS Grid,12125382,N,Y,41.8966715,-87.6800721
MLS Listing,,Condo/Co-op,2423 W Fullerton Ave Unit 3E,Chicago,IL,60647,499900,2,2.0,CHI - Logan Square,1000,,2021,37,500,202,Active,,,https://www.redfin.com/IL/Chicago/2423-W-Fullerton-Ave-60647/unit-3E/home/177004017,MRED as Distributed by MLS Grid,12134339,N,Y,41.9247277,-87.6884714
MLS Listing,,Townhouse,860 W Lakeside Pl Unit A,Chicago,IL,60640,515000,3,2.5,CHI - Uptown,1800,,1988,38,286,295,Active,,,https://www.redfin.com/IL/Chicago/860-W-Lakeside-Pl-60640/unit-A/home/13394120,MRED as Distributed by MLS Grid,12096036,N,Y,41.9685109,-87.6524483
MLS Listing,,Condo/Co-op,400 W Huron St #1002,Chicago,IL,60654,1424900,3,2.5,CHI - Near North Side,2200,,2017,38,648,2359,Active,,,https://www.redfin.com/IL/Chicago/400-W-Huron-St-60654/unit-1002/home/113165022,MRED as Distributed by MLS Grid,12130278,N,Y,41.8949755,-87.6387316
MLS Listing,,Condo/Co-op,5900 S King Dr Unit C-3,Chicago,IL,60637,240000,3,2.0,CHI - Washington Park,1220,,1900,39,197,257,Active,,,https://www.redfin.com/IL/Chicago/5900-S-King-Dr-60637/unit-C-3/home/183808041,MRED as Distributed by MLS Grid,12129355,N,Y,41.787336,-87.6168859
MLS Listing,,Condo/Co-op,3440 N Lake Shore Dr Unit 14B,Chicago,IL,60657,364900,2,1.0,CHI - Lake View,,,1959,39,,921,Active,,,https://www.redfin.com/IL/Chicago/3440-N-Lake-Shore-Dr-60657/unit-14B/home/13376484,MRED as Distributed by MLS Grid,12132136,N,Y,41.9444587,-87.641485
MLS Listing,,Condo/Co-op,1806 W Belmont Ave #1,Chicago,IL,60657,869900,3,3.5,CHI - North Center,2200,,2017,39,395,278,Active,,,https://www.redfin.com/IL/Chicago/1806-W-Belmont-Ave-60657/unit-1/home/171312782,MRED as Distributed by MLS Grid,12132057,N,Y,41.9398309,-87.6742495
MLS Listing,,Condo/Co-op,4454 S Vincennes Ave Unit 3S,Chicago,IL,60653,265000,3,2.0,CHI - Grand Boulevard,1700,,2005,39,156,454,Active,,,https://www.redfin.com/IL/Chicago/4454-S-Vincennes-Ave-60653/unit-3S/home/172779265,MRED as Distributed by MLS Grid,12111830,N,Y,41.813291,-87.6142577
MLS Listing,,Multi-Family (2-4 Unit),6937 S Laflin St,Chicago,IL,60636,300000,4,2.0,CHI - West Englewood,,,1928,39,,,Active,,,https://www.redfin.com/IL/Chicago/6937-S-Laflin-St-60636/home/192043684,MRED as Distributed by MLS Grid,12119584,N,Y,41.7674693,-87.6611861
MLS Listing,,Condo/Co-op,2800 N Lake Shore Dr #1710,Chicago,IL,60657,525000,2,1.0,CHI - Lake View,,,1969,41,,823,Active,,,https://www.redfin.com/IL/Chicago/2800-N-Lake-Shore-Dr-60657/unit-1710/home/13369326,MRED as Distributed by MLS Grid,12129812,N,Y,41.933219,-87.6371314
MLS Listing,,Townhouse,4412 S Oakenwald Ave,Chicago,IL,60653,549000,4,2.5,CHI - Kenwood,2995,,1879,45,183,,Active,,,https://www.redfin.com/IL/Chicago/4412-S-Oakenwald-Ave-60653/home/13961558,MRED as Distributed by MLS Grid,12127183,N,Y,41.8147834,-87.5963121
MLS Listing,,Condo/Co-op,1838 N Western Ave #303,Chicago,IL,60647,750000,3,2.0,CHI - Logan Square,,,2022,45,,273,Active,,,https://www.redfin.com/IL/Chicago/1838-N-Western-Ave-60647/unit-303/home/176556040,MRED as Distributed by MLS Grid,12121649,N,Y,41.9151548,-87.6876683
MLS Listing,,Condo/Co-op,8629 1/2 W Foster Ave Unit 1A,Chicago,IL,60656,289000,3,3.0,CHI - O'Hare,2000,,1955,47,145,310,Active,,,https://www.redfin.com/IL/Chicago/8629-W-Foster-Ave-60656/unit-1A/home/191875854,MRED as Distributed by MLS Grid,12122397,N,Y,41.9723935,-87.8423318
MLS Listing,,Condo/Co-op,240 E Illinois St #2603,Chicago,IL,60611,399900,1,1.0,CHI - Near North Side,,,2008,48,,745,Active,,,https://www.redfin.com/IL/Chicago/240-E-Illinois-St-60611/unit-2603/home/13150347,MRED as Distributed by MLS Grid,12123907,N,Y,41.8911546,-87.6210377
MLS Listing,,Condo/Co-op,4343 N Clarendon Ave #1102,Chicago,IL,60613,279000,2,2.0,CHI - Uptown,1150,,1974,48,243,1090,Active,,,https://www.redfin.com/IL/Chicago/4343-N-Clarendon-Ave-60613/unit-1102/home/13398328,MRED as Distributed by MLS Grid,12123788,N,Y,41.9612878,-87.6494037
MLS Listing,,Single Family Residential,10821 S Eberhart Ave,Chicago,IL,60628,316000,4,3.0,CHI - Roseland,1212,4791,1941,48,261,,Active,,,https://www.redfin.com/IL/Chicago/10821-S-Eberhart-Ave-60628/home/13079455,MRED as Distributed by MLS Grid,12123555,N,Y,41.6975799,-87.610811
MLS Listing,,Condo/Co-op,1322 S Wabash Ave Ph 6,Chicago,IL,60605,710000,2,2.0,CHI - Near South Side,2221,,1903,50,320,822,Active,,,https://www.redfin.com/IL/Chicago/1322-S-Wabash-Ave-60605/unit-6/home/14083420,MRED as Distributed by MLS Grid,12122885,N,Y,41.8647709,-87.6261181
MLS Listing,,Single Family Residential,9133 S Drexel Ave,Chicago,IL,60619,289900,7,3.0,CHI - Burnside,2097,3049,1927,51,138,,Active,,,https://www.redfin.com/IL/Chicago/9133-S-Drexel-Ave-60619/home/192369314,MRED as Distributed by MLS Grid,12119710,N,Y,41.7284331,-87.6006817
MLS Listing,,Single Family Residential,9145 S Pleasant Ave,Chicago,IL,60643,640000,6,3.0,CHI - Beverly,2545,,1940,52,251,,Active,,,https://www.redfin.com/IL/Chicago/9145-S-Pleasant-Ave-60643/home/13099951,MRED as Distributed by MLS Grid,12118601,N,Y,41.7274679,-87.669786
MLS Listing,,Single Family Residential,2240 N Parkside Ave,Chicago,IL,60639,375000,4,2.0,CHI - Belmont Cragin,1072,3049,1927,52,350,,Active,,,https://www.redfin.com/IL/Chicago/2240-N-Parkside-Ave-60639/home/13427897,MRED as Distributed by MLS Grid,12117726,N,Y,41.92153,-87.767413
MLS Listing,,Condo/Co-op,2413 W Fullerton Ave #3,Chicago,IL,60647,674500,2,2.0,CHI - Logan Square,2000,,2015,52,337,215,Active,,,https://www.redfin.com/IL/Chicago/2413-W-Fullerton-Ave-60647/unit-3/home/144511007,MRED as Distributed by MLS Grid,12119967,N,Y,41.9246247,-87.6883538
MLS Listing,,Single Family Residential,6307 W Berenice Ave,Chicago,IL,60634,644000,5,4.5,CHI - Dunning,2302,6250,,53,280,,Active,,,https://www.redfin.com/IL/Chicago/6307-W-Berenice-Ave-60634/home/13468149,MRED as Distributed by MLS Grid,12118991,N,Y,41.9500323,-87.7843414
MLS Listing,,Condo/Co-op,1212 N Wells St #402,Chicago,IL,60610,350000,1,1.0,Neapolitan,1000,,2001,58,350,569,Active,,,https://www.redfin.com/IL/Chicago/1212-N-Wells-St-60610/unit-402/home/12724873,MRED as Distributed by MLS Grid,12116275,N,Y,41.9042955,-87.6347681
MLS Listing,,Multi-Family (2-4 Unit),3125 W Pershing Rd,Chicago,IL,60632,475000,6,3.0,CHI - Brighton Park,,3049,1914,58,,,Active,,,https://www.redfin.com/IL/Chicago/3125-W-Pershing-Rd-60632/home/14039193,MRED as Distributed by MLS Grid,12116101,N,Y,41.8224263,-87.7031539
MLS Listing,,Condo/Co-op,215 N Aberdeen St Unit B401,Chicago,IL,60607,384900,2,2.0,Blue Moon Lofts,,,1918,58,,576,Active,,,https://www.redfin.com/IL/Chicago/215-N-Aberdeen-St-60607/unit-401B/home/12738789,MRED as Distributed by MLS Grid,12116146,N,Y,41.886141,-87.654329
MLS Listing,,Single Family Residential,8214 S Laflin St,Chicago,IL,60620,240000,6,2.0,CHI - Auburn Gresham,1452,3920,1923,58,165,,Active,,,https://www.redfin.com/IL/Chicago/8214-S-Laflin-St-60620/home/13907190,MRED as Distributed by MLS Grid,12106197,N,Y,41.7444049,-87.6611498
MLS Listing,,Condo/Co-op,3130 W Fullerton Ave Unit 2E,Chicago,IL,60647,430000,2,2.0,CHI - Logan Square,1250,,2008,59,344,292,Active,,,https://www.redfin.com/IL/Chicago/3130-W-Fullerton-Ave-60647/unit-2E/home/13450602,MRED as Distributed by MLS Grid,12113627,N,Y,41.9249975,-87.7059012
MLS Listing,,Condo/Co-op,500 W Superior St #802,Chicago,IL,60654,525000,2,2.0,CHI - Near North Side,1154,,2005,62,455,1350,Active,,,https://www.redfin.com/IL/Chicago/500-W-Superior-St-60654/unit-802/home/12621468,MRED as Distributed by MLS Grid,12106008,N,Y,41.895951,-87.642196
MLS Listing,,Condo/Co-op,1355 N Sandburg Ter Unit 2108D,Chicago,IL,60610,308500,1,1.0,CHI - Near North Side,850,,1950,66,363,918,Active,,,https://www.redfin.com/IL/Chicago/1355-N-Sandburg-Ter-60610/unit-2108D/home/14112609,MRED as Distributed by MLS Grid,12101257,N,Y,41.9070365,-87.6319256
MLS Listing,,Condo/Co-op,600 N Dearborn St #1101,Chicago,IL,60654,450000,2,2.0,Farallon,,,2001,67,,1013,Active,,,https://www.redfin.com/IL/Chicago/600-N-Dearborn-St-60654/unit-1101/home/12696137,MRED as Distributed by MLS Grid,12106968,N,Y,41.8926974,-87.6301704
MLS Listing,,Single Family Residential,230 W 109th St,Chicago,IL,60628,80000,3,2.0,CHI - Roseland,1218,3049,1893,68,66,,Active,,,https://www.redfin.com/IL/Chicago/230-W-109th-St-60628/home/13076103,MRED as Distributed by MLS Grid,12101814,N,Y,41.6963379,-87.6292323
MLS Listing,,Condo/Co-op,225 S Sangamon St #811,Chicago,IL,60607,450000,2,2.0,CHI - Near West Side,1000,,2007,69,450,508,Active,,,https://www.redfin.com/IL/Chicago/225-S-Sangamon-St-60607/unit-811/home/52638433,MRED as Distributed by MLS Grid,12101595,N,Y,41.8782525,-87.6504831
MLS Listing,,Single Family Residential,9129 S Marshfield Ave,Chicago,IL,60620,275000,6,2.0,CHI - Washington Heights,1192,3920,1926,70,231,,Active,,,https://www.redfin.com/IL/Chicago/9129-S-Marshfield-Ave-60620/home/13100270,MRED as Distributed by MLS Grid,12097710,N,Y,41.7275371,-87.6637652
MLS Listing,,Condo/Co-op,2440 W Irving Park Rd #3,Chicago,IL,60618,699000,3,2.0,CHI - North Center,1750,,2019,72,399,230,Active,,,https://www.redfin.com/IL/Chicago/2440-W-Irving-Park-Rd-60618/unit-3/home/144322221,MRED as Distributed by MLS Grid,12102881,N,Y,41.9541656,-87.6900815
MLS Listing,,Condo/Co-op,5300 S Shore Dr #35,Chicago,IL,60615,230000,3,2.0,CHI - Hyde Park,1650,,1922,72,139,1366,Active,,,https://www.redfin.com/IL/Chicago/5300-S-Shore-Dr-60615/unit-35/home/188142289,MRED as Distributed by MLS Grid,12098970,N,Y,41.7993832,-87.5829545
MLS Listing,,Condo/Co-op,6812 N Wayne Ave Unit 3C,Chicago,IL,60626,155000,1,1.0,CHI - Rogers Park,600,,1925,74,258,208,Active,,,https://www.redfin.com/IL/Chicago/6812-N-Wayne-Ave-60626/unit-3C/home/12653952,MRED as Distributed by MLS Grid,12097633,N,Y,42.0059745,-87.6651702
MLS Listing,,Condo/Co-op,1720 S Michigan Ave #2004,Chicago,IL,60616,231000,1,1.0,CHI - Near South Side,720,,2007,83,321,334,Active,,,https://www.redfin.com/IL/Chicago/1720-S-Michigan-Ave-60616/unit-2004/home/39571796,MRED as Distributed by MLS Grid,12093012,N,Y,41.8586026,-87.6246153
MLS Listing,,Condo/Co-op,235 W Van Buren St #4508,Chicago,IL,60607,490000,2,2.0,CHI - Loop,1155,,2009,83,424,546,Active,,,https://www.redfin.com/IL/Chicago/235-W-Van-Buren-St-60607/unit-4508/home/113099009,MRED as Distributed by MLS Grid,12085002,N,Y,41.8765303,-87.6347529
MLS Listing,,Condo/Co-op,6431 N Damen Ave Unit 1E,Chicago,IL,60645,300000,3,2.0,Edgemoor Park Condos,1100,,1960,95,273,334,Active,,,https://www.redfin.com/IL/Chicago/6431-N-Damen-Ave-60645/unit-1E/home/18943903,MRED as Distributed by MLS Grid,12082510,N,Y,41.9986704,-87.6795724
MLS Listing,,Condo/Co-op,303 W Ohio St #1604,Chicago,IL,60654,319000,1,1.0,CHI - Near North Side,728,,2009,121,438,601,Active,,,https://www.redfin.com/IL/Chicago/303-W-Ohio-St-60654/unit-1604/home/40369364,MRED as Distributed by MLS Grid,12055404,N,Y,41.8921257,-87.6357066
MLS Listing,,Condo/Co-op,1528 S Wabash Ave #401,Chicago,IL,60605,274999,2,1.0,CHI - Near South Side,1180,,1904,128,233,724,Active,,,https://www.redfin.com/IL/Chicago/1528-S-Wabash-Ave-60605/unit-401/home/12694156,MRED as Distributed by MLS Grid,12043257,N,Y,41.8609592,-87.6260054
MLS Listing,,Single Family Residential,10644 S Wallace St,Chicago,IL,60628,300000,4,3.0,CHI - Roseland,1546,3920,1926,131,194,,Active,,,https://www.redfin.com/IL/Chicago/10644-S-Wallace-St-60628/home/13079229,MRED as Distributed by MLS Grid,12043361,N,Y,41.7002039,-87.6380737
MLS Listing,,Condo/Co-op,505 N Mcclurg Ct #2602,Chicago,IL,60611,824900,2,2.0,Parkview Condominiums,1464,,2008,150,563,1275,Active,,,https://www.redfin.com/IL/Chicago/505-N-McClurg-Ct-60611/unit-2602/home/21815594,MRED as Distributed by MLS Grid,12014941,N,Y,41.8915247,-87.6173266
MLS Listing,,Condo/Co-op,777 N Michigan Ave #1802,Chicago,IL,60611,161900,0,1.0,CHI - Near North Side,600,,1965,179,270,482,Active,,,https://www.redfin.com/IL/Chicago/777-N-Michigan-Ave-60611/unit-1802/home/14098558,MRED as Distributed by MLS Grid,12004069,N,Y,41.89639,-87.62382
Redfin Data,,Multi-Family (2-4 Unit),5028 N Major Ave,Chicago,IL,60630,769900,8,3.0,Chicago,2442,3484,1915,2,315,,Pre On-Market,,,https://www.redfin.com/IL/Chicago/5028-N-Major-Ave-60630/home/13500899,Coming Soon,101687,N,Y,41.9731608,-87.7712875
Redfin Data,,Single Family Residential,6141 S Rockwell St,Chicago,IL,60629,125000,3,1.0,Chicago,1298,3750,1922,2,96,,Pre On-Market,,,https://www.redfin.com/IL/Chicago/6141-S-Rockwell-St-60629/home/14011652,Coming Soon,101683,N,Y,41.7816459,-87.6883309
Redfin Data,,Condo/Co-op,7031 W Touhy Ave #308,Niles,IL,60714,315000,2,1.0,Niles,1363,,1998,6,231,363,Pre On-Market,,,https://www.redfin.com/IL/Niles/7031-W-Touhy-Ave-60714/unit-308/home/192436975,Coming Soon,101562,N,Y,42.0109136,-87.8029301
Redfin Data,,Condo/Co-op,4157 N Bernard St #2,Chicago,IL,60618,245000,2,1.0,Chicago,,,1929,10,,243,Pre On-Market,,,https://www.redfin.com/IL/Chicago/4157-N-Bernard-St-60618/unit-2/home/12687243,Coming Soon,101489,N,Y,41.957332,-87.713889
Redfin Data,,Condo/Co-op,1725 W Division St #201,Chicago,IL,60622,750000,2,2.0,Chicago,,6250,,11,,580,Pre On-Market,,,https://www.redfin.com/IL/Chicago/1725-W-Division-St-60622/unit-201/home/173041437,Coming Soon,101468,N,Y,41.9029869,-87.6709723
Redfin Data,,Condo/Co-op,8 W Monroe St #2100,Chicago,IL,60603,1290000,4,2.5,Chicago,5388,,1912,46,239,2277,Pre On-Market,,,https://www.redfin.com/IL/Chicago/8-W-Monroe-St-60603/unit-2100/home/45513676,Coming Soon,100732,N,Y,41.8808597,-87.6283136
Redfin Data,,Condo/Co-op,50 E 16th St #406,Chicago,IL,60616,375000,2,2.0,Chicago,1000,,2008,67,375,728,Pre On-Market,,,https://www.redfin.com/IL/Chicago/50-E-16th-St-60616/unit-406/home/21814069,Coming Soon,100151,N,Y,41.8603983,-87.6251554
Redfin Data,,Condo/Co-op,2909 N Sheridan Rd #1607,Chicago,IL,60657,215000,1,1.0,North Side,950,,1952,79,226,866,Pre On-Market,,,https://www.redfin.com/IL/Chicago/2909-N-Sheridan-Rd-60657/unit-1607/home/13370724,Coming Soon,99858,N,Y,41.9347019,-87.6391327
MLS Listing,,Single Family Residential,12249 S Loomis St,Chicago,IL,60643,143500,2,1.0,CHI - West Pullman,727,5227,1947,1,197,,Active,September-21-2024 02:00 PM,September-21-2024 04:00 PM,https://www.redfin.com/IL/Chicago/12249-S-Loomis-St-60643/home/13053593,MRED as Distributed by MLS Grid,12159835,N,Y,41.6707178,-87.6560335
MLS Listing,,Single Family Residential,3516 N Nottingham Ave,Chicago,IL,60634,435000,3,2.5,CHI - Dunning,1186,,1929,1,367,,Active,,,https://www.redfin.com/IL/Chicago/3516-N-Nottingham-Ave-60634/home/13469098,MRED as Distributed by MLS Grid,12164239,N,Y,41.9440572,-87.8047552
MLS Listing,,Single Family Residential,9608 S Emerald Ave,Chicago,IL,60628,220000,2,1.5,CHI - Washington Heights,1163,,1944,1,189,,Active,,,https://www.redfin.com/IL/Chicago/9608-S-Emerald-Ave-60628/home/13092228,MRED as Distributed by MLS Grid,12164733,N,Y,41.7192943,-87.6422354
MLS Listing,,Condo/Co-op,453 N May St Unit 1N,Chicago,IL,60642,549000,2,2.0,CHI - West Town,,,2005,1,,396,Active,,,https://www.redfin.com/IL/Chicago/453-N-May-St-60642/unit-1N/home/26812904,MRED as Distributed by MLS Grid,12164674,N,Y,41.8905745,-87.6555113
MLS Listing,,Single Family Residential,1509 S Karlov Ave,Chicago,IL,60623,225000,3,2.0,CHI - North Lawndale,1597,,2004,1,141,,Active,,,https://www.redfin.com/IL/Chicago/1509-S-Karlov-Ave-60623/home/12564356,MRED as Distributed by MLS Grid,12164693,N,Y,41.8603245,-87.727151
MLS Listing,,Condo/Co-op,200 E Delaware Pl Unit 11D,Chicago,IL,60611,699000,3,2.0,CHI - Near North Side,1550,,1974,1,451,1624,Active,,,https://www.redfin.com/IL/Chicago/200-E-Delaware-Pl-60611/unit-11D/home/14119895,MRED as Distributed by MLS Grid,12159130,N,Y,41.8995075,-87.6211813
MLS Listing,,Condo/Co-op,300 N State St #5130,Chicago,IL,60654,259000,1,1.0,Marina City,725,,1963,1,357,729,Active,September-21-2024 12:00 PM,September-21-2024 02:00 PM,https://www.redfin.com/IL/Chicago/300-N-State-St-60654/unit-5130/home/14099985,MRED as Distributed by MLS Grid,12164703,N,Y,41.8881116,-87.628363
MLS Listing,,Townhouse,4746 S Kenwood Ave,Chicago,IL,60615,539900,4,3.5,CHI - Kenwood,2400,1240,1967,1,225,150,Active,,,https://www.redfin.com/IL/Chicago/4746-S-Kenwood-Ave-60615/home/13950820,MRED as Distributed by MLS Grid,12164704,N,Y,41.8082953,-87.5939667
MLS Listing,,Condo/Co-op,10765 S Pulaski Rd #4,Chicago,IL,60655,148000,2,1.0,CHI - Mount Greenwood,800,,,1,185,326,Active,,,https://www.redfin.com/IL/Chicago/10765-S-Pulaski-Rd-60655/unit-4/home/12657709,MRED as Distributed by MLS Grid,12160870,N,Y,41.6968164,-87.7196327
MLS Listing,,Single Family Residential,6727 W Imlay St,Chicago,IL,60631,875000,4,3.5,CHI - Norwood Park,3500,3698,2024,1,250,,Active,,,https://www.redfin.com/IL/Chicago/6727-W-Imlay-St-60631/home/13594364,MRED as Distributed by MLS Grid,12164635,N,Y,41.9987364,-87.7966021
MLS Listing,,Condo/Co-op,1546 N Hudson Ave #1,Chicago,IL,60610,627000,3,2.5,CHI - Near North Side,,,,1,,271,Active,,,https://www.redfin.com/IL/Chicago/1546-N-Hudson-Ave-60610/unit-1/home/12687480,MRED as Distributed by MLS Grid,12164524,N,Y,41.9106018,-87.64001
MLS Listing,,Condo/Co-op,5358 N Cumberland Ave NW #303,Chicago,IL,60656,147900,1,1.0,CHI - O'Hare,844,,1975,1,175,315,Active,,,https://www.redfin.com/IL/Chicago/5358-N-Cumberland-Ave-60656/unit-303/home/189649109,MRED as Distributed by MLS Grid,12164596,N,Y,41.9771672,-87.8373406
MLS Listing,,Single Family Residential,1802 N Mozart St,Chicago,IL,60647,1339000,4,3.5,CHI - Logan Square,3300,2500,2016,1,406,,Active,,,https://www.redfin.com/IL/Chicago/1802-N-Mozart-St-60647/home/13415872,MRED as Distributed by MLS Grid,12118216,N,Y,41.9141094,-87.6984106
MLS Listing,,Condo/Co-op,6301 N Sheridan Rd Unit 22V,Chicago,IL,60660,199000,1,1.0,CHI - Edgewater,800,,1963,1,249,852,Active,September-21-2024 11:00 AM,September-21-2024 02:00 PM,https://www.redfin.com/IL/Chicago/6301-N-Sheridan-Rd-60660/unit-22V/home/13412926,MRED as Distributed by MLS Grid,12153075,N,Y,41.9967345,-87.6550688
MLS Listing,,Single Family Residential,5931 S Troy St,Chicago,IL,60629,125000,2,1.0,CHI - Chicago Lawn,700,,1922,1,179,,Active,,,https://www.redfin.com/IL/Chicago/5931-S-Troy-St-60629/home/14014486,MRED as Distributed by MLS Grid,12157753,N,Y,41.7853508,-87.7015872
MLS Listing,,Condo/Co-op,41 E 8th St #1303,Chicago,IL,60605,395000,2,2.0,CHI - Loop,1270,,2002,1,311,824,Active,,,https://www.redfin.com/IL/Chicago/41-E-8th-St-60605/unit-1303/home/12670047,MRED as Distributed by MLS Grid,12164629,N,Y,41.8717102,-87.6263215
MLS Listing,,Condo/Co-op,1520 N State Blvd #3,Chicago,IL,60610,950000,3,2.5,CHI - Near North Side,3500,,1890,1,271,1871,Active,,,https://www.redfin.com/IL/Chicago/1520-N-State-Pkwy-60610/unit-3/home/192567136,MRED as Distributed by MLS Grid,12164578,N,Y,41.9101978,-87.6292095
MLS Listing,,Multi-Family (2-4 Unit),920 S Bishop St,Chicago,IL,60607,739000,6,3.0,CHI - Near West Side,,,1868,1,,,Active,,,https://www.redfin.com/IL/Chicago/920-S-Bishop-St-60607/home/14090884,MRED as Distributed by MLS Grid,12164589,N,Y,41.8699297,-87.6631708
MLS Listing,,Multi-Family (2-4 Unit),3739 N Clifton Ave,Chicago,IL,60613,949900,5,3.0,CHI - Lake View,,3000,1899,1,,,Active,,,https://www.redfin.com/IL/Chicago/3739-N-Clifton-Ave-60613/home/13383434,MRED as Distributed by MLS Grid,12153136,N,Y,41.9501816,-87.657248
MLS Listing,,Single Family Residential,8602 S Laflin St,Chicago,IL,60620,365000,5,3.0,,2746,3125,1924,1,133,,Active,September-21-2024 11:00 AM,September-21-2024 01:00 PM,https://www.redfin.com/IL/Chicago/Undisclosed-address-60620/home/13229809,MRED as Distributed by MLS Grid,12164552,N,Y,41.7374196,-87.6609563
MLS Listing,,Multi-Family (2-4 Unit),6221 S Massasoit Ave,Chicago,IL,60638,409900,4,3.0,CHI - Clearing,,3484,1948,1,,,Active,,,https://www.redfin.com/IL/Chicago/6221-S-Massasoit-Ave-60638/home/12584009,MRED as Distributed by MLS Grid,12164570,N,Y,41.7791717,-87.7651459
MLS Listing,,Condo/Co-op,4015 N Milwaukee Ave #202,Chicago,IL,60641,307000,2,2.0,CHI - Portage Park,1032,,,1,297,406,Active,,,https://www.redfin.com/IL/Chicago/4015-N-Milwaukee-Ave-60641/unit-202/home/26805000,MRED as Distributed by MLS Grid,12164563,N,Y,41.9539292,-87.7474635
MLS Listing,,Condo/Co-op,3600 N Lake Shore Dr #2112,Chicago,IL,60613,309000,1,1.0,CHI - Lake View,925,,1960,1,334,839,Active,,,https://www.redfin.com/IL/Chicago/3600-N-Lake-Shore-Dr-60613/unit-2112/home/13378305,MRED as Distributed by MLS Grid,12161593,N,Y,41.9489369,-87.6441842
MLS Listing,,Single Family Residential,3033 W Chase Ave,Chicago,IL,60645,541000,3,2.0,CHI - West Ridge,3300,3968,1958,1,164,,Active,,,https://www.redfin.com/IL/Chicago/3033-W-Chase-Ave-60645/home/13602245,MRED as Distributed by MLS Grid,12164534,N,Y,42.0135066,-87.705768
MLS Listing,,Multi-Family (2-4 Unit),5633 N Meade Ave,Chicago,IL,60646,609000,6,2.0,CHI - Norwood Park,,3484,1925,1,,,Active,,,https://www.redfin.com/IL/Chicago/5633-N-Meade-Ave-60646/home/13509353,MRED as Distributed by MLS Grid,12159452,N,Y,41.9839224,-87.7801755
MLS Listing,,Condo/Co-op,345 E Eastgate Pl #606,Chicago,IL,60616,150000,1,1.0,CHI - Near South Side,600,,1966,1,250,410,Active,,,https://www.redfin.com/IL/Chicago/345-E-Eastgate-Pl-60616/unit-606/home/26821707,MRED as Distributed by MLS Grid,12164547,N,Y,41.8465294,-87.6185981
MLS Listing,,Condo/Co-op,850 N Lake Shore Dr #803,Chicago,IL,60611,639000,1,1.0,CHI - Near North Side,1255,,1927,1,509,849,Active,,,https://www.redfin.com/IL/Chicago/850-N-Lake-Shore-Dr-60611/unit-803/home/192566625,MRED as Distributed by MLS Grid,12164518,N,Y,41.8982543,-87.6186746
MLS Listing,,Condo/Co-op,6000 N Cicero Ave #306,Chicago,IL,60646,389000,2,2.0,CHI - Forest Glen,1216,,2004,1,320,560,Active,,,https://www.redfin.com/IL/Chicago/6000-N-Cicero-Ave-60646/unit-306/home/18918688,MRED as Distributed by MLS Grid,12163849,N,Y,41.9727887,-87.7143059
MLS Listing,,Multi-Family (2-4 Unit),7725 S Phillips Ave,Chicago,IL,60649,275000,9,6.0,CHI - South Shore,,,1926,1,,,Active,,,https://www.redfin.com/IL/Chicago/7725-S-Phillips-Ave-60649/home/13216523,MRED as Distributed by MLS Grid,12164258,N,Y,41.7545762,-87.5647866
MLS Listing,,Single Family Residential,5218 N Natoma Ave,Chicago,IL,60656,609000,4,3.0,Union Ridge,2140,3750,1956,1,285,,Active,,,https://www.redfin.com/IL/Chicago/5218-N-Natoma-Ave-60656/home/13504768,MRED as Distributed by MLS Grid,12164468,N,Y,41.9762503,-87.7929865
MLS Listing,,Condo/Co-op,11036 S Kilpatrick Ave Unit 2SE,Oak Lawn,IL,60453,155000,2,1.0,Oak Lawn,,,1978,1,,190,Active,,,https://www.redfin.com/IL/Oak-Lawn/11036-Kilpatrick-Ave-60453/unit-2SE/home/12817557,MRED as Distributed by MLS Grid,12164436,N,Y,41.6915962,-87.7376396
MLS Listing,,Condo/Co-op,440 N Wabash Ave #908,Chicago,IL,60611,255000,1,1.0,CHI - Near North Side,850,,1992,1,300,505,Active,,,https://www.redfin.com/IL/Chicago/440-N-Wabash-Ave-60611/unit-908/home/12589353,MRED as Distributed by MLS Grid,12164279,N,Y,41.8903711,-87.6269739
MLS Listing,,Multi-Family (2-4 Unit),1759 E 72nd Pl,Chicago,IL,60649,159900,5,3.0,CHI - South Shore,,3075,1905,1,,,Active,,,https://www.redfin.com/IL/Chicago/1759-E-72nd-Pl-60649/home/189678843,MRED as Distributed by MLS Grid,12164416,N,Y,41.7631282,-87.5813456
MLS Listing,,Single Family Residential,8111 S Chappel Ave,Chicago,IL,60617,353000,5,3.0,CHI - South Chicago,2700,3781,1922,1,131,,Active,,,https://www.redfin.com/IL/Chicago/8111-S-Chappel-Ave-60617/home/13220348,MRED as Distributed by MLS Grid,12164438,N,Y,41.7476075,-87.5744315
MLS Listing,,Multi-Family (2-4 Unit),3622 W Franklin Blvd,Chicago,IL,60624,525000,9,3.0,CHI - Humboldt Park,,,1907,1,,,Active,September-21-2024 02:30 PM,September-21-2024 03:30 PM,https://www.redfin.com/IL/Chicago/3622-W-Franklin-Blvd-60624/home/13261505,MRED as Distributed by MLS Grid,12158369,N,Y,41.8906297,-87.7171085
MLS Listing,,Single Family Residential,3830 W 65th Pl,Chicago,IL,60629,346828,5,2.0,CHI - West Lawn,,4500,1957,1,,,Active,,,https://www.redfin.com/IL/Chicago/3830-W-65th-Pl-60629/home/13990306,MRED as Distributed by MLS Grid,12163683,N,Y,41.7743762,-87.71903
MLS Listing,,Condo/Co-op,1524 S Sangamon St #615,Chicago,IL,60608,249999,1,1.0,CHI - Near West Side,870,,2001,1,287,800,Active,,,https://www.redfin.com/IL/Chicago/1524-S-Sangamon-St-60608/unit-615/home/178674188,MRED as Distributed by MLS Grid,12164419,N,Y,41.8607231,-87.6504828
MLS Listing,,Single Family Residential,10401 S Central Park Ave,Chicago,IL,60655,409000,3,2.0,CHI - Mount Greenwood,1500,6000,1953,1,273,,Active,,,https://www.redfin.com/IL/Chicago/10401-S-Central-Park-Ave-60655/home/13156332,MRED as Distributed by MLS Grid,12163405,N,Y,41.7041729,-87.710739
MLS Listing,,Condo/Co-op,7033 N Kedzie Ave #1713,Chicago,IL,60645,199000,2,2.0,Winston Towers,1500,,1967,1,133,1200,Active,,,https://www.redfin.com/IL/Chicago/7033-N-Kedzie-Ave-60645/unit-1713/home/13584599,MRED as Distributed by MLS Grid,12155103,N,Y,42.009044,-87.7084466
MLS Listing,,Multi-Family (2-4 Unit),6431 N Campbell Ave,Chicago,IL,60645,479999,6,3.0,CHI - West Ridge,,3125,1925,1,,,Active,,,https://www.redfin.com/IL/Chicago/6431-N-Campbell-Ave-60645/home/13582078,MRED as Distributed by MLS Grid,12164393,N,Y,41.99862,-87.6920321
MLS Listing,,Condo/Co-op,4749 W School St Unit 1E,Chicago,IL,60641,165000,2,1.0,CHI - Portage Park,753,,,1,219,154,Active,,,https://www.redfin.com/IL/Chicago/4749-W-School-St-60641/unit-1E/home/22203652,MRED as Distributed by MLS Grid,12164369,N,Y,41.9405272,-87.7456732
MLS Listing,,Multi-Family (2-4 Unit),1938 W School St,Chicago,IL,60657,999995,8,6.0,CHI - North Center,,3125,1893,1,,,Active,,,https://www.redfin.com/IL/Chicago/1938-W-School-St-60657/home/192022774,MRED as Distributed by MLS Grid,12164391,N,Y,41.9415977,-87.6775036
MLS Listing,,Multi-Family (2-4 Unit),2855 S Quinn St,Chicago,IL,60608,638000,7,5.0,CHI - Bridgeport,,2424,,1,,,Active,,,https://www.redfin.com/IL/Chicago/2855-S-Quinn-St-60608/home/192562438,MRED as Distributed by MLS Grid,12164388,N,Y,41.8417857,-87.6510416
MLS Listing,,Condo/Co-op,1921 W Hood Ave Unit 3B,Chicago,IL,60660,134995,3,1.0,CHI - West Ridge,,,1950,1,,600,Active,,,https://www.redfin.com/IL/Chicago/1921-W-Hood-Ave-60660/unit-3B/home/21845463,MRED as Distributed by MLS Grid,12164260,N,Y,41.9929443,-87.6780303
MLS Listing,,Single Family Residential,5105 N New England Ave,Chicago,IL,60656,375000,4,2.0,CHI - Norwood Park,1493,3750,1949,1,251,,Active,,,https://www.redfin.com/IL/Chicago/5105-N-New-England-Ave-60656/home/13505650,MRED as Distributed by MLS Grid,12153094,N,Y,41.9739834,-87.7985137
MLS Listing,,Multi-Family (2-4 Unit),6151 S Langley Ave,Chicago,IL,60637,250000,6,2.0,CHI - Woodlawn,,3484,1910,1,,,Active,,,https://www.redfin.com/IL/Chicago/6151-S-Langley-Ave-60637/home/13942961,MRED as Distributed by MLS Grid,12157263,N,Y,41.7825313,-87.6081724
MLS Listing,,Single Family Residential,2604 W Farwell Ave,Chicago,IL,60645,769000,6,3.0,CHI - West Ridge,2450,,1923,1,314,,Active,,,https://www.redfin.com/IL/Chicago/2604-W-Farwell-Ave-60645/home/13584521,MRED as Distributed by MLS Grid,12160249,N,Y,42.006066,-87.6952683
MLS Listing,,Multi-Family (2-4 Unit),1308 S 58th Ave,Cicero,IL,60804,400000,8,3.0,Cicero,,,1921,1,,,Active,,,https://www.redfin.com/IL/Cicero/1308-S-58th-Ave-60804/home/13241802,MRED as Distributed by MLS Grid,12164355,N,Y,41.8632096,-87.7694061
MLS Listing,,Single Family Residential,8450 S Paulina St,Chicago,IL,60620,257500,3,1.5,CHI - Auburn Gresham,1131,4007,1950,1,228,,Active,,,https://www.redfin.com/IL/Chicago/8450-S-Paulina-St-60620/home/13908125,MRED as Distributed by MLS Grid,12158201,N,Y,41.73971,-87.6658835
MLS Listing,,Condo/Co-op,4800 S Chicago Beach Dr Unit 2110N,Chicago,IL,60615,110000,0,1.0,CHI - Kenwood,550,,1960,1,200,384,Active,,,https://www.redfin.com/IL/Chicago/4800-S-Chicago-Beach-Dr-60615/unit-2110N/home/192562266,MRED as Distributed by MLS Grid,12164171,N,Y,41.8064982,-87.5866451
MLS Listing,,Single Family Residential,7000 S Paulina Ave,Chicago,IL,60636,74900,3,1.5,CHI - West Englewood,1040,3100,1964,1,72,,Active,,,https://www.redfin.com/IL/Chicago/7000-S-Paulina-St-60636/home/13934136,MRED as Distributed by MLS Grid,12164336,N,Y,41.7665794,-87.6665504
MLS Listing,,Multi-Family (2-4 Unit),6738 S Campbell Ave,Chicago,IL,60629,380000,6,2.0,CHI - Chicago Lawn,,,1924,1,,,Active,,,https://www.redfin.com/IL/Chicago/6738-S-Campbell-Ave-60629/home/13986637,MRED as Distributed by MLS Grid,12164281,N,Y,41.7707818,-87.6861368
MLS Listing,,Condo/Co-op,880 N Lake Shore Dr Unit 5D,Chicago,IL,60611,215000,1,1.0,CHI - Near North Side,800,,1951,1,269,1101,Active,,,https://www.redfin.com/IL/Chicago/880-N-Lake-Shore-Dr-60611/unit-5D/home/21796008,MRED as Distributed by MLS Grid,12164324,N,Y,41.8990893,-87.6189523
MLS Listing,,Multi-Family (2-4 Unit),8458 S Burnham Ave,Chicago,IL,60617,199900,6,2.0,CHI - South Chicago,,3125,1898,1,,,Active,,,https://www.redfin.com/IL/Chicago/8458-S-Burnham-Ave-60617/home/13213819,MRED as Distributed by MLS Grid,12164305,N,Y,41.7410773,-87.5566283
MLS Listing,,Single Family Residential,5301 W Berteau Ave,Chicago,IL,60641,475000,3,2.5,CHI - Portage Park,2549,,,1,186,,Active,,,https://www.redfin.com/IL/Chicago/5301-W-Berteau-Ave-60641/home/192562019,MRED as Distributed by MLS Grid,12164192,N,Y,41.9567018,-87.7598963
MLS Listing,,Multi-Family (2-4 Unit),8520 S Muskegon Ave,Chicago,IL,60617,89900,4,2.0,CHI - South Chicago,,4375,1918,1,,,Active,,,https://www.redfin.com/IL/Chicago/8520-S-Muskegon-Ave-60617/home/13212740,MRED as Distributed by MLS Grid,12164298,N,Y,41.7403068,-87.5553712
MLS Listing,,Single Family Residential,7818 W Victoria St,Chicago,IL,60631,429000,4,2.0,CHI - Norwood Park,1560,,1945,1,275,,Active,,,https://www.redfin.com/IL/Chicago/7818-W-Victoria-St-60631/home/13565508,MRED as Distributed by MLS Grid,12158575,N,Y,41.9853299,-87.8225528
MLS Listing,,Condo/Co-op,1803 W Ohio St #3,Chicago,IL,60622,460000,3,3.0,West Town,1300,,,1,354,307,Active,,,https://www.redfin.com/IL/Chicago/1803-W-Ohio-St-60622/unit-3/home/40376822,MRED as Distributed by MLS Grid,12161337,N,Y,41.8921911,-87.6723095
MLS Listing,,Condo/Co-op,1018 E 52nd St #3,Chicago,IL,60615,255000,2,1.0,CHI - Hyde Park,,,1913,1,,,Active,,,https://www.redfin.com/IL/Chicago/1018-E-52nd-St-60615/unit-3/home/13950197,MRED as Distributed by MLS Grid,12164089,N,Y,41.800979,-87.6004302
MLS Listing,,Condo/Co-op,21 E Huron St #1201,Chicago,IL,60611,475000,1,1.5,CHI - Near North Side,1004,,2005,1,473,853,Active,,,https://www.redfin.com/IL/Chicago/21-E-Huron-St-60611/unit-1201/home/12627103,MRED as Distributed by MLS Grid,12164246,N,Y,41.8945104,-87.6271139
MLS Listing,,Multi-Family (2-4 Unit),3220 W Polk St,Chicago,IL,60624,449000,7,5.0,CHI - Near West Side,,4200,,1,,,Active,,,https://www.redfin.com/IL/Chicago/3220-W-Polk-St-60624/home/13257161,MRED as Distributed by MLS Grid,12162794,N,Y,41.87119,-87.7067247
MLS Listing,,Single Family Residential,222 E 87th St,Chicago,IL,60619,260000,3,2.0,CHI - Chatham,1950,3125,1963,1,133,,Active,,,https://www.redfin.com/IL/Chicago/222-E-87th-St-60619/home/13223069,MRED as Distributed by MLS Grid,12164235,N,Y,41.7366657,-87.6182979
MLS Listing,,Single Family Residential,12812 S Exchange Ave,Chicago,IL,60633,255000,3,1.0,CHI - Hegewisch,1234,5000,1960,1,207,,Active,,,https://www.redfin.com/IL/Chicago/12812-S-Exchange-Ave-60633/home/13033354,MRED as Distributed by MLS Grid,12163391,N,Y,41.6623614,-87.5522659
MLS Listing,,Single Family Residential,4746 S Knox Ave,Chicago,IL,60632,249900,5,2.0,CHI - Garfield Ridge,3780,3125,1957,1,66,,Active,,,https://www.redfin.com/IL/Chicago/4746-S-Knox-Ave-60632/home/14023734,MRED as Distributed by MLS Grid,12161101,N,Y,41.8063139,-87.7397278
MLS Listing,,Condo/Co-op,451 E Grand Ave Ph 66,Chicago,IL,60611,6995000,4,5.0,CHI - Near North Side,7147,,2019,1,979,13500,Active,,,https://www.redfin.com/IL/Chicago/514-N-Peshtigo-Ct-60611/unit-66/home/192560645,MRED as Distributed by MLS Grid,12162907,N,Y,41.8915302,-87.6155923
MLS Listing,,Townhouse,7009 Lorel Ave,Skokie,IL,60077,495000,3,2.5,Kingston Estates,2407,1950,1992,1,206,400,Active,,,https://www.redfin.com/IL/Skokie/7009-Lorel-Ave-60077/home/13592629,MRED as Distributed by MLS Grid,12164172,N,Y,42.0086683,-87.7604228
MLS Listing,,Condo/Co-op,2200 W Cullom Ave #1,Chicago,IL,60618,620000,4,2.5,CHI - North Center,2400,,1910,1,258,260,Active,,,https://www.redfin.com/IL/Chicago/2200-W-Cullom-Ave-60618/unit-1/home/12688950,MRED as Distributed by MLS Grid,12164222,N,Y,41.9597759,-87.6839471
MLS Listing,,Condo/Co-op,1636 N Wells St #1803,Chicago,IL,60614,325000,1,1.0,Americana Towers,800,,1974,1,406,777,Active,,,https://www.redfin.com/IL/Chicago/1636-N-Wells-St-60614/unit-1803/home/13344151,MRED as Distributed by MLS Grid,12164203,N,Y,41.9122822,-87.6354498
MLS Listing,,Multi-Family (2-4 Unit),4330 N Austin Ave,Chicago,IL,60634,725000,7,3.0,CHI - Portage Park,,3484,1928,1,,,Active,,,https://www.redfin.com/IL/Chicago/4330-N-Austin-Ave-60634/home/13474676,MRED as Distributed by MLS Grid,12162521,N,Y,41.9594978,-87.7772591
MLS Listing,,Condo/Co-op,405 N Wabash Ave #4211,Chicago,IL,60611,315000,0,1.0,CHI - Near North Side,890,,1977,1,354,850,Active,,,https://www.redfin.com/IL/Chicago/405-N-Wabash-Ave-60611/unit-4211/home/14099443,MRED as Distributed by MLS Grid,12158120,N,Y,41.8897553,-87.626013
MLS Listing,,Condo/Co-op,6730 S South Shore Dr #604,Chicago,IL,60649,189000,2,2.0,CHI - South Shore,900,,,1,210,,Active,,,https://www.redfin.com/IL/Chicago/6730-S-South-Shore-Dr-60649/unit-604/home/12676920,MRED as Distributed by MLS Grid,12164149,N,Y,41.772514,-87.5670071
MLS Listing,,Condo/Co-op,555 W Cornelia Ave #412,Chicago,IL,60657,203000,1,1.0,Stratford Place,770,,1960,1,264,779,Active,,,https://www.redfin.com/IL/Chicago/555-W-Cornelia-Ave-60657/unit-412/home/13376054,MRED as Distributed by MLS Grid,12164021,N,Y,41.9456908,-87.6441618
MLS Listing,,Parking,405 N Wabash Ave Unit D-54,Chicago,IL,60611,35000,,,CHI - Near North Side,,186,1972,1,,185,Active,,,https://www.redfin.com/IL/Chicago/405-N-Wabash-Ave-60611/unit-D-54/home/192560431,MRED as Distributed by MLS Grid,12164197,N,Y,41.8897553,-87.626013
MLS Listing,,Vacant Land,1430 W Summerdale Ave,Chicago,IL,60640,629000,,,CHI - Edgewater,,3049,,1,,,Active,,,https://www.redfin.com/IL/Chicago/1430-W-Summerdale-Ave-60640/home/13402133,MRED as Distributed by MLS Grid,12163598,N,Y,41.9792342,-87.6661647
MLS Listing,,Condo/Co-op,5052 N Marine Dr Unit D6,Chicago,IL,60640,180000,2,1.0,CHI - Uptown,750,,1939,1,240,798,Active,,,https://www.redfin.com/IL/Chicago/5052-N-Marine-Dr-60640/unit-D6/home/192560351,MRED as Distributed by MLS Grid,12164046,N,Y,41.9751463,-87.6525585
MLS Listing,,Single Family Residential,1107 Peale Ave,Park Ridge,IL,60068,525000,3,3.0,Park Ridge,2074,9000,1951,1,253,,Active,,,https://www.redfin.com/IL/Park-Ridge/1107-Peale-Ave-60068/home/13634982,MRED as Distributed by MLS Grid,12159143,N,Y,41.9976979,-87.8247466
MLS Listing,,Single Family Residential,3101 W 100th St,Evergreen Park,IL,60805,259900,3,2.0,Evergreen Park,1094,5200,1956,1,238,,Active,,,https://www.redfin.com/IL/Evergreen-Park/3101-W-100th-St-60805/home/13159057,MRED as Distributed by MLS Grid,12163004,N,Y,41.7108925,-87.6988621
MLS Listing,,Single Family Residential,5118 W Winnemac Ave,Chicago,IL,60630,799900,5,3.5,CHI - Jefferson Park,3000,3781,1919,1,267,,Active,,,https://www.redfin.com/IL/Chicago/5118-W-Winnemac-Ave-60630/home/13497352,MRED as Distributed by MLS Grid,12162301,N,Y,41.9727106,-87.7559632
MLS Listing,,Single Family Residential,6655 N Sauganash Ave,Lincolnwood,IL,60712,649900,4,3.5,Lincolnwood Towers,2815,9252,1931,1,231,,Active,,,https://www.redfin.com/IL/Lincolnwood/6655-N-Sauganash-Ave-60712/home/13591595,MRED as Distributed by MLS Grid,12163687,N,Y,42.0025562,-87.7588684
MLS Listing,,Condo/Co-op,474 N Lake Shore Dr #4510,Chicago,IL,60611,749000,3,3.0,CHI - Near North Side,1640,,1988,1,457,1470,Active,,,https://www.redfin.com/IL/Chicago/474-N-Lake-Shore-Dr-60611/unit-4510/home/12599187,MRED as Distributed by MLS Grid,12163700,N,Y,41.8908367,-87.6145904
MLS Listing,,Condo/Co-op,2412 W Bryn Mawr Ave Unit 1N,Chicago,IL,60659,227000,2,1.0,CHI - West Ridge,900,,,1,252,193,Active,September-21-2024 10:00 AM,September-21-2024 11:30 AM,https://www.redfin.com/IL/Chicago/2412-W-Bryn-Mawr-Ave-60659/unit-1N/home/12641118,MRED as Distributed by MLS Grid,12155680,N,Y,41.9833268,-87.6901609
MLS Listing,,Condo/Co-op,1428 W Fargo Ave Unit A-2,Chicago,IL,60626,239999,2,1.5,CHI - Rogers Park,,,1973,1,,308,Active,,,https://www.redfin.com/IL/Chicago/1428-W-Fargo-Ave-60626/unit-A2/home/13575751,MRED as Distributed by MLS Grid,12164156,N,Y,42.0173987,-87.6666921
MLS Listing,,Condo/Co-op,455 W Saint James Pl W #505,Chicago,IL,60614,250000,1,1.0,CHI - Lincoln Park,,,,1,,459,Active,,,https://www.redfin.com/IL/Chicago/455-W-Saint-James-Pl-60614/unit-505/home/13365569,MRED as Distributed by MLS Grid,12151789,N,Y,41.92788,-87.6411059
MLS Listing,,Single Family Residential,6707 N Oketo Ave,Chicago,IL,60631,649000,4,3.0,CHI - Edison Park,2500,6250,1984,1,260,,Active,,,https://www.redfin.com/IL/Chicago/6707-N-Oketo-Ave-60631/home/13636514,MRED as Distributed by MLS Grid,12164143,N,Y,42.0028155,-87.8112923
MLS Listing,,Condo/Co-op,1345 S Wabash Ave #810,Chicago,IL,60605,359000,2,2.0,CHI - Near South Side,,,2016,1,,503,Active,,,https://www.redfin.com/IL/Chicago/1345-S-Wabash-Ave-60605/unit-810/home/167695176,MRED as Distributed by MLS Grid,12163856,N,Y,41.8644434,-87.6252588
MLS Listing,,Single Family Residential,10056 S La Salle St,Chicago,IL,60628,289900,4,2.0,CHI - Roseland,1000,,1961,1,290,,Active,,,https://www.redfin.com/IL/Chicago/10056-S-La-Salle-St-60628/home/13090593,MRED as Distributed by MLS Grid,12164136,N,Y,41.7109604,-87.6275035
MLS Listing,,Single Family Residential,5737 W Grace St,Chicago,IL,60634,605000,3,2.0,CHI - Portage Park,2450,4375,1921,1,247,,Active,,,https://www.redfin.com/IL/Chicago/5737-W-Grace-St-60634/home/13466125,MRED as Distributed by MLS Grid,12163473,N,Y,41.9492938,-87.7708328
MLS Listing,,Multi-Family (2-4 Unit),4851 W Adams St,Chicago,IL,60644,271500,7,2.0,CHI - Austin,,,1913,1,,,Active,,,https://www.redfin.com/IL/Chicago/4851-W-Adams-St-60644/home/192559973,MRED as Distributed by MLS Grid,12164075,N,Y,41.8783481,-87.7472121
MLS Listing,,Condo/Co-op,1617 N Cleveland Ave Unit -,Chicago,IL,60614,830000,3,2.5,St. Michael's Square,2000,,1980,1,415,383,Active,,,https://www.redfin.com/IL/Chicago/1617-N-Cleveland-Ave-60614/home/13346297,MRED as Distributed by MLS Grid,12127329,N,Y,41.9113997,-87.6405563
MLS Listing,,Condo/Co-op,9720 S Pulaski Rd #404,Oak Lawn,IL,60453,179000,2,1.5,Oak Lawn,,,,2,,310,Active,,,https://www.redfin.com/IL/Oak-Lawn/9720-S-Pulaski-Rd-60453/unit-404/home/13165209,MRED as Distributed by MLS Grid,12164102,N,Y,41.7161147,-87.7220037
MLS Listing,,Single Family Residential,11959 S Stewart Ave,Chicago,IL,60628,215000,4,3.0,CHI - West Pullman,2400,5828,1916,2,90,,Active,,,https://www.redfin.com/IL/Chicago/11959-S-Stewart-Ave-60628/home/13057510,MRED as Distributed by MLS Grid,12164099,N,Y,41.676279,-87.6319607
MLS Listing,,Single Family Residential,7714 S Sawyer Ave,Chicago,IL,60652,259900,3,1.0,CHI - Ashburn,1006,6916,1955,2,258,,Active,,,https://www.redfin.com/IL/Chicago/7714-S-Sawyer-Ave-60652/home/13983017,MRED as Distributed by MLS Grid,12164094,N,Y,41.7529346,-87.7039943
MLS Listing,,Single Family Residential,7122 S Winchester Ave,Chicago,IL,60636,230000,3,1.0,CHI - West Englewood,1020,3123,1960,2,225,,Active,,,https://www.redfin.com/IL/Chicago/7122-S-Winchester-Ave-60636/home/13912770,MRED as Distributed by MLS Grid,12164082,N,Y,41.7640888,-87.6725838
MLS Listing,,Single Family Residential,2929 N Mason Ave,Chicago,IL,60634,299000,4,2.0,CHI - Belmont Cragin,2100,3720,1922,2,142,,Active,,,https://www.redfin.com/IL/Chicago/2929-N-Mason-Ave-60634/home/13438951,MRED as Distributed by MLS Grid,12164063,N,Y,41.9338675,-87.7745538
MLS Listing,,Condo/Co-op,10 E Ontario St #5006,Chicago,IL,60611,550000,2,2.0,Ontario Place,1390,,1983,2,396,1156,Active,,,https://www.redfin.com/IL/Chicago/10-E-Ontario-St-60611/unit-5006/home/12625038,MRED as Distributed by MLS Grid,12163712,N,Y,41.8935454,-87.6277056
MLS Listing,,Single Family Residential,7026 S Claremont Ave,Chicago,IL,60636,265000,5,2.0,CHI - Chicago Lawn,1850,5000,1956,2,143,,Active,,,https://www.redfin.com/IL/Chicago/7026-S-Claremont-Ave-60636/home/13934308,MRED as Distributed by MLS Grid,12164034,N,Y,41.7657053,-87.6822335
MLS Listing,,Townhouse,1610 N Mohawk St Unit E,Chicago,IL,60614,1200000,3,2.5,Larrabee Commons,2800,,1989,2,429,830,Active,,,https://www.redfin.com/IL/Chicago/1610-N-Mohawk-St-60614/unit-E/home/13345406,MRED as Distributed by MLS Grid,12079059,N,Y,41.91165,-87.642882
MLS Listing,,Single Family Residential,9012 S Racine Ave,Chicago,IL,60620,179900,4,1.0,,1600,3149,1925,2,112,,Active,,,https://www.redfin.com/IL/Chicago/Undisclosed-address-60620/home/13105221,MRED as Distributed by MLS Grid,12094718,N,Y,41.7299991,-87.6534818
MLS Listing,,Single Family Residential,5431 W Roscoe St,Chicago,IL,60641,375000,3,1.0,CHI - Portage Park,,4125,1928,2,,,Active,,,https://www.redfin.com/IL/Chicago/5431-W-Roscoe-St-60641/home/13460996,MRED as Distributed by MLS Grid,12164024,N,Y,41.9420563,-87.7629945
MLS Listing,,Parking,800 S Wells St Unit M27,Chicago,IL,60607,,,,River City,,,1986,2,,,Active,,,https://www.redfin.com/IL/Chicago/800-S-Wells-St-60607/unit-M27/home/12693710,MRED as Distributed by MLS Grid,12164025,N,Y,41.8715559,-87.6341384
MLS Listing,,Single Family Residential,727 W 50th Pl,Chicago,IL,60609,269000,4,2.0,CHI - New City,1800,3125,1925,2,149,,Active,,,https://www.redfin.com/IL/Chicago/727-W-50th-Pl-60609/home/13952812,MRED as Distributed by MLS Grid,12164016,N,Y,41.8023234,-87.644074
MLS Listing,,Condo/Co-op,2001 W Ohio St Unit 2N,Chicago,IL,60612,275000,1,1.0,CHI - West Town,750,,,2,367,200,Active,,,https://www.redfin.com/IL/Chicago/2001-W-Ohio-St-60612/unit-2N/home/12739349,MRED as Distributed by MLS Grid,12152978,N,Y,41.8920811,-87.6771049
MLS Listing,,Condo/Co-op,663 E 50th St #0,Chicago,IL,60615,699000,3,1.0,CHI - Grand Boulevard,3500,,1893,2,200,,Active,,,https://www.redfin.com/IL/Chicago/663-E-50th-St-60615/unit-0/home/192546950,MRED as Distributed by MLS Grid,12163987,N,Y,41.8038549,-87.6088602
MLS Listing,,Condo/Co-op,3815 N Kedzie Ave Unit 3N,Chicago,IL,60618,475000,3,2.5,CHI - Irving Park,1800,,2009,2,264,396,Active,,,https://www.redfin.com/IL/Chicago/3815-N-Kedzie-Ave-60618/unit-3N/home/40376232,MRED as Distributed by MLS Grid,12163967,N,Y,41.9508091,-87.7076783
MLS Listing,,Condo/Co-op,545 N Dearborn St #2507,Chicago,IL,60654,429000,2,2.0,CHI - Near North Side,1300,,2003,2,330,1116,Active,,,https://www.redfin.com/IL/Chicago/545-N-Dearborn-St-60654/unit-2507/home/26814024,MRED as Distributed by MLS Grid,12155873,N,Y,41.8921135,-87.6295054
MLS Listing,,Condo/Co-op,5555 S Everett Ave Unit D1,Chicago,IL,60637,249900,4,3.0,CHI - Hyde Park,2500,,1926,2,100,1898,Active,,,https://www.redfin.com/IL/Chicago/5555-S-Everett-Ave-60637/unit-D1/home/13947061,MRED as Distributed by MLS Grid,12162424,N,Y,41.7937428,-87.5820114
MLS Listing,,Single Family Residential,9824 S Saint Louis Ave,Evergreen Park,IL,60805,300000,4,1.0,Evergreen Park,1540,7492,1946,2,195,,Active,,,https://www.redfin.com/IL/Evergreen-Park/9824-S-Saint-Louis-Ave-60805/home/13163763,MRED as Distributed by MLS Grid,12159513,N,Y,41.7145143,-87.7093593
MLS Listing,,Vacant Land,5714 S Wabash Ave,Chicago,IL,60637,44900,,,CHI - Washington Park,,3920,,2,,,Active,,,https://www.redfin.com/IL/Chicago/5714-S-Wabash-Ave-60637/home/21903746,MRED as Distributed by MLS Grid,12163972,N,Y,41.7906265,-87.6244265
MLS Listing,,Condo/Co-op,1700 E 56th St #3601,Chicago,IL,60637,250000,2,3.0,CHI - Hyde Park,1250,,1968,2,200,1792,Active,,,https://www.redfin.com/IL/Chicago/1700-E-56th-St-60637/unit-3601/home/13947162,MRED as Distributed by MLS Grid,12163251,N,Y,41.7936149,-87.5832112
MLS Listing,,Vacant Land,5653 S Prairie Ave,Chicago,IL,60637,49900,,,CHI - Washington Park,,4508,,2,,,Active,,,https://www.redfin.com/IL/Chicago/5653-S-Prairie-Ave-60637/home/147728664,MRED as Distributed by MLS Grid,12163970,N,Y,41.791407,-87.6186649
MLS Listing,,Single Family Residential,6512 N Artesian Ave,Chicago,IL,60645,499900,2,2.0,CHI - West Ridge,1424,4687,1919,2,351,,Active,,,https://www.redfin.com/IL/Chicago/6512-N-Artesian-Ave-60645/home/13582262,MRED as Distributed by MLS Grid,12160444,N,Y,41.9999826,-87.6914686
MLS Listing,,Condo/Co-op,201 N Westshore Dr #2602,Chicago,IL,60601,725000,3,2.0,CHI - Loop,1500,,2005,2,483,1200,Active,,,https://www.redfin.com/IL/Chicago/201-N-Westshore-Dr-60601/unit-2602/home/12646869,MRED as Distributed by MLS Grid,12163639,N,Y,41.8862442,-87.6160306
MLS Listing,,Vacant Land,5630 S Wabash Ave,Chicago,IL,60637,44900,,,CHI - Washington Park,,3920,,2,,,Active,,,https://www.redfin.com/IL/Chicago/5630-S-Wabash-Ave-60637/home/21873487,MRED as Distributed by MLS Grid,12163968,N,Y,41.7918814,-87.6243691
MLS Listing,,Vacant Land,5736 S Wabash Ave,Chicago,IL,60637,44900,,,CHI - Washington Park,,3920,,2,,,Active,,,https://www.redfin.com/IL/Chicago/5736-S-Wabash-Ave-60637/home/148048863,MRED as Distributed by MLS Grid,12163964,N,Y,41.789966,-87.62441
MLS Listing,,Vacant Land,5535 S State St,Chicago,IL,60621,99900,,,CHI - Washington Park,,7840,,2,,,Active,,,https://www.redfin.com/IL/Chicago/5535-S-State-St-60621/home/147915214,MRED as Distributed by MLS Grid,12163960,N,Y,41.793135,-87.6252904
MLS Listing,,Vacant Land,5404 W Walton St,Chicago,IL,60651,100000,,,CHI - Austin,,6212,,2,,,Active,,,https://www.redfin.com/IL/Chicago/5404-W-Walton-St-60651/home/147802468,MRED as Distributed by MLS Grid,12163950,N,Y,41.897896,-87.760982
MLS Listing,,Single Family Residential,4150 N Hermitage Ave,Chicago,IL,60613,2625000,6,5.0,CHI - Lake View,6125,6600,1900,2,429,,Active,,,https://www.redfin.com/IL/Chicago/4150-N-Hermitage-Ave-60613/home/13389386,MRED as Distributed by MLS Grid,12015464,N,Y,41.9576262,-87.6726373
MLS Listing,,Condo/Co-op,5420 N Sheridan Rd #205,Chicago,IL,60640,350000,3,3.0,CHI - Edgewater,1600,,1968,2,219,755,Active,,,https://www.redfin.com/IL/Chicago/5420-N-Sheridan-Rd-60640/unit-205/home/12774605,MRED as Distributed by MLS Grid,12162073,N,Y,41.9806485,-87.6555312
MLS Listing,,Condo/Co-op,5757 N Sheridan Rd Unit 6G,Chicago,IL,60660,119900,0,1.0,CHI - Edgewater,580,,1960,2,207,616,Active,,,https://www.redfin.com/IL/Chicago/5757-N-Sheridan-Rd-60660/unit-6G/home/13408251,MRED as Distributed by MLS Grid,12041114,N,Y,41.9870908,-87.6547952
MLS Listing,,Single Family Residential,5607 S Meade Ave,Chicago,IL,60638,349900,4,2.0,CHI - Garfield Ridge,1350,3750,1950,2,259,,Active,,,https://www.redfin.com/IL/Chicago/5607-S-Meade-Ave-60638/home/14004376,MRED as Distributed by MLS Grid,12163907,N,Y,41.7903671,-87.7741711
MLS Listing,,Single Family Residential,5110 W Argyle St,Chicago,IL,60630,399900,4,2.0,CHI - Jefferson Park,1130,3125,1975,2,354,,Active,,,https://www.redfin.com/IL/Chicago/5110-W-Argyle-St-60630/home/13496964,MRED as Distributed by MLS Grid,12156446,N,Y,41.9717845,-87.7557126
MLS Listing,,Condo/Co-op,1070 W 15th St #347,Chicago,IL,60608,444900,3,2.0,University Commons,1646,,1920,2,270,699,Active,,,https://www.redfin.com/IL/Chicago/1070-W-15th-St-60608/unit-347/home/12588528,MRED as Distributed by MLS Grid,12163943,N,Y,41.86192,-87.652526
MLS Listing,,Condo/Co-op,400 E Randolph St #1830,Chicago,IL,60601,550000,2,2.0,New Eastside,1250,,1963,2,440,1122,Active,,,https://www.redfin.com/IL/Chicago/400-E-Randolph-St-60601/unit-1830/home/14095343,MRED as Distributed by MLS Grid,12163268,N,Y,41.8847693,-87.6164831
MLS Listing,,Condo/Co-op,41 E 8th St #1801,Chicago,IL,60605,448999,2,2.0,CHI - Loop,1500,,2003,2,299,1011,Active,,,https://www.redfin.com/IL/Chicago/41-E-8th-St-60605/unit-1801/home/12667818,MRED as Distributed by MLS Grid,12163915,N,Y,41.8717102,-87.6263215
MLS Listing,,Condo/Co-op,1230 N State Pkwy Unit 14A,Chicago,IL,60610,499900,2,2.0,State Tower,1250,,1980,2,400,975,Active,,,https://www.redfin.com/IL/Chicago/1230-N-State-Pkwy-60610/unit-14A/home/14111266,MRED as Distributed by MLS Grid,12163814,N,Y,41.9046704,-87.6290102
MLS Listing,,Condo/Co-op,2020 N Lincoln Park West Unit 33G,Chicago,IL,60614,437000,1,1.0,CHI - Lincoln Park,829,,,2,527,1050,Active,,,https://www.redfin.com/IL/Chicago/2020-N-Lincoln-Park-W-60614/unit-33G/home/13347770,MRED as Distributed by MLS Grid,12159240,N,Y,41.9188778,-87.6366791
MLS Listing,,Single Family Residential,2021 W Greenleaf Ave,Chicago,IL,60645,675000,4,2.0,CHI - Rogers Park,,8500,1888,2,,,Active,,,https://www.redfin.com/IL/Chicago/2021-W-Greenleaf-Ave-60645/home/13571526,MRED as Distributed by MLS Grid,12157294,N,Y,42.0097834,-87.6811045
MLS Listing,,Vacant Land,6509 S Rhodes Ave,Chicago,IL,60637,80000,,,CHI - Woodlawn,,2933,,2,,,Active,,,https://www.redfin.com/IL/Chicago/6509-S-Rhodes-Ave-60637/home/13929246,MRED as Distributed by MLS Grid,12163864,N,Y,41.7763589,-87.6117374
MLS Listing,,Single Family Residential,5412 N Melvina Ave,Chicago,IL,60630,415000,3,2.0,CHI - Jefferson Park,1195,3720,1963,2,347,,Active,,,https://www.redfin.com/IL/Chicago/5412-N-Melvina-Ave-60630/home/13504100,MRED as Distributed by MLS Grid,12145432,N,Y,41.979755,-87.7838609
MLS Listing,,Condo/Co-op,40 E 9th St #1307,Chicago,IL,60605,260000,2,1.0,Burnham Park Plaza,1128,,1914,2,230,893,Active,,,https://www.redfin.com/IL/Chicago/40-E-9th-St-60605/unit-1307/home/12635651,MRED as Distributed by MLS Grid,12163795,N,Y,41.8708211,-87.6262169
MLS Listing,,Parking,1255 S State St Unit R456,Chicago,IL,60605,30000,,,CHI - Near South Side,,1200,2007,2,,60,Active,,,https://www.redfin.com/IL/Chicago/1255-S-State-St-60605/unit-R456/home/26819827,MRED as Distributed by MLS Grid,12163754,N,Y,41.8661707,-87.6267747
MLS Listing,,Condo/Co-op,1255 S State St #1711,Chicago,IL,60605,239000,1,1.0,Vision on State,,,2007,2,,560,Active,,,https://www.redfin.com/IL/Chicago/1255-S-State-St-60605/unit-1711/home/26819614,MRED as Distributed by MLS Grid,12163242,N,Y,41.8661707,-87.6267747
MLS Listing,,Single Family Residential,8410 S Jeffery Blvd,Chicago,IL,60617,249900,4,1.0,CHI - Avalon Park,2100,,1959,2,119,,Active,,,https://www.redfin.com/IL/Chicago/8410-S-Jeffery-Blvd-60617/home/13220047,MRED as Distributed by MLS Grid,12163468,N,Y,41.7421226,-87.5760933
MLS Listing,,Condo/Co-op,6340 N Leavitt St Unit 2N,Chicago,IL,60659,209900,3,1.0,CHI - West Ridge,1200,,1957,2,175,250,Active,,,https://www.redfin.com/IL/Chicago/6340-N-Leavitt-St-60659/unit-2N/home/13408320,MRED as Distributed by MLS Grid,12160962,N,Y,41.9971629,-87.6852305
MLS Listing,,Single Family Residential,5146 S Homan Ave,Chicago,IL,60632,290000,4,2.0,,1478,,1890,2,196,,Active,,,https://www.redfin.com/IL/Chicago/Undisclosed-address-60632/home/14018873,MRED as Distributed by MLS Grid,12163020,N,Y,41.7993471,-87.7088882
MLS Listing,,Condo/Co-op,9 W Walton St #2902,Chicago,IL,60610,6495000,4,4.5,CHI - Near North Side,4420,,2017,2,1469,5295,Active,,,https://www.redfin.com/IL/Chicago/9-W-Walton-St-60610/unit-2902/home/147128727,MRED as Distributed by MLS Grid,12163282,N,Y,41.8998155,-87.6287676
MLS Listing,,Multi-Family (2-4 Unit),6453 S Rockwell St,Chicago,IL,60629,379900,6,2.0,CHI - Chicago Lawn,,3125,,2,,,Active,,,https://www.redfin.com/IL/Chicago/6453-S-Rockwell-St-60629/home/13988580,MRED as Distributed by MLS Grid,12163837,N,Y,41.7758489,-87.6881669
MLS Listing,,Single Family Residential,7130 W 64th St,Chicago,IL,60638,340000,3,2.0,Clear Ridge,984,3223,1963,2,346,,Active,,,https://www.redfin.com/IL/Chicago/7130-W-64th-St-60638/home/13997568,MRED as Distributed by MLS Grid,12163390,N,Y,41.775773,-87.7996411
MLS Listing,,Multi-Family (2-4 Unit),4644 W Adams St,Chicago,IL,60644,159900,4,2.0,CHI - Austin,,4125,,2,,,Active,,,https://www.redfin.com/IL/Chicago/4644-W-Adams-St-60644/home/13256062,MRED as Distributed by MLS Grid,12163753,N,Y,41.87836,-87.7421425
MLS Listing,,Single Family Residential,5258 S Spaulding Ave,Chicago,IL,60632,289900,3,2.0,,890,3750,1958,2,326,,Active,,,https://www.redfin.com/IL/Chicago/Undisclosed-address-60632/home/14018670,MRED as Distributed by MLS Grid,12163731,N,Y,41.7972484,-87.7064083
MLS Listing,,Condo/Co-op,2001 S Calumet Ave #609,Chicago,IL,60616,230000,1,1.0,CHI - Near South Side,800,,1920,2,288,320,Active,,,https://www.redfin.com/IL/Chicago/2001-S-Calumet-Ave-60616/unit-609/home/12692231,MRED as Distributed by MLS Grid,12163799,N,Y,41.8553262,-87.6186531
MLS Listing,,Vacant Land,4011 S Wabash Ave,Chicago,IL,60653,550000,,,CHI - Grand Boulevard,,32086,,2,,,Active,,,https://www.redfin.com/IL/Chicago/4011-S-Wabash-Ave-60653/home/44591910,MRED as Distributed by MLS Grid,12163707,N,Y,41.8215742,-87.6243106
MLS Listing,,Single Family Residential,4713 W Superior St,Chicago,IL,60644,155000,2,1.0,CHI - Austin,880,3125,1925,2,176,,Active,,,https://www.redfin.com/IL/Chicago/4713-W-Superior-St-60644/home/13263878,MRED as Distributed by MLS Grid,12153302,N,Y,41.8939027,-87.7441196
MLS Listing,,Condo/Co-op,849 N Franklin St #1004,Chicago,IL,60610,599999,2,2.0,CHI - Near North Side,1475,,2006,2,407,840,Active,,,https://www.redfin.com/IL/Chicago/849-N-Franklin-St-60610/unit-1004/home/26812372,MRED as Distributed by MLS Grid,12163223,N,Y,41.897783,-87.6352167
MLS Listing,,Multi-Family (2-4 Unit),134 W 118th St,Chicago,IL,60628,62000,4,2.0,CHI - West Pullman,,,1911,2,,,Active,,,https://www.redfin.com/IL/Chicago/134-W-118th-St-60628/home/13061523,MRED as Distributed by MLS Grid,12163130,N,Y,41.6800121,-87.6266363
MLS Listing,,Vacant Land,7107 N Mason Ave,Chicago,IL,60646,290000,,,CHI - Forest Glen,,,,2,,,Active,,,https://www.redfin.com/IL/Chicago/7107-N-Mason-Ave-60646/home/22733561,MRED as Distributed by MLS Grid,12163790,N,Y,42.010436,-87.773839
MLS Listing,,Multi-Family (2-4 Unit),4317 N Ashland Ave,Chicago,IL,60613,999999,6,2.0,CHI - Lake View,,,1908,2,,,Active,,,https://www.redfin.com/IL/Chicago/4317-N-Ashland-Ave-60613/home/13393633,MRED as Distributed by MLS Grid,12128783,N,Y,41.9603399,-87.6688572
MLS Listing,,Vacant Land,7111 N Mason Ave,Chicago,IL,60646,290000,,,CHI - Forest Glen,,,,2,,,Active,,,https://www.redfin.com/IL/Chicago/7111-N-Mason-Ave-60646/home/13593134,MRED as Distributed by MLS Grid,12163717,N,Y,42.0105203,-87.7738897
MLS Listing,,Condo/Co-op,2225 W Foster Ave #3,Chicago,IL,60625,475000,2,2.0,CHI - Lincoln Square,1350,,2004,2,352,252,Active,,,https://www.redfin.com/IL/Chicago/2225-W-Foster-Ave-60625/unit-3/home/12608943,MRED as Distributed by MLS Grid,12150997,N,Y,41.975743,-87.6853145
MLS Listing,,Condo/Co-op,3154 N Oleander Ave Unit 3C,Chicago,IL,60707,259950,2,2.0,CHI - Dunning,,,2001,2,,250,Active,,,https://www.redfin.com/IL/Chicago/3154-N-Oleander-Ave-60707/unit-3C/home/12702238,MRED as Distributed by MLS Grid,12163771,N,Y,41.937804,-87.8154522
MLS Listing,,Multi-Family (2-4 Unit),5534 S Bishop St,Chicago,IL,60636,219900,7,2.0,CHI - West Englewood,,3125,,2,,,Active,,,https://www.redfin.com/IL/Chicago/5534-S-Bishop-St-60636/home/192109193,MRED as Distributed by MLS Grid,12163756,N,Y,41.7926636,-87.6611777
MLS Listing,,Single Family Residential,9731 S Lawndale Ave,Evergreen Park,IL,60805,425000,4,1.5,Evergreen Park,1877,3690,1939,2,226,,Active,,,https://www.redfin.com/IL/Evergreen-Park/9731-S-Lawndale-Ave-60805/home/13164231,MRED as Distributed by MLS Grid,12155559,N,Y,41.7159571,-87.7136459
MLS Listing,,Condo/Co-op,609 W Stratford Pl Unit 6A,Chicago,IL,60657,510000,3,2.0,CHI - Lake View,,,1924,2,,639,Active,,,https://www.redfin.com/IL/Chicago/609-W-Stratford-Pl-60657/unit-6A/home/13376586,MRED as Distributed by MLS Grid,12161554,N,Y,41.9448695,-87.6448421
MLS Listing,,Condo/Co-op,6161 N Kenmore Ave Unit 3N,Chicago,IL,60660,525000,3,2.0,CHI - Edgewater,1896,,2008,2,277,328,Active,,,https://www.redfin.com/IL/Chicago/6161-N-Kenmore-Ave-60660/unit-3N/home/40457384,MRED as Distributed by MLS Grid,12156223,N,Y,41.9939735,-87.6565334
MLS Listing,,Multi-Family (2-4 Unit),206 N La Crosse Ave,Chicago,IL,60644,319900,5,2.0,CHI - Austin,,,1890,2,,,Active,,,https://www.redfin.com/IL/Chicago/206-N-La-Crosse-Ave-60644/home/13263683,MRED as Distributed by MLS Grid,12160244,N,Y,41.8847951,-87.746941
MLS Listing,,Condo/Co-op,1211 S Prairie Ave #1901,Chicago,IL,60605,1299000,3,3.0,CHI - Near South Side,2920,,2008,2,445,2047,Active,,,https://www.redfin.com/IL/Chicago/1211-S-Prairie-Ave-60605/unit-1901/home/39571014,MRED as Distributed by MLS Grid,12163708,N,Y,41.865053,-87.620159
MLS Listing,,Single Family Residential,5725 W Byron St,Chicago,IL,60634,735000,4,3.5,CHI - Portage Park,,4613,,2,,,Active,,,https://www.redfin.com/IL/Chicago/5725-W-Byron-St-60634/home/13465919,MRED as Distributed by MLS Grid,12163697,N,Y,41.9510829,-87.7704615
MLS Listing,,Condo/Co-op,4015 N Milwaukee Ave #413,Chicago,IL,60641,304900,2,2.0,Portage Park Condos,1140,,,2,267,405,Active,,,https://www.redfin.com/IL/Chicago/4015-N-Milwaukee-Ave-60641/unit-413/home/26804980,MRED as Distributed by MLS Grid,12163692,N,Y,41.9539292,-87.7474635
MLS Listing,,Multi-Family (2-4 Unit),3621 W 5th Ave,Chicago,IL,60624,245000,7,3.0,CHI - East Garfield Park,,3900,1893,2,,,Active,,,https://www.redfin.com/IL/Chicago/3621-W-5th-Ave-60624/home/13258058,MRED as Distributed by MLS Grid,12162753,N,Y,41.8752166,-87.7165326
MLS Listing,,Condo/Co-op,2318 W Washington Blvd Unit 1S,Chicago,IL,60612,375000,3,2.5,CHI - Near West Side,2800,,,2,134,330,Active,,,https://www.redfin.com/IL/Chicago/2318-W-Washington-Blvd-60612/unit-1S/home/12631697,MRED as Distributed by MLS Grid,12163701,N,Y,41.8832515,-87.6849659
MLS Listing,,Condo/Co-op,3100 N Lake Shore Dr #404,Chicago,IL,60657,259000,1,1.0,Darien Condominium,750,,1957,2,345,591,Active,,,https://www.redfin.com/IL/Chicago/3100-N-Lake-Shore-Dr-60657/unit-404/home/13371830,MRED as Distributed by MLS Grid,12135621,N,Y,41.9381306,-87.63805
MLS Listing,,Multi-Family (2-4 Unit),1923 W Garfield Blvd,Chicago,IL,60636,395900,6,3.0,CHI - West Englewood,,3720,1907,2,,,Active,,,https://www.redfin.com/IL/Chicago/1923-W-Garfield-Blvd-60636/home/13938039,MRED as Distributed by MLS Grid,12159667,N,Y,41.7933802,-87.6727998
MLS Listing,,Single Family Residential,639 N Trumbull Ave,Chicago,IL,60624,432000,4,3.5,CHI - Humboldt Park,2900,3125,2024,2,149,,Active,,,https://www.redfin.com/IL/Chicago/639-N-Trumbull-Ave-60624/home/186932768,MRED as Distributed by MLS Grid,12163667,N,Y,41.893052,-87.712243
MLS Listing,,Single Family Residential,1243 N Marion Ct,Chicago,IL,60622,2450000,5,3.5,CHI - West Town,,2570,2024,2,,,Active,,,https://www.redfin.com/IL/Chicago/1243-N-Marion-Ct-60622/home/14106947,MRED as Distributed by MLS Grid,12163634,N,Y,41.9045634,-87.6736104
MLS Listing,,Multi-Family (2-4 Unit),1863 S Komensky Ave,Chicago,IL,60623,299900,10,6.0,Lawndale,,,1976,2,,,Active,,,https://www.redfin.com/IL/Chicago/1863-S-Komensky-Ave-60623/home/13235673,MRED as Distributed by MLS Grid,12163510,N,Y,41.8551649,-87.7257975
MLS Listing,,Condo/Co-op,401 N Wabash Ave Unit 29E,Chicago,IL,60611,700000,1,1.5,Trump Tower Chicago,938,,2008,2,746,703,Active,,,https://www.redfin.com/IL/Chicago/401-N-Wabash-Ave-60611/unit-29E/home/39565549,MRED as Distributed by MLS Grid,12163360,N,Y,41.8889379,-87.6263956
MLS Listing,,Single Family Residential,3948 W Ohio St,Chicago,IL,60624,139000,2,1.5,CHI - Humboldt Park,1000,3125,1891,2,139,,Active,,,https://www.redfin.com/IL/Chicago/3948-W-Ohio-St-60624/home/13262151,MRED as Distributed by MLS Grid,12163636,N,Y,41.8918835,-87.7253546
MLS Listing,,Single Family Residential,12541 S Union Ave,Chicago,IL,60628,274800,5,2.0,CHI - West Pullman,2396,5043,1942,2,115,,Active,,,https://www.redfin.com/IL/Chicago/12541-S-Union-Ave-60628/home/13055952,MRED as Distributed by MLS Grid,12163589,N,Y,41.6657373,-87.638856
MLS Listing,,Multi-Family (2-4 Unit),5320 S Laflin St,Chicago,IL,60609,124000,4,2.0,CHI - New City,,3125,1888,2,,,Active,,,https://www.redfin.com/IL/Chicago/5320-S-Laflin-St-60609/home/187853609,MRED as Distributed by MLS Grid,12162866,N,Y,41.7970516,-87.6625316
MLS Listing,,Multi-Family (2-4 Unit),7533 S Ingleside Ave,Chicago,IL,60619,89000,7,2.0,CHI - Greater Grand Crossing,,3125,1885,2,,,Active,,,https://www.redfin.com/IL/Chicago/7533-S-Ingleside-Ave-60619/home/13921034,MRED as Distributed by MLS Grid,12162919,N,Y,41.7575978,-87.6014353
MLS Listing,,Condo/Co-op,7323 N Paulina Ave #2,Chicago,IL,60626,222000,2,1.0,CHI - Rogers Park,,,1920,2,,323,Active,,,https://www.redfin.com/IL/Chicago/7323-N-Paulina-St-60626/unit-2/home/17181819,MRED as Distributed by MLS Grid,12163624,N,Y,42.0145783,-87.6722623
MLS Listing,,Condo/Co-op,1633 W Farwell Ave Unit 3N,Chicago,IL,60626,259900,2,2.0,CHI - Rogers Park,1194,,1925,2,218,266,Active,September-22-2024 11:00 AM,September-22-2024 02:00 PM,https://www.redfin.com/IL/Chicago/1633-W-Farwell-Ave-60626/unit-3N/home/192111836,MRED as Distributed by MLS Grid,12163226,N,Y,42.0064575,-87.6714489
MLS Listing,,Condo/Co-op,818 N Dearborn St Unit BF,Chicago,IL,60610,339000,2,2.0,CHI - Near North Side,900,,1890,2,377,281,Active,,,https://www.redfin.com/IL/Chicago/818-N-Dearborn-St-60610/unit-BF/home/185426189,MRED as Distributed by MLS Grid,12163601,N,Y,41.897279,-87.6302369
MLS Listing,,Single Family Residential,5047 W Ainslie St,Chicago,IL,60630,925000,6,5.5,CHI - Jefferson Park,4479,4978,2024,2,207,,Active,,,https://www.redfin.com/IL/Chicago/5047-W-Ainslie-St-60630/home/13495583,MRED as Distributed by MLS Grid,12163590,N,Y,41.9695693,-87.7545071
MLS Listing,,Multi-Family (5+ Unit),3357 W Chicago Ave,Chicago,IL,60651,399000,4,8.0,CHI - Humboldt Park,7620,5880,1910,2,52,,Active,,,https://www.redfin.com/IL/Chicago/3357-W-Chicago-Ave-60651/home/13261808,MRED as Distributed by MLS Grid,12163585,N,Y,41.8952652,-87.7111848
MLS Listing,,Vacant Land,3113 N Kedzie Ave,Chicago,IL,60618,199000,,,CHI - Avondale,,3049,,2,,,Active,,,https://www.redfin.com/IL/Chicago/3113-N-Kedzie-Ave-60618/home/22550796,MRED as Distributed by MLS Grid,12163586,N,Y,41.9379477,-87.7072386
MLS Listing,,Parking,2 E Erie St Unit G-653,Chicago,IL,60611,27000,,,CHI - Near North Side,,,1999,2,,62,Active,,,https://www.redfin.com/IL/Chicago/2-E-Erie-St-60611/unit-G653/home/12607678,MRED as Distributed by MLS Grid,12157010,N,Y,41.8943685,-87.6275053
MLS Listing,,Multi-Family (2-4 Unit),5347 N Wayne Ave,Chicago,IL,60640,995000,6,2.5,CHI - Edgewater,,3920,1906,2,,,Active,,,https://www.redfin.com/IL/Chicago/5347-N-Wayne-Ave-60640/home/13402658,MRED as Distributed by MLS Grid,12163503,N,Y,41.9794592,-87.6633567
MLS Listing,,Condo/Co-op,2141 N Oakley Ave #1,Chicago,IL,60647,325000,1,1.0,CHI - Logan Square,850,,,2,382,100,Active,,,https://www.redfin.com/IL/Chicago/2141-N-Oakley-Ave-60647/unit-1/home/12663661,MRED as Distributed by MLS Grid,12163170,N,Y,41.921135,-87.684484
MLS Listing,,Condo/Co-op,179 E Lake Shore Dr #502,Chicago,IL,60611,780000,2,2.0,Drake Tower,1852,,1928,2,421,2476,Active,,,https://www.redfin.com/IL/Chicago/179-E-Lake-Shore-Dr-60611/unit-502/home/105686188,MRED as Distributed by MLS Grid,12159401,N,Y,41.9006308,-87.6226581
MLS Listing,,Vacant Land,5628-34 S Princeton Ave,Chicago,IL,60621,64900,,,CHI - Englewood,,8658,,2,,,Active,,,https://www.redfin.com/IL/Chicago/5628-S-Princeton-Ave-60621/home/148048909,MRED as Distributed by MLS Grid,12163552,N,Y,41.7918549,-87.6331945
MLS Listing,,Single Family Residential,7324 N Nora Ave,Niles,IL,60714,629000,4,2.0,Niles,2400,5200,1957,2,262,,Active,,,https://www.redfin.com/IL/Niles/7324-N-Nora-Ave-60714/home/12557599,MRED as Distributed by MLS Grid,12163150,N,Y,42.0143397,-87.8056926
MLS Listing,,Single Family Residential,3402 S Lowe Ave,Chicago,IL,60616,235000,3,2.0,CHI - Bridgeport,2045,3528,1888,2,115,,Active,,,https://www.redfin.com/IL/Chicago/3402-S-Lowe-Ave-60616/home/14074021,MRED as Distributed by MLS Grid,12157764,N,Y,41.8324419,-87.6429832
MLS Listing,,Condo/Co-op,1313 N Ritchie Ct #1105,Chicago,IL,60610,335000,1,1.0,CHI - Near North Side,980,,1972,2,342,863,Active,,,https://www.redfin.com/IL/Chicago/1313-N-Ritchie-Ct-60610/unit-1105/home/14124446,MRED as Distributed by MLS Grid,12156574,N,Y,41.9061626,-87.6261578
MLS Listing,,Multi-Family (2-4 Unit),4109 W Oakdale Ave,Chicago,IL,60641,669000,6,3.0,CHI - Avondale,,3750,1922,2,,,Active,,,https://www.redfin.com/IL/Chicago/4109-W-Oakdale-Ave-60641/home/13443914,MRED as Distributed by MLS Grid,12163534,N,Y,41.9342711,-87.7299087
MLS Listing,,Multi-Family (2-4 Unit),5914 S Emerald Ave,Chicago,IL,60621,99500,7,2.0,CHI - Englewood,,3125,1880,2,,,Active,,,https://www.redfin.com/IL/Chicago/5914-S-Emerald-Ave-60621/home/13941902,MRED as Distributed by MLS Grid,12163532,N,Y,41.7865194,-87.6440732
MLS Listing,,Townhouse,614 E 33rd Pl,Chicago,IL,60616,569000,4,3.5,CHI - Douglas,3000,3000,1965,2,190,,Active,,,https://www.redfin.com/IL/Chicago/614-E-33rd-Pl-60616/home/14072204,MRED as Distributed by MLS Grid,12162386,N,Y,41.8344577,-87.6110094
MLS Listing,,Condo/Co-op,250 Ridge Ave Unit 4D,Evanston,IL,60202,165000,1,1.0,Evanston,,,1964,2,,257,Active,,,https://www.redfin.com/IL/Evanston/250-Ridge-Ave-60202/unit-4D/home/13574859,MRED as Distributed by MLS Grid,12158216,N,Y,42.0229621,-87.6855399
MLS Listing,,Single Family Residential,11144 S Peoria St,Chicago,IL,60643,169900,2,1.5,,960,3000,1936,2,177,,Active,,,https://www.redfin.com/IL/Chicago/Undisclosed-address-60643/home/13068394,MRED as Distributed by MLS Grid,12110549,N,Y,41.6910331,-87.6450349
MLS Listing,,Condo/Co-op,2753 N Hampden Ct Unit 5A,Chicago,IL,60614,1550000,4,4.5,CHI - Lincoln Park,2900,,2019,2,534,628,Active,,,https://www.redfin.com/IL/Chicago/2753-N-Hampden-Ct-60614/unit-5A/home/178526608,MRED as Distributed by MLS Grid,12163505,N,Y,41.9322901,-87.6420418
MLS Listing,,Condo/Co-op,435 W Oakdale Ave Unit 3A,Chicago,IL,60657,199900,1,1.0,Oak Terrace Condominiums,,,1960,2,,337,Active,,,https://www.redfin.com/IL/Chicago/435-W-Oakdale-Ave-60657/unit-3A/home/12774453,MRED as Distributed by MLS Grid,12163512,N,Y,41.93523,-87.6408058
MLS Listing,,Multi-Family (2-4 Unit),7423 S Euclid Ave,Chicago,IL,60649,359000,5,4.5,CHI - South Shore,,,1925,2,,,Active,,,https://www.redfin.com/IL/Chicago/7423-S-Euclid-Ave-60649/home/183951763,MRED as Distributed by MLS Grid,12158720,N,Y,41.7600424,-87.5771022
MLS Listing,,Condo/Co-op,2430 N Lakeview Ave Unit 5-6S,Chicago,IL,60614,1995000,5,5.5,CHI - Lincoln Park,5600,,1927,2,356,11893,Active,,,https://www.redfin.com/IL/Chicago/2430-N-Lakeview-Ave-60614/unit-5-6S/home/12989898,MRED as Distributed by MLS Grid,12163417,N,Y,41.9264053,-87.6394718
MLS Listing,,Condo/Co-op,6244 N Harlem Ave Unit 4A,Chicago,IL,60631,145000,1,1.0,CHI - Norwood Park,,,1955,2,,280,Active,,,https://www.redfin.com/IL/Chicago/6244-N-Harlem-Ave-60631/unit-4A/home/12597512,MRED as Distributed by MLS Grid,12163285,N,Y,41.9948122,-87.806992
MLS Listing,,Townhouse,3801 N Milwaukee Ave Unit H,Chicago,IL,60641,560000,3,2.5,Old Irving Village,,,1999,2,,410,Active,,,https://www.redfin.com/IL/Chicago/3801-N-Milwaukee-Ave-60641/unit-H/home/12775927,MRED as Distributed by MLS Grid,12163304,N,Y,41.9501248,-87.7413085
MLS Listing,,Single Family Residential,11255 S Central Park Ave,Chicago,IL,60655,249000,3,2.0,CHI - Mount Greenwood,1194,3600,1924,2,209,,Active,,,https://www.redfin.com/IL/Chicago/11255-S-Central-Park-Ave-60655/home/13135147,MRED as Distributed by MLS Grid,12163451,N,Y,41.6879197,-87.7101796
MLS Listing,,Multi-Family (2-4 Unit),1748 N Sedgwick St,Chicago,IL,60614,1049000,4,3.0,CHI - Lincoln Park,,1675,,2,,,Active,,,https://www.redfin.com/IL/Chicago/1748-N-Sedgwick-St-60614/home/12792313,MRED as Distributed by MLS Grid,12161580,N,Y,41.9143146,-87.6389181
MLS Listing,,Condo/Co-op,630 N Franklin St #611,Chicago,IL,60654,400000,2,2.0,CHI - Near North Side,1170,,2005,2,342,580,Active,,,https://www.redfin.com/IL/Chicago/630-N-Franklin-St-60654/unit-611/home/12608596,MRED as Distributed by MLS Grid,12163435,N,Y,41.8933627,-87.6357705
MLS Listing,,Single Family Residential,958 W Dickens Ave,Chicago,IL,60614,1100000,3,3.5,CHI - Lincoln Park,1792,1800,1889,2,614,,Active,,,https://www.redfin.com/IL/Chicago/958-W-Dickens-Ave-60614/home/13351495,MRED as Distributed by MLS Grid,12159055,N,Y,41.9201215,-87.6530839
MLS Listing,,Townhouse,1502 S Prairie Ave Unit A,Chicago,IL,60605,699000,3,2.5,CHI - Near South Side,2100,,1994,2,333,731,Active,,,https://www.redfin.com/IL/Chicago/1502-S-Prairie-Ave-60605/unit-A/home/14083683,MRED as Distributed by MLS Grid,12163133,N,Y,41.8621175,-87.6212261
MLS Listing,,Condo/Co-op,939 W Madison St #205,Chicago,IL,60607,449000,2,2.0,CHI - Near West Side,1200,,1999,2,374,525,Active,,,https://www.redfin.com/IL/Chicago/939-W-Madison-St-60607/unit-205/home/12763521,MRED as Distributed by MLS Grid,12163441,N,Y,41.8814625,-87.6511752
MLS Listing,,Vacant Land,2709 S Whipple St,Chicago,IL,60623,224900,,,CHI - South Lawndale,,3024,,2,,,Active,,,https://www.redfin.com/IL/Chicago/2709-S-Whipple-St-60623/home/22443916,MRED as Distributed by MLS Grid,12162496,N,Y,41.8424179,-87.7009554
MLS Listing,,Condo/Co-op,2246 W Medill Ave #2,Chicago,IL,60647,500000,2,2.0,Bucktown,1250,,1910,2,400,111,Active,,,https://www.redfin.com/IL/Chicago/2246-W-Medill-Ave-60647/unit-2/home/64226595,MRED as Distributed by MLS Grid,12163311,N,Y,41.9243641,-87.6846066
MLS Listing,,Multi-Family (2-4 Unit),2705 S Whipple St,Chicago,IL,60623,224900,4,2.0,CHI - South Lawndale,,3024,1896,2,,,Active,,,https://www.redfin.com/IL/Chicago/2705-S-Whipple-St-60623/home/14151894,MRED as Distributed by MLS Grid,12162428,N,Y,41.842503,-87.7010867
MLS Listing,,Single Family Residential,818 N Lawndale Ave,Chicago,IL,60651,390900,5,3.0,CHI - Humboldt Park,2400,3125,1888,2,163,,Active,,,https://www.redfin.com/IL/Chicago/818-N-Lawndale-Ave-60651/home/13284390,MRED as Distributed by MLS Grid,12160217,N,Y,41.8960146,-87.7190569
MLS Listing,,Condo/Co-op,924 E 46th St #1,Chicago,IL,60653,497000,4,3.0,CHI - Kenwood,3000,,1920,2,166,200,Active,,,https://www.redfin.com/IL/Chicago/924-E-46th-St-60653/unit-1/home/189916242,MRED as Distributed by MLS Grid,12163410,N,Y,41.8115914,-87.6028615
MLS Listing,,Single Family Residential,7831 S Saint Louis Ave,Chicago,IL,60652,309900,3,2.0,CHI - Ashburn,1150,,1951,2,269,,Active,September-22-2024 12:00 PM,September-22-2024 02:00 PM,https://www.redfin.com/IL/Chicago/7831-S-Saint-Louis-Ave-60652/home/13982184,MRED as Distributed by MLS Grid,12163338,N,Y,41.750577,-87.7094583
MLS Listing,,Condo/Co-op,611 S Wells St #906,Chicago,IL,60607,399000,2,2.0,CHI - Loop,1343,,2008,2,297,690,Active,,,https://www.redfin.com/IL/Chicago/611-S-Wells-St-60607/unit-906/home/45507953,MRED as Distributed by MLS Grid,12163386,N,Y,41.8741455,-87.6332622
MLS Listing,,Condo/Co-op,1253 W Addison St #2,Chicago,IL,60613,625000,2,2.0,CHI - Lake View,1420,,,2,440,150,Active,,,https://www.redfin.com/IL/Chicago/1253-W-Addison-St-60613/unit-2/home/26808523,MRED as Distributed by MLS Grid,12160077,N,Y,41.9469402,-87.6612766
MLS Listing,,Condo/Co-op,3950 N Lake Shore Dr #1320,Chicago,IL,60611,268000,3,1.5,CHI - Lake View,1200,,1956,2,223,954,Active,,,https://www.redfin.com/IL/Chicago/3950-N-Lake-Shore-Dr-60613/unit-1320/home/13381305,MRED as Distributed by MLS Grid,12163355,N,Y,41.9542313,-87.6458372
MLS Listing,,Condo/Co-op,2925 N Whipple St #4,Chicago,IL,60618,349900,2,1.0,CHI - Avondale,1453,,,2,241,276,Active,,,https://www.redfin.com/IL/Chicago/2925-N-Whipple-St-60618/unit-4/home/12589908,MRED as Distributed by MLS Grid,12162817,N,Y,41.9347156,-87.7035208
MLS Listing,,Single Family Residential,1810 W Superior St,Chicago,IL,60622,1760000,6,4.5,CHI - West Town,4200,3125,2024,2,419,,Active,,,https://www.redfin.com/IL/Chicago/1810-W-Superior-St-60622/home/14103639,MRED as Distributed by MLS Grid,12147518,N,Y,41.8952598,-87.672686
MLS Listing,,Condo/Co-op,1843 W North Ave Unit 3W,Chicago,IL,60622,499900,2,2.0,CHI - West Town,1500,,2007,2,333,333,Active,,,https://www.redfin.com/IL/Chicago/1843-W-North-Ave-60622/unit-3W/home/26812587,MRED as Distributed by MLS Grid,12163267,N,Y,41.9104347,-87.6743588
MLS Listing,,Single Family Residential,5252 W Adams St,Chicago,IL,60644,175000,3,1.0,CHI - Austin,1596,3100,1910,2,110,,Active,,,https://www.redfin.com/IL/Chicago/5252-W-Adams-St-60644/home/13253887,MRED as Distributed by MLS Grid,12163290,N,Y,41.878637,-87.7570956
MLS Listing,,Condo/Co-op,1925 W Irving Park Rd #4,Chicago,IL,60613,545000,3,2.0,CHI - North Center,1550,,2006,2,352,253,Active,,,https://www.redfin.com/IL/Chicago/1925-W-Irving-Park-Rd-60613/unit-4/home/21619061,MRED as Distributed by MLS Grid,12156839,N,Y,41.953871,-87.677327
MLS Listing,,Condo/Co-op,4550 W 57th St Unit 2B1,Chicago,IL,60629,154900,2,1.0,CHI - West Elsdon,900,,1975,2,172,180,Active,,,https://www.redfin.com/IL/Chicago/4550-W-57th-St-60629/unit-2B1/home/192538177,MRED as Distributed by MLS Grid,12163001,N,Y,41.7899313,-87.7374608
