SALE TYPE,SOLD DATE,PROPERTY TYPE,ADDRESS,CITY,STATE OR PROVINCE,ZIP OR POSTAL CODE,PRICE,BEDS,BATHS,LOCATION,SQUARE FEET,LOT SIZE,YEAR BUILT,DAYS ON MARKET,$/SQUARE FEET,HOA/MONTH,STATUS,NEXT OPEN HOUSE START TIME,NEXT OPEN HOUSE END TIME,URL (SEE https://www.redfin.com/buy-a-home/comparative-market-analysis FOR INFO ON PRICING),SOURCE,MLS#,FAVORITE,INTERESTED,LATITUDE,LONGITUDE
MLS Listing,,Single Family Residential,901 W Belmont St,Boise,ID,83706-3620,389900,1,1.0,South Boise,704,2178,1942,6,554,,Active,September-21-2024 12:00 PM,September-21-2024 02:00 PM,https://www.redfin.com/ID/Boise/901-W-Belmont-St-83706/home/106755324,IMLS,98923725,N,Y,43.59954,-116.19274
MLS Listing,,Single Family Residential,2412 N Fry St,Boise,ID,83704,430000,3,2.0,Dollard Pauley,1486,8712,1959,19,289,,Active,,,https://www.redfin.com/ID/Boise/2412-N-Fry-St-83704/home/106657152,IMLS,98922448,N,Y,43.6273838,-116.2639286
MLS Listing,,Single Family Residential,305 S Curtis Rd,Boise,ID,83705-1018,369900,4,2.5,Boise Bench - 0400,2409,7361,1951,44,154,,Active,,,https://www.redfin.com/ID/Boise/305-S-Curtis-Rd-83705/home/106671187,IMLS,98918295,N,Y,43.6015438,-116.2539299
MLS Listing,,Single Family Residential,2335 S Rushmore Ct,Boise,ID,83709-6593,620000,4,3.5,Pepper Hills Su,2468,9016,2006,48,251,,Active,,,https://www.redfin.com/ID/Boise/2335-S-Rushmore-Ct-83709/home/106676820,IMLS,98919237,N,Y,43.5815533,-116.332859
MLS Listing,,Single Family Residential,5320 W Wylie,Boise,ID,83703,849000,3,2.5,J A Ames Sub,2250,9408,1978,1,377,,Active,,,https://www.redfin.com/ID/Boise/5320-W-Wylie-Ln-83703/home/172677130,IMLS,98924198,N,Y,43.6477182,-116.2560051
MLS Listing,,Single Family Residential,6591 W Hammermill Dr,Boise,ID,83714,709000,3,2.5,Millwell Place,2006,5488,2018,1,353,33,Active,,,https://www.redfin.com/ID/Garden-City/6591-W-Hammermill-Dr-83714/home/146239413,IMLS,98924191,N,Y,43.6728719,-116.2713499
MLS Listing,,Single Family Residential,1936 S Windstar Pl,Boise,ID,83712,1925000,4,4.0,Boulder Heights,4150,39639,2014,1,464,50,Active,,,https://www.redfin.com/ID/Boise/1936-S-Windstar-Pl-83712/home/106794123,IMLS,98924190,N,Y,43.5861697,-116.1585896
MLS Listing,,Single Family Residential,1505 S Loveland St,Boise,ID,83705,425000,3,1.0,Loveland Sub,1476,9147,1950,1,288,,Active,,,https://www.redfin.com/ID/Boise/1505-S-Loveland-St-83705/home/106745044,IMLS,98924186,N,Y,43.590641,-116.207762
MLS Listing,,Single Family Residential,6096 E Barber Dr,Boise,ID,83716,1798000,4,3.5,Harris North,3465,10890,2018,1,519,108,Active,,,https://www.redfin.com/ID/Boise/6096-E-Barber-Dr-83716/home/142666403,IMLS,98924183,N,Y,43.5790296,-116.1130687
MLS Listing,,Single Family Residential,1508 N 9th St,Boise,ID,83702,735000,3,2.0,Resseguie Add,1596,3920,1910,1,461,,Active,,,https://www.redfin.com/ID/Boise/1508-N-9th-St-83702/home/106692617,IMLS,98924172,N,Y,43.6278969,-116.1984438
MLS Listing,,Single Family Residential,3321 S Yorktown Ln,Boise,ID,83706-6302,799900,4,2.5,Latigo Place,2437,7100,2021,1,328,67,Active,,,https://www.redfin.com/ID/Boise/3321-S-Yorktown-Ln-83706/home/175049819,IMLS,98924166,N,Y,43.5723001,-116.1569296
MLS Listing,,Single Family Residential,2115 W Bannock,Boise,ID,83702,2040000,6,5.0,Fairview Add,5135,6098,2019,1,397,,Active,,,https://www.redfin.com/ID/Boise/2115-W-Bannock-St-83702/home/106797954,IMLS,98924164,N,Y,43.6233799,-116.2163921
MLS Listing,,Vacant Land,202 E 34th,Garden City,ID,83714,785000,,,Fairview Acres,,14810,,1,,,Active,,,https://www.redfin.com/ID/Garden-City/202-E-34th-St-83714/home/106658566,IMLS,98924161,N,Y,43.6240908,-116.2374101
MLS Listing,,Single Family Residential,423 E Carter,Boise,ID,83706,645000,3,2.0,Lakewood,1798,9583,1985,1,359,53,Active,,,https://www.redfin.com/ID/Boise/423-E-Carter-St-83706/home/106799281,IMLS,98924157,N,Y,43.573339,-116.1779075
MLS Listing,,Single Family Residential,3204 W Kootenai St,Boise,ID,83705,949900,4,2.5,State Sub,2655,21780,1932,1,358,,Active,,,https://www.redfin.com/ID/Boise/3204-W-Kootenai-St-83705/home/106735717,IMLS,98923802,N,Y,43.5937837,-116.2217671
MLS Listing,,Single Family Residential,11720 W Edna St,Boise,ID,83713,765000,4,2.0,Big Sky,3008,40467,1972,1,254,,Active,,,https://www.redfin.com/ID/Boise/11720-W-Edna-St-83713/home/106745744,IMLS,98924150,N,Y,43.6414531,-116.3285266
MLS Listing,,Single Family Residential,9511 W Mossywood,Boise,ID,83709,404990,3,2.5,Charter Pointe,2038,6534,2005,1,199,56,Active,,,https://www.redfin.com/ID/Boise/9511-W-Mossywood-Dr-83709/home/106674477,IMLS,98924148,N,Y,43.5393154,-116.3009147
MLS Listing,,Townhouse,7791 W Crestwood Dr,Boise,ID,83704,460000,3,2.5,Ridgeline,1663,2003,2020,1,277,133,Active,,,https://www.redfin.com/ID/Boise/7791-W-Crestwood-Dr-83704/home/172683075,IMLS,98924147,N,Y,43.6447111,-116.2791664
MLS Listing,,Single Family Residential,2443 S Heritage Ave,Boise,ID,83709,744500,4,2.5,Whitefield,3124,13068,2002,1,238,31,Active,,,https://www.redfin.com/ID/Boise/2443-S-Heritage-Ave-83709/home/106788976,IMLS,98924145,N,Y,43.5807811,-116.3329086
MLS Listing,,Condo/Co-op,4250 E Haystack St #209,Boise,ID,83716,474900,2,2.0,Harris Ranch Lofts,1007,,2024,1,472,313,Active,September-21-2024 12:00 PM,September-21-2024 03:00 PM,https://www.redfin.com/ID/Boise/4250-E-Haystack-St-83716/unit-209/home/192591823,IMLS,98924104,N,Y,43.5717522,-116.1309587
MLS Listing,,Single Family Residential,1402 S Brooklawn,Boise,ID,83709,398999,3,1.5,Randolph-Robert,1193,7405,1958,1,334,,Active,,,https://www.redfin.com/ID/Boise/1402-S-Brooklawn-Dr-83709/home/106787065,IMLS,98924072,N,Y,43.5916779,-116.2649835
MLS Listing,,Single Family Residential,2603 N Peregrine Pl,Boise,ID,83702,1095900,4,3.0,Partridge Point,3355,9147,1988,1,327,,Active,,,https://www.redfin.com/ID/Boise/2603-N-Peregrine-Pl-83702/home/106698839,IMLS,98924071,N,Y,43.6433784,-116.1991558
MLS Listing,,Single Family Residential,5965 S Cheshire Ave,Boise,ID,83709,525000,3,2.0,Brownstone,1822,6098,2007,1,288,42,Active,September-21-2024 03:00 PM,September-21-2024 05:00 PM,https://www.redfin.com/ID/Boise/5965-S-Cheshire-Ave-83709/home/106672243,IMLS,98923840,N,Y,43.5489138,-116.3091314
MLS Listing,,Townhouse,9577 W Arnold Ln,Boise,ID,83714,450000,3,2.0,Serrano Ct Condos,1394,3354,2017,2,323,85,Active,,,https://www.redfin.com/ID/Boise/9577-W-Arnold-Ln-83714/home/109561234,IMLS,98923262,N,Y,43.6875123,-116.303193
MLS Listing,,Single Family Residential,111 S Cotterell Dr,Boise,ID,83709-0308,725000,3,3.0,Maple Grove Acres,3045,42688,1964,2,238,,Active,,,https://www.redfin.com/ID/Boise/111-S-Cotterell-Dr-83709/home/106794826,IMLS,98924055,N,Y,43.6036026,-116.3039826
MLS Listing,,Single Family Residential,2308 E Table Rock Dr,Boise,ID,83712,1595000,4,3.0,Northridge Sub,4351,32234,1979,2,367,,Active,,,https://www.redfin.com/ID/Boise/2308-E-Table-Rock-Rd-83712/home/106732414,IMLS,98924030,N,Y,43.6156274,-116.1615626
MLS Listing,,Single Family Residential,7714 Robson St,Boise,ID,83714,564900,4,2.5,Pebble Creek Boise,2626,6969,2015,2,215,32,Active,,,https://www.redfin.com/ID/Boise/7714-Robson-St-83714/home/106787769,IMLS,98924019,N,Y,43.6837072,-116.2892264
MLS Listing,,Single Family Residential,2122 Bent Bow,Boise,ID,83703,1175000,5,3.5,Eyrie Canyon,3417,13024,2015,2,344,54,Active,,,https://www.redfin.com/ID/Boise/2122-W-Bent-Bow-St-83703/home/106687983,IMLS,98924018,N,Y,43.6573499,-116.2144825
MLS Listing,,Mobile/Manufactured Home,5307 N Glen,Boise,ID,83714,97900,2,2.0,Glenbrier,1296,,1988,2,76,,Active,,,https://www.redfin.com/ID/Boise/5307-N-Glen-Ln-83714/home/192577543,IMLS,98924017,N,Y,43.6683259,-116.2747246
MLS Listing,,Single Family Residential,5251 N Quail Summit Way,Boise,ID,83703,1199000,4,2.5,Quail Ridge,3367,21344,1994,2,356,67,Active,September-22-2024 01:00 PM,September-22-2024 03:00 PM,https://www.redfin.com/ID/Boise/5251-N-Quail-Summit-Way-83703/home/106745556,IMLS,98924015,N,Y,43.6677454,-116.2361116
MLS Listing,,Mobile/Manufactured Home,445 S Maple Grove Rd #18,Boise,ID,83709,52000,3,2.0,Maple Hill,840,,1972,2,62,,Active,,,https://www.redfin.com/ID/Boise/445-S-Maple-Grove-Rd-83709/unit-18/home/192576527,IMLS,98924010,N,Y,43.6011457,-116.2954117
MLS Listing,,Single Family Residential,1828 S Curtis Rd,Boise,ID,83705,475000,3,2.5,Country Meadows,1959,3397,2017,2,242,50,Active,September-20-2024 04:00 PM,September-20-2024 06:00 PM,https://www.redfin.com/ID/Boise/1828-S-Curtis-Rd-83705/home/106699622,IMLS,98924009,N,Y,43.5869632,-116.252551
MLS Listing,,Single Family Residential,804 S Colfax St,Boise,ID,83709-0249,648888,5,3.0,Brookhollow,3652,30927,1978,2,178,,Active,,,https://www.redfin.com/ID/Boise/804-S-Colfax-St-83709/home/106717541,IMLS,98924007,N,Y,43.598323,-116.3153135
MLS Listing,,Vacant Land,3537 E Interstellar Ct,Boise,ID,83712,750000,,,Boulder Point,,12632,,2,,146,Active,,,https://www.redfin.com/ID/Boise/3537-E-Interstellar-Ct-83712/home/186479037,IMLS,98923999,N,Y,43.584,-116.140086
MLS Listing,,Multi-Family (5+ Unit),4002 W Overland Rd,Boise,ID,83705,3495000,8,8.0,Whitney Homes,10830,,2022,2,323,,Active,,,https://www.redfin.com/ID/Boise/4002-W-Overland-Rd-83705/home/176756179,IMLS,98923997,N,Y,43.5901339,-116.2311709
MLS Listing,,Townhouse,8098 W San Fernando Ct,Boise,ID,83704,393000,3,2.5,Ashlee Park Twn,1385,3049,1998,2,284,125,Active,,,https://www.redfin.com/ID/Boise/8098-W-San-Fernando-Ct-83704/home/106665964,IMLS,98923998,N,Y,43.633215,-116.282649
MLS Listing,,Single Family Residential,611 E Reserve St,Boise,ID,83712,629900,3,2.0,Boise NE - 0200,1422,6534,1947,2,443,,Active,September-21-2024 01:00 PM,September-21-2024 04:00 PM,https://www.redfin.com/ID/Boise/611-E-Reserve-St-83712/home/106743999,IMLS,98923846,N,Y,43.61406,-116.186701
MLS Listing,,Single Family Residential,10945 W Irving Ct,Boise,ID,83713,370000,3,2.0,Amber Estates,1128,6098,1993,4,328,,Active,,,https://www.redfin.com/ID/Boise/10945-W-Irving-Ct-83713/home/106693518,IMLS,98919149,N,Y,43.6154315,-116.3187276
MLS Listing,,Single Family Residential,6700 N Amesbury,Boise,ID,83714,430000,3,2.0,Pheasant Hollow (Ada),1122,6969,1991,4,383,,Active,,,https://www.redfin.com/ID/Boise/6700-N-Amesbury-Way-83714/home/106717900,IMLS,98923971,N,Y,43.6791919,-116.2783089
MLS Listing,,Single Family Residential,9539 W Appling Dr Unit -,Boise,ID,83704-4104,375000,3,2.5,West Capital Ma,1656,9147,1981,4,226,,Active,,,https://www.redfin.com/ID/Boise/9539-W-Appling-Dr-83704/home/106713896,IMLS,98923968,N,Y,43.6387081,-116.3013178
MLS Listing,,Condo/Co-op,3850 E Haystack #207,Boise,ID,83716,549900,3,2.0,Harris Ranch Lofts,1255,1219,2022,4,438,381,Active,,,https://www.redfin.com/ID/Boise/3850-E-Haystack-St-83716/unit-207/home/181149434,IMLS,98923473,N,Y,43.5736673,-116.1358086
MLS Listing,,Mobile/Manufactured Home,303 Driftwood,Boise,ID,83713,199900,3,2.0,West Meadow Estates,1440,,1976,4,139,,Active,,,https://www.redfin.com/ID/Boise/303-Driftwood-Rd-83713/home/186349075,IMLS,98923943,N,Y,43.6124669,-116.3177776
MLS Listing,,Single Family Residential,10006 W Shelborne,Boise,ID,83709,450000,4,2.5,Devonshire,2009,4791,2006,4,224,29,Active,,,https://www.redfin.com/ID/Boise/10006-W-Shelborne-Dr-83709/home/106738389,IMLS,98923942,N,Y,43.5459099,-116.30701
MLS Listing,,Single Family Residential,1157 E Rubicon Dr,Boise,ID,83716,805000,4,3.0,Promontory Ridge,2720,5619,2017,4,296,75,Active,,,https://www.redfin.com/ID/Boise/1157-E-Rubicon-Dr-83716/home/106757688,IMLS,98923935,N,Y,43.5631516,-116.1691205
MLS Listing,,Single Family Residential,2530 N Joretta Dr,Boise,ID,83704-6132,595000,4,2.0,Willow Lane,1986,9626,1957,4,300,,Active,,,https://www.redfin.com/ID/Boise/2530-N-Joretta-Dr-83704/home/106705035,IMLS,98923932,N,Y,43.6285177,-116.2627072
MLS Listing,,Single Family Residential,403 E Reserve St,Boise,ID,83712,759900,3,1.5,Krall John Add,1459,5227,1893,5,521,,Active,,,https://www.redfin.com/ID/Boise/403-E-Reserve-St-83712/home/106669282,IMLS,98923929,N,Y,43.613275,-116.189734
MLS Listing,,Single Family Residential,2493 S Charlotte Ave,Boise,ID,83709,599900,5,3.0,Charleston Plac,2441,10018,1997,5,246,25,Active,,,https://www.redfin.com/ID/Boise/2493-S-Charlotte-Ave-83709/home/106699591,IMLS,98923905,N,Y,43.5804423,-116.3111961
MLS Listing,,Single Family Residential,4287 E Driftwood Dr,Meridian,ID,83642,525000,4,3.0,Westdale Park,1726,10890,1996,5,304,25,Active,,,https://www.redfin.com/ID/Meridian/4287-E-Driftwood-Dr-83642/home/106705525,IMLS,98923896,N,Y,43.6124923,-116.3409342
MLS Listing,,Single Family Residential,12347 W Medalist Dr,Boise,ID,83709-6500,759900,3,2.5,Medalist Sub,2469,12545,2001,5,308,31,Active,,,https://www.redfin.com/ID/Boise/12347-W-Medalist-Dr-83709/home/106715918,IMLS,98923879,N,Y,43.5449506,-116.3363575
MLS Listing,,Single Family Residential,5921 S Sedum Way,Boise,ID,83716,475000,3,2.0,Columbia Villag,1283,6882,1998,5,370,47,Active,,,https://www.redfin.com/ID/Boise/5921-S-Sedum-Way-83716/home/106654786,IMLS,98923878,N,Y,43.5484426,-116.1241194
MLS Listing,,Multi-Family (2-4 Unit),6524 W Lucky Ln,Boise,ID,83714,935000,8,8.0,Janell Place Sub,3952,,1997,5,237,300,Active,,,https://www.redfin.com/ID/Boise/6524-W-Lucky-Ln-83714/home/106665730,IMLS,98923875,N,Y,43.6642977,-116.2702456
MLS Listing,,Townhouse,2037 Jessie Pl,Boise,ID,83705,397900,2,2.0,Sandringham,1014,5662,1998,5,392,100,Active,September-18-2024 03:30 PM,September-18-2024 05:30 PM,https://www.redfin.com/ID/Boise/2037-S-Jessie-Pl-83705/home/106744040,IMLS,98923866,N,Y,43.5844879,-116.209987
MLS Listing,,Single Family Residential,220 N Owyhee St,Boise,ID,83706,685000,3,2.0,Marrazzo/Tony S,1674,9147,1963,5,409,,Active,,,https://www.redfin.com/ID/Boise/220-N-Owyhee-St-83706/home/106666901,IMLS,98923864,N,Y,43.6066156,-116.223252
MLS Listing,,Single Family Residential,6695 E Bear Ridge Ct,Boise,ID,83716,849900,5,4.5,Sunny Ridge,3445,12196,2014,5,247,114,Active,,,https://www.redfin.com/ID/Boise/6695-E-Bear-Ridge-Ct-83716/home/106777195,IMLS,98923859,N,Y,43.5286196,-116.1010448
MLS Listing,,Single Family Residential,1321 N Colorado,Boise,ID,83706,535000,4,3.0,Londoners First,1665,6098,1955,5,321,,Active,,,https://www.redfin.com/ID/Boise/1321-N-Colorado-83706/home/192543899,IMLS,98923858,N,Y,43.5921208,-116.1933302
MLS Listing,,Single Family Residential,12170 Chinden Rdg,Boise,ID,83714,1100000,5,3.5,Matthews Sub,3600,51879,1970,5,306,,Active,,,https://www.redfin.com/ID/Garden-City/12170-W-Chinden-Ridge-Dr-83714/home/106651425,IMLS,98923856,N,Y,43.6635266,-116.3343374
MLS Listing,,Townhouse,3273 N Patricia Pl,Boise,ID,83704,354900,3,2.0,Hennessey Court,1346,3092,2001,5,264,117,Active,,,https://www.redfin.com/ID/Boise/3273-N-Patricia-Pl-83704/home/106696465,IMLS,98923851,N,Y,43.6346139,-116.2987
MLS Listing,,Mobile/Manufactured Home,9390 W Ustick Rd Spc A,Boise,ID,83704,285000,3,2.0,Aspen Creek,1784,,1994,5,160,,Active,,,https://www.redfin.com/ID/Boise/9390-W-Ustick-Rd-83704/unit-A/home/143212131,IMLS,98923847,N,Y,43.6362884,-116.2980453
MLS Listing,,Single Family Residential,3300 W Hill Rd,Boise,ID,83703,925000,3,3.5,Boise North - 0100,4805,40510,1956,5,193,,Active,,,https://www.redfin.com/ID/Boise/3300-W-Hill-Rd-83703/home/106673788,IMLS,98923839,N,Y,43.6538457,-116.2299935
MLS Listing,,Vacant Land,5808 E Millet Dr,Boise,ID,83716,475000,,,Triplett Ranch,,22651,,5,,135,Active,,,https://www.redfin.com/ID/Boise/5808-E-Millet-Dr-83716/home/106778511,IMLS,98923837,N,Y,43.5705699,-116.111273
MLS Listing,,Single Family Residential,1815 W Bannock,Boise,ID,83702-5109,335000,1,1.0,Mc Carthy Sub,736,3920,1918,5,455,,Active,,,https://www.redfin.com/ID/Boise/1815-W-Bannock-St-83702/home/106718818,IMLS,98923834,N,Y,43.6233053,-116.2146739
MLS Listing,,Vacant Land,5078 N Becker Ridge Ln,Boise,ID,83702,475000,,,Hackberry Ridge,,17946,,5,,50,Active,,,https://www.redfin.com/ID/Boise/5078-N-Becker-Ridge-Ln-83702/home/175430230,IMLS,98923833,N,Y,43.662897,-116.194242
MLS Listing,,Single Family Residential,5462 S Pepperidge,Boise,ID,83709,425000,3,2.0,Peppertree,1226,10890,2008,5,347,30,Active,,,https://www.redfin.com/ID/Boise/5462-S-Pepperridge-Way-83709/home/106700055,IMLS,98923830,N,Y,43.5533786,-116.3208424
MLS Listing,,Condo/Co-op,323 W Jefferson #309,Boise,ID,83702,899900,2,2.0,The Jefferson,1358,,2009,5,663,648,Active,,,https://www.redfin.com/ID/Boise/323-W-Jefferson-St-83702/unit-309/home/106692091,IMLS,98923824,N,Y,43.6151534,-116.1966599
MLS Listing,,Condo/Co-op,3757 S Gekeler Ln #195,Boise,ID,83706,320000,2,2.0,Tomlinson Condo,1048,,1989,5,305,286,Active,,,https://www.redfin.com/ID/Boise/3757-S-Gekeler-Ln-83706/unit-195/home/106801455,IMLS,98923821,N,Y,43.5687603,-116.1804515
MLS Listing,,Single Family Residential,764 E Ashbourne Ln,Eagle,ID,83616,1280000,4,3.5,Lakemoor,2827,4356,2022,5,453,142,Active,,,https://www.redfin.com/ID/Eagle/764-E-Ashbourne-Ln-83616/home/146076290,IMLS,98923537,N,Y,43.6642535,-116.3450244
MLS Listing,,Single Family Residential,2779 E Hancock Ct,Boise,ID,83706,459000,3,2.0,Willow Springs,1190,6098,1989,5,386,,Active,,,https://www.redfin.com/ID/Boise/2779-E-Hancock-Ct-83706/home/106669504,IMLS,98922597,N,Y,43.5657458,-116.1486633
MLS Listing,,Single Family Residential,3207 S Virginia Ave,Boise,ID,83705,589900,3,2.5,Y Meadows,2139,5009,2018,5,276,17,Active,,,https://www.redfin.com/ID/Boise/3207-S-Virginia-Ave-83705/home/144233609,IMLS,98923801,N,Y,43.5728982,-116.2026094
MLS Listing,,Single Family Residential,4217 N Marylebone Way,Boise,ID,83713,519000,4,2.5,Combes Park,2086,9583,1980,5,249,8,Active,,,https://www.redfin.com/ID/Boise/4217-N-Marylebone-Way-83713/home/106773694,IMLS,98923511,N,Y,43.6429213,-116.3325164
MLS Listing,,Single Family Residential,407 W Ofarrell St,Boise,ID,83702,1049990,3,2.0,Hyde Park Sub,2590,6098,1900,5,405,,Active,September-21-2024 01:00 PM,September-21-2024 03:00 PM,https://www.redfin.com/ID/Boise/407-W-Ofarrell-St-83702/home/106700440,IMLS,98923796,N,Y,43.62464,-116.1927501
MLS Listing,,Mobile/Manufactured Home,790 N Riviera Dr #50 Dr,Boise,ID,83703,129900,2,1.0,Stonegate,952,,1978,5,136,460,Active,,,https://www.redfin.com/ID/Boise/790-N-Riviera-Dr-83703/home/165429226,IMLS,98923792,N,Y,43.6318903,-116.2335393
MLS Listing,,Single Family Residential,3551 S Creekwood Way,Boise,ID,83709,449500,3,2.5,Creekwood Sub,1511,8712,2004,5,297,23,Active,,,https://www.redfin.com/ID/Boise/3551-S-Creekwood-Way-83709/home/106710988,IMLS,98923790,N,Y,43.5700651,-116.2784098
MLS Listing,,Vacant Land,TBD E Wildhorse Ln,Boise,ID,83712,749900,,,Wildhorse Ranch,,1755903,,5,,133,Active,,,https://www.redfin.com/ID/Boise/TBD-E-Wildhorse-Ln-83712/home/143183815,IMLS,98923788,N,Y,43.6156568,-116.1170738
MLS Listing,,Mobile/Manufactured Home,428 Mesquite St,Boise,ID,83713,115000,3,2.0,Rustic Acres,1152,,2017,6,100,,Active,,,https://www.redfin.com/ID/Boise/428-Mesquite-St-83713/home/192528266,IMLS,98923782,N,Y,43.6134746,-116.3202969
MLS Listing,,Mobile/Manufactured Home,181 N Liberty St,Boise,ID,83704,155000,3,2.0,Coach Royale Pa,1152,,2019,6,135,,Active,,,https://www.redfin.com/ID/Boise/181-N-Liberty-St-83704/home/145176608,IMLS,98923780,N,Y,43.6068318,-116.2630097
MLS Listing,,Single Family Residential,3881 E Timbersaw Dr,Boise,ID,83716,934900,5,4.0,Dallas Harris Estates,3006,7840,2013,6,311,98,Active,,,https://www.redfin.com/ID/Boise/3881-E-Timbersaw-Dr-83716/home/106649256,IMLS,98923772,N,Y,43.5777113,-116.1356198
MLS Listing,,Single Family Residential,6704 E Zaffre Ridge St,Boise,ID,83716,559000,4,2.5,Rush Valley,2205,6229,2020,6,254,42,Active,,,https://www.redfin.com/ID/Boise/6704-E-Zaffre-Ridge-St-83716/home/172683177,IMLS,98923761,N,Y,43.5273157,-116.1006947
MLS Listing,,Single Family Residential,1526/1524 S Lincoln Ave,Boise,ID,83706,1149900,5,4.0,Dundee,3017,6098,1940,6,381,,Active,,,https://www.redfin.com/ID/Boise/1526-S-Lincoln-Ave-83706/home/106650803,IMLS,98923760,N,Y,43.5936063,-116.2020355
MLS Listing,,Single Family Residential,2106 N 21st St,Boise,ID,83702,1250000,4,3.0,Miller Sub,2981,9191,2013,6,419,,Active,,,https://www.redfin.com/ID/Boise/2106-N-21st-St-83702/home/106684585,IMLS,98923755,N,Y,43.6397072,-116.2142691
MLS Listing,,Townhouse,5167 N Yorgason Ave,Boise,ID,83703-3273,410000,3,2.5,Village Green,1346,5575,2001,6,305,100,Active,,,https://www.redfin.com/ID/Boise/5167-N-Yorgason-Ave-83703/home/106794296,IMLS,98923744,N,Y,43.667361,-116.2594878
MLS Listing,,Mobile/Manufactured Home,8441 Blue Heaven Ln,Boise,ID,83716-5769,150000,3,2.0,Blue Valley,1325,,2017,6,113,,Active,,,https://www.redfin.com/ID/Boise/8441-Blue-Heaven-Ln-83716/home/190996458,IMLS,98923741,N,Y,43.5255428,-116.1598406
MLS Listing,,Single Family Residential,303 N Garden St,Boise,ID,83706,615000,4,2.0,Bews,1804,11891,1972,6,341,,Active,,,https://www.redfin.com/ID/Boise/303-N-Garden-St-83706/home/106728483,IMLS,98923734,N,Y,43.6072371,-116.2387624
MLS Listing,,Single Family Residential,17 S Garden St,Boise,ID,83705,349900,2,1.0,Richardson Sub,869,9147,1959,6,403,,Active,,,https://www.redfin.com/ID/Boise/17-S-Garden-St-83705/home/106704292,IMLS,98923724,N,Y,43.6038363,-116.2387951
MLS Listing,,Single Family Residential,6238 W Edgewater Dr,Boise,ID,83709,600000,4,2.0,Franklin Park,2224,20473,1970,6,270,,Active,,,https://www.redfin.com/ID/Boise/6238-W-Edgewater-Dr-83709/home/106797041,IMLS,98923717,N,Y,43.6029576,-116.2594399
MLS Listing,,Single Family Residential,634 W Fordham Dr,Eagle,ID,83616,1395000,5,4.5,Banbury Sub,4118,43995,1992,6,339,121,Active,September-21-2024 12:00 PM,September-21-2024 03:00 PM,https://www.redfin.com/ID/Eagle/634-W-Fordham-Dr-83616/home/106796007,IMLS,98923707,N,Y,43.6642974,-116.3622374
MLS Listing,,Single Family Residential,4931 S Caden Creek Way,Boise,ID,83709,549400,4,2.0,Caden Creek,2539,8319,2018,6,216,54,Active,,,https://www.redfin.com/ID/Boise/4931-S-Caden-Creek-Way-83709/home/146032922,IMLS,98923697,N,Y,43.5582907,-116.3190911
MLS Listing,,Mobile/Manufactured Home,264 Checola Cir,Boise,ID,83713,92000,2,1.0,West Meadow Estates,2000,,1977,6,46,,Active,,,https://www.redfin.com/ID/Boise/264-Checola-Cir-83713/home/171826700,IMLS,98923688,N,Y,43.6143628,-116.3168048
MLS Listing,,Single Family Residential,8234 N Sundial Way,Boise,ID,83714,535000,3,2.5,Sunstone,2107,5575,2005,6,254,22,Active,,,https://www.redfin.com/ID/Boise/8234-N-Sundial-Way-83714/home/106707801,IMLS,98923687,N,Y,43.6858658,-116.2910569
MLS Listing,,Single Family Residential,10240 W Shelborne Dr,Boise,ID,83709,425000,3,2.0,Running Springs,1462,6229,2017,6,291,46,Active,,,https://www.redfin.com/ID/Boise/10240-W-Shelborne-Dr-83709/home/142667685,IMLS,98923685,N,Y,43.546165,-116.3098411
MLS Listing,,Single Family Residential,7766 S Mistyglen Ave,Boise,ID,83709,499000,3,2.0,Fox Meadow Sub,1632,18295,1975,6,306,,Active,,,https://www.redfin.com/ID/Boise/7766-S-Mistyglen-Ave-83709/home/106717237,IMLS,98923681,N,Y,43.532539,-116.304741
MLS Listing,,Single Family Residential,2063 S Stonyfield Pl,Boise,ID,83709,619900,4,3.0,Stonyfield Farm,3031,8015,2009,6,205,26,Active,,,https://www.redfin.com/ID/Boise/2063-S-Stonyfield-Pl-83709/home/106764516,IMLS,98923670,N,Y,43.5847179,-116.3162284
MLS Listing,,Single Family Residential,2425 N Esquire Dr,Boise,ID,83704-6208,429900,3,1.0,Willow Lane,1161,14810,1957,6,370,,Active,,,https://www.redfin.com/ID/Boise/2425-N-Esquire-Dr-83704/home/106690206,IMLS,98923666,N,Y,43.6274599,-116.2606743
MLS Listing,,Single Family Residential,5977 S Pearl Jensen Ave,Boise,ID,83709,499900,3,2.0,Brownstone,1612,6098,2009,6,310,38,Active,,,https://www.redfin.com/ID/Boise/5977-S-Pearl-Jensen-Ave-83709/home/106811301,IMLS,98923663,N,Y,43.5489716,-116.3076767
MLS Listing,,Townhouse,1422 S Colorado Ave,Boise,ID,83706,398000,2,1.5,Londoners First,1007,3049,1985,6,395,,Active,September-21-2024 01:00 PM,September-21-2024 03:00 PM,https://www.redfin.com/ID/Boise/1422-S-Colorado-Ave-83706/home/106785790,IMLS,98923657,N,Y,43.5950553,-116.1894751
MLS Listing,,Single Family Residential,9580 W Bluestone Ct,Boise,ID,83709,449900,3,2.0,Mill Creek Sub,1515,6969,1996,6,297,37,Active,,,https://www.redfin.com/ID/Boise/9580-W-Bluestone-Ct-83709/home/106651007,IMLS,98923656,N,Y,43.5899053,-116.3012442
MLS Listing,,Townhouse,3044 N Network Ln,Boise,ID,83704,500000,4,3.5,Broadview Place,2416,2787,2021,6,207,107,Active,,,https://www.redfin.com/ID/Boise/3044-N-Network-Ln-83704/home/172678240,IMLS,98923651,N,Y,43.6325432,-116.2832308
MLS Listing,,Single Family Residential,4228 E Pine Bluff Dr,Meridian,ID,83642,799000,4,4.0,Sutherland Farm,3097,13068,2006,6,258,33,Active,,,https://www.redfin.com/ID/Meridian/4228-E-Pine-Bluff-Dr-83642/home/106720143,IMLS,98923030,N,Y,43.582259,-116.3414666
MLS Listing,,Single Family Residential,2781 E Mendota Dr,Boise,ID,83716,450000,3,2.0,Cove East,1460,8276,1993,6,308,18,Active,,,https://www.redfin.com/ID/Boise/2781-E-Mendota-Dr-83716/home/106717686,IMLS,98923642,N,Y,43.5556113,-116.1485655
MLS Listing,,Single Family Residential,3162 Hopes Well Way,Boise,ID,83716,715000,3,2.5,Dallas Harris Estates,1994,3920,2020,6,359,132,Active,,,https://www.redfin.com/ID/Boise/3162-S-Hopes-Well-Way-83716/home/172679540,IMLS,98923636,N,Y,43.572825,-116.127166
MLS Listing,,Single Family Residential,2951 Highway 21,Boise,ID,83716,1450000,5,4.0,Eagle Ridge,3328,696960,2005,6,436,,Active,,,https://www.redfin.com/ID/Boise/2951-Unknown/home/173817506,IMLS,98923635,N,Y,43.5423969,-116.1629558
MLS Listing,,Single Family Residential,2038 N Siesta Ave,Boise,ID,83704,437000,3,2.0,Barbary Sub,1438,6534,1992,6,304,,Active,,,https://www.redfin.com/ID/Boise/2038-N-Siesta-Ave-83704/home/106689305,IMLS,98923634,N,Y,43.6235861,-116.3069505
MLS Listing,,Single Family Residential,9001 W Brookview Ct,Boise,ID,83709,450000,4,2.0,Maple Hill,1873,9583,1978,6,240,50,Active,,,https://www.redfin.com/ID/Boise/9001-W-Brookview-Ct-83709/home/106651067,IMLS,98923631,N,Y,43.6023629,-116.2944789
MLS Listing,,Mobile/Manufactured Home,9390 Ustick #28,Boise,ID,83704,140000,2,2.0,Aspen Creek,1152,,1975,6,122,,Active,,,https://www.redfin.com/ID/Boise/9390-W-Ustick-Rd-83704/unit-28/home/145178623,IMLS,98923627,N,Y,43.6362884,-116.2980453
MLS Listing,,Single Family Residential,5112 S Tindaris Ln,Meridian,ID,83642,598900,3,3.0,Century Farm,2020,3746,2024,7,296,217,Active,,,https://www.redfin.com/ID/Meridian/5112-S-Tindaris-Ln-83642/home/181150360,IMLS,98923601,N,Y,43.558843,-116.351585
MLS Listing,,Single Family Residential,3346 S Glen Falls Pl,Boise,ID,83706,795000,4,2.5,Lakewood,2374,7840,1988,7,335,31,Active,September-21-2024 12:00 PM,September-21-2024 03:00 PM,https://www.redfin.com/ID/Boise/3346-S-Glen-Falls-Pl-83706/home/106665263,IMLS,98923599,N,Y,43.571982,-116.17539
MLS Listing,,Townhouse,2922 N Saint James Pl,Boise,ID,83703,404888,3,2.5,Boise NW - 0800,1330,3267,2005,7,304,,Active,,,https://www.redfin.com/ID/Boise/2922-N-Saint-James-Pl-83703/home/106653811,IMLS,98923596,N,Y,43.6467237,-116.2473424
MLS Listing,,Single Family Residential,10488 W Shields Ave,Boise,ID,83714,436589,3,2.5,Randall Acres S,1590,7623,2024,7,275,,Active,,,https://www.redfin.com/ID/Boise/10488-Shields-Ave-83714/home/190085870,IMLS,98923590,N,Y,43.6862489,-116.3080036
MLS Listing,,Single Family Residential,10480 W Shields Ave,Boise,ID,83714,434332,3,2.5,Randall Acres S,1590,6534,2024,7,273,,Active,,,https://www.redfin.com/ID/Boise/10480-Shields-Ave-83714/home/190085871,IMLS,98923585,N,Y,43.6862489,-116.3080036
MLS Listing,,Single Family Residential,10300 E Shaw Mountain Rd,Boise,ID,83712,599900,2,1.5,Boise NE - 0200,600,1522422,2014,7,1000,,Active,,,https://www.redfin.com/ID/Boise/10300-E-Shaw-Mountain-Rd-83712/home/106764790,IMLS,98923576,N,Y,43.641893,-116.062679
MLS Listing,,Single Family Residential,4420 N Collister Dr,Boise,ID,83703,869000,3,2.0,Boise NW - 0800,1612,11325,1972,7,539,,Active,,,https://www.redfin.com/ID/Boise/4420-N-Collister-Dr-83703/home/106669974,IMLS,98923575,N,Y,43.660776,-116.248103
MLS Listing,,Single Family Residential,3843 N Collister Dr,Boise,ID,83703,875000,4,2.5,Boise NW - 0800,2287,6316,2016,7,383,,Active,September-22-2024 01:00 PM,September-22-2024 04:00 PM,https://www.redfin.com/ID/Boise/3843-N-Collister-Dr-83703/home/109560937,IMLS,98923552,N,Y,43.655284,-116.248671
MLS Listing,,Single Family Residential,2408 W Bannock St,Boise,ID,83702,749900,3,2.0,Fairview Add,1848,6098,1936,7,406,,Active,,,https://www.redfin.com/ID/Boise/2408-W-Bannock-St-83702/home/106700418,IMLS,98923551,N,Y,43.6238598,-116.2203379
MLS Listing,,Single Family Residential,12549 W Mardia,Boise,ID,83709,529900,4,2.5,Rockhampton,2272,7405,2006,7,233,44,Active,,,https://www.redfin.com/ID/Boise/12549-W-Mardia-St-83709/home/106814985,IMLS,98923545,N,Y,43.5497492,-116.3384742
MLS Listing,,Single Family Residential,1000 S Roosevelt,Boise,ID,83705-2154,1100000,4,3.5,Boise Bench - 0400,5927,41817,1931,7,186,,Active,,,https://www.redfin.com/ID/Boise/1000-S-Roosevelt-St-83705/home/106814071,IMLS,98923532,N,Y,43.5949306,-116.2329727
MLS Listing,,Single Family Residential,6612 W Dufferin Ct,Boise,ID,83714,549000,3,2.5,Panther Creek,1729,4486,2012,7,318,66,Active,September-22-2024 01:00 PM,September-22-2024 03:00 PM,https://www.redfin.com/ID/Garden-City/6612-W-Dufferin-Ct-83714/home/106719572,IMLS,98923534,N,Y,43.6654,-116.271438
MLS Listing,,Single Family Residential,10655 W Conway Ave,Boise,ID,83709,599900,4,3.0,Brookhollow,2286,10454,1977,7,262,,Active,,,https://www.redfin.com/ID/Boise/10655-W-Conway-Ave-83709/home/106649373,IMLS,98923527,N,Y,43.5991934,-116.3149902
MLS Listing,,Condo/Co-op,3323 N Lakeharbor Ln #201,Boise,ID,83703,214900,1,1.0,Goosecreek Condos,618,,2004,7,348,165,Active,,,https://www.redfin.com/ID/Boise/3323-N-Lakeharbor-Ln-83703/unit-201/home/106684987,IMLS,98923518,N,Y,43.6510479,-116.2516627
MLS Listing,,Townhouse,3212 S Barnside Way,Boise,ID,83716,749900,3,2.5,The BLVD at Harris Ranch,2627,3005,2021,7,285,132,Active,,,https://www.redfin.com/ID/Boise/3212-S-Barnside-Way-83716/home/175912063,IMLS,98923505,N,Y,43.572631,-116.131999
MLS Listing,,Multi-Family (2-4 Unit),9962 W Rosecroft Ct,Boise,ID,83704-5073,1200000,9,10.0,Rosecroft Place,4916,7840,2008,8,244,180,Active,,,https://www.redfin.com/ID/Boise/9962-W-Rosecroft-Ct-83704/home/106685670,IMLS,98923488,N,Y,43.6183058,-116.306159
MLS Listing,,Mobile/Manufactured Home,5373 N Glen Ln,Boise,ID,83714,88000,3,2.0,Glenbrier,,,2000,8,,,Active,,,https://www.redfin.com/ID/Boise/5373-N-Glen-Ln-83714/home/145184800,IMLS,98923470,N,Y,43.6689308,-116.2748453
MLS Listing,,Condo/Co-op,894 S Curtis Rd,Boise,ID,83705,274900,2,1.5,Bench Condo,912,,1971,8,301,145,Active,,,https://www.redfin.com/ID/Boise/894-S-Curtis-Rd-83705/home/106680121,IMLS,98923457,N,Y,43.59646,-116.253277
MLS Listing,,Single Family Residential,2926 W Neff St,Boise,ID,83703,899900,4,3.5,Boise North - 0100,2288,5837,2024,8,393,42,Active,September-21-2024 01:00 PM,September-21-2024 03:00 PM,https://www.redfin.com/ID/Boise/2926-W-Neff-St-83703/home/189809789,IMLS,98923449,N,Y,43.646876,-116.2247546
MLS Listing,,Single Family Residential,10018 W Hollandale Dr,Boise,ID,83709,540000,3,2.0,Charleston Plac,1769,9060,2000,8,305,25,Active,,,https://www.redfin.com/ID/Boise/10018-W-Hollandale-Dr-83709/home/106769457,IMLS,98923422,N,Y,43.5820388,-116.3068254
MLS Listing,,Single Family Residential,2410 S Lynx Way,Boise,ID,83705,798000,5,3.5,Southwick Estates,3976,9321,1979,8,201,,Active,,,https://www.redfin.com/ID/Boise/2410-S-Lynx-Way-83705/home/106786025,IMLS,98923420,N,Y,43.580374,-116.239062
MLS Listing,,Townhouse,5482 W Tivoli Ln,Boise,ID,83703,700000,3,2.5,Tivoli Gardens,2227,3484,2005,8,314,125,Active,,,https://www.redfin.com/ID/Boise/5482-W-Tivoli-Ln-83703/home/106711555,IMLS,98923417,N,Y,43.65316,-116.2571094
MLS Listing,,Single Family Residential,512 N Brookdale Dr,Boise,ID,83712,759900,3,2.0,Warm Springs Pa,2152,7405,1948,8,353,,Active,,,https://www.redfin.com/ID/Boise/512-N-Brookdale-Dr-83712/home/106757321,IMLS,98923411,N,Y,43.60597,-116.171011
MLS Listing,,Condo/Co-op,611 S 8th St Unit 502,Boise,ID,83702-7181,995000,3,2.5,Cultural District Condominiums,1697,,2017,8,586,623,Active,,,https://www.redfin.com/ID/Boise/611-S-8th-St-83702/unit-502/home/142669591,IMLS,98923361,N,Y,43.6113184,-116.2078783
MLS Listing,,Single Family Residential,3117 W Rose Hill St,Boise,ID,83705,749990,3,2.0,State Sub,1774,6534,2017,8,423,,Active,,,https://www.redfin.com/ID/Boise/3117-W-Rose-Hill-St-83705/home/106770966,IMLS,98923405,N,Y,43.600473,-116.220693
MLS Listing,,Multi-Family (2-4 Unit),1905 W Idaho St,Boise,ID,83702,599900,4,3.0,Fairview Add,1645,,1936,9,365,,Active,,,https://www.redfin.com/ID/Boise/1905-W-Idaho-St-83702/home/106700611,IMLS,98923391,N,Y,43.6225815,-116.2161982
MLS Listing,,Single Family Residential,7930 W Cummins Ave,Boise,ID,83709,389972,4,2.0,Randall Acres S,1824,10454,1963,9,214,,Active,,,https://www.redfin.com/ID/Boise/7930-W-Cummins-Ave-83709/home/106810349,IMLS,98921385,N,Y,43.5949738,-116.2805894
MLS Listing,,Mobile/Manufactured Home,2345 Iris Ln,Boise,ID,83704,150000,3,2.0,Sunflower Park,1288,,1999,9,116,,Active,,,https://www.redfin.com/ID/Boise/2345-Iris-Ln-83704/home/147651053,IMLS,98923273,N,Y,43.626113,-116.300119
MLS Listing,,Single Family Residential,6817 W Ustick,Boise,ID,83704,,3,2.0,Overlook Park,1603,5227,2025,10,,,Active,,,https://www.redfin.com/ID/Boise/6817-W-Ustick-Rd-83704/home/106682223,IMLS,98923264,N,Y,43.6335713,-116.2669091
MLS Listing,,Single Family Residential,2951 W Palouse St,Boise,ID,83705,364999,3,2.0,Abbs,1260,9147,1977,10,290,,Active,,,https://www.redfin.com/ID/Boise/2951-W-Palouse-St-83705/home/106775075,IMLS,98923263,N,Y,43.5850397,-116.2179057
MLS Listing,,Single Family Residential,6829 W Ustick,Boise,ID,83704,,3,2.0,Overlook Park,,5227,2025,10,,,Active,,,https://www.redfin.com/ID/Boise/6829-W-Ustick-Rd-83704/home/189878049,IMLS,98923242,N,Y,43.6335717,-116.2669552
MLS Listing,,Single Family Residential,4644 E Pegasus,Boise,ID,83716,750000,4,3.0,Columbia Villag,2303,8276,2006,11,326,42,Active,,,https://www.redfin.com/ID/Boise/4644-E-Pegasus-Ct-83716/home/106678068,IMLS,98923227,N,Y,43.5522427,-116.1261395
MLS Listing,,Single Family Residential,9390 W Ustick Rd #32,Boise,ID,83704,235000,2,2.0,Aspen Creek,1352,,2017,11,174,,Active,,,https://www.redfin.com/ID/Boise/9390-W-Ustick-Rd-83704/unit-32/home/144805631,IMLS,98923226,N,Y,43.6362884,-116.2980453
MLS Listing,,Single Family Residential,10343 W Kingsbriar,Boise,ID,83709,459900,3,2.0,Greenbriar Commons,1764,4791,2009,11,261,42,Active,September-22-2024 12:00 PM,September-22-2024 03:30 PM,https://www.redfin.com/ID/Boise/10343-W-Kingsbriar-Dr-83709/home/106811697,IMLS,98923221,N,Y,43.5475551,-116.3112074
MLS Listing,,Condo/Co-op,4827 S Chinook,Boise,ID,83709,259000,2,1.5,Indian Lake Sub,1009,,1976,11,257,250,Active,,,https://www.redfin.com/ID/Boise/4827-S-Chinook-Ave-83709/home/180301889,IMLS,98923202,N,Y,43.558793,-116.270142
MLS Listing,,Townhouse,1438 N Cole Cottage Ln,Boise,ID,83704,394500,3,3.0,Cole Bluff Cottages Subdivision,1420,1742,2024,11,278,55,Active,,,https://www.redfin.com/ID/Boise/1438-N-Cole-Cottage-Ln-83704/home/186479280,IMLS,98923190,N,Y,43.618384,-116.27669
MLS Listing,,Townhouse,1469 N Bluffs Ridge Ln,Boise,ID,83704,339500,3,2.0,Cole Bluff Cottages Subdivision,1069,1132,2023,11,318,55,Active,,,https://www.redfin.com/ID/Boise/1469-N-Bluffs-Ridge-Ln-83704/home/186479275,IMLS,98923189,N,Y,43.618494,-116.276285
MLS Listing,,Single Family Residential,8154 W Mojave Dr,Boise,ID,83709,364000,3,2.0,Bridgeview,1090,4791,2008,12,334,23,Active,,,https://www.redfin.com/ID/Boise/8154-W-Mojave-Dr-83709/home/106711323,IMLS,98923160,N,Y,43.5600903,-116.283655
MLS Listing,,Mobile/Manufactured Home,181 N Liberty St #31,Boise,ID,83704,105000,3,2.0,Coach Royale Pa,924,,1978,12,114,,Active,,,https://www.redfin.com/ID/Boise/181-N-Liberty-St-83704/unit-31/home/192406166,IMLS,98923159,N,Y,43.6057763,-116.2620717
MLS Listing,,Single Family Residential,5402 S Paintbrush Pl,Boise,ID,83716-6884,445000,3,2.0,Columbia Villag,1112,5662,1993,12,400,47,Active,,,https://www.redfin.com/ID/Boise/5402-S-Paintbrush-Pl-83716/home/106702330,IMLS,98923144,N,Y,43.5535586,-116.1389127
MLS Listing,,Single Family Residential,3149 N Lancaster Pl,Boise,ID,83702,2499000,4,4.0,Magal,4323,19776,2023,12,578,70,Active,,,https://www.redfin.com/ID/Boise/3149-N-Lancaster-Pl-83702/home/144517624,IMLS,98923136,N,Y,43.6485399,-116.214997
MLS Listing,,Single Family Residential,12093 W Hidden Valley Rim Rd,Boise,ID,83709,889900,4,2.5,Hidden Valley Estates,1773,43560,1974,12,502,,Active,,,https://www.redfin.com/ID/Boise/12093-W-Hidden-Valley-Rim-Rd-83709/home/106730089,IMLS,98923107,N,Y,43.5386634,-116.3327835
MLS Listing,,Townhouse,4820 N Bitterbrush Dr,Boise,ID,83703,425000,3,2.0,Briarhill Sub,1447,1742,1979,12,294,218,Active,,,https://www.redfin.com/ID/Boise/4820-N-Bitterbrush-Dr-83703/home/106779341,IMLS,98923083,N,Y,43.6638559,-116.243958
MLS Listing,,Single Family Residential,1706 S Raymond St,Boise,ID,83709-2961,350000,4,2.0,Borah Heights,2126,8712,1965,12,165,,Active,,,https://www.redfin.com/ID/Boise/1706-S-Raymond-St-83709/home/106700595,IMLS,98923079,N,Y,43.589043,-116.2633478
MLS Listing,,Single Family Residential,95 Johnson Crk,Boise,ID,83716,659000,3,3.0,East Boise County - 1450,2922,87120,1996,12,226,,Active,,,https://www.redfin.com/ID/Boise/95-Johnson-Creek-Rd-83716/home/115227801,IMLS,98923074,N,Y,43.7580663,-116.0029508
MLS Listing,,Single Family Residential,5678 W Gate House Ct,Boise,ID,83703,625000,3,2.5,Castle Hills Su,2122,7840,1983,12,295,,Active,,,https://www.redfin.com/ID/Boise/5678-W-Gate-House-Ct-83703/home/106741917,IMLS,98923064,N,Y,43.6679721,-116.2594921
MLS Listing,,Single Family Residential,4507 N Mackenzie Ln,Boise,ID,83703,495000,3,2.0,Ellies Path,1509,3876,2005,12,328,33,Active,September-21-2024 02:00 PM,September-21-2024 04:00 PM,https://www.redfin.com/ID/Boise/4507-N-Mackenzie-Ln-83703/home/106806433,IMLS,98922392,N,Y,43.6613264,-116.2646596
MLS Listing,,Single Family Residential,2138 S Longmont Ave,Boise,ID,83706,599900,3,3.0,Boise SE - 0300,1749,3136,2019,12,343,,Active,,,https://www.redfin.com/ID/Boise/2138-S-Longmont-Ave-83706/home/168049938,IMLS,98923048,N,Y,43.5848429,-116.1917935
MLS Listing,,Single Family Residential,4418 W Gage St,Boise,ID,83706-2120,485000,2,2.0,Manville Sub,1020,3049,2023,12,475,,Active,,,https://www.redfin.com/ID/Boise/4418-W-Gage-St-83706/home/181271296,IMLS,98923045,N,Y,43.6136394,-116.2367578
MLS Listing,,Single Family Residential,11274 W Race St,Boise,ID,83713,429900,3,2.5,Ustick,1704,3484,2015,12,252,,Active,,,https://www.redfin.com/ID/Boise/11274-W-Race-St-83713/home/109555916,IMLS,98923040,N,Y,43.6322942,-116.3227201
MLS Listing,,Single Family Residential,4465 S Five Mile Rd,Boise,ID,83709,680000,4,2.5,Five Mile Estat,1992,36590,1972,12,341,,Active,,,https://www.redfin.com/ID/Boise/4465-S-Five-Mile-Rd-83709/home/106650029,IMLS,98923035,N,Y,43.562362,-116.3146841
MLS Listing,,Single Family Residential,5464 S Pinland Ave,Meridian,ID,83642,774900,5,2.5,Century Farm,2801,8712,2018,12,277,50,Active,,,https://www.redfin.com/ID/Meridian/5464-S-Pinland-Ave-83642/home/146122595,IMLS,98923034,N,Y,43.5552146,-116.3458221
MLS Listing,,Condo/Co-op,3757 Gekeler Ln #185,Boise,ID,83703,284000,1,1.0,Tomlinson Condo,850,,1989,12,334,275,Active,,,https://www.redfin.com/ID/Boise/3757-S-Gekeler-Ln-83706/unit-185/home/106746709,IMLS,98922816,N,Y,43.5687603,-116.1804515
MLS Listing,,Townhouse,2934 W Davis St,Boise,ID,83702-2229,524900,3,2.5,Boise North - 0100,1328,1655,2021,12,395,50,Active,,,https://www.redfin.com/ID/Boise/2934-W-Davis-St-83702/home/175251865,IMLS,98922998,N,Y,43.6320663,-116.2249975
MLS Listing,,Single Family Residential,2605 S Odle Way,Boise,ID,83705,549900,5,2.0,Corry Sub,2240,10149,1977,12,245,,Active,,,https://www.redfin.com/ID/Boise/2605-S-Odle-Way-83705/home/106661539,IMLS,98923020,N,Y,43.5787104,-116.2403755
MLS Listing,,Single Family Residential,8178 W Saddlehorn St,Boise,ID,83709,434900,3,2.0,Bridgeview,1696,5227,2014,12,256,23,Active,,,https://www.redfin.com/ID/Boise/8178-W-Saddlehorn-St-83709/home/106715272,IMLS,98922190,N,Y,43.5587316,-116.2840356
MLS Listing,,Single Family Residential,2980 N Mumbarto Ave,Boise,ID,83713,575000,4,2.5,Boise W-Garden City - 0650,2090,6969,2021,12,275,,Active,,,https://www.redfin.com/ID/Boise/2980-Mumbarto-Ave-83713/home/175927005,IMLS,98923017,N,Y,43.631721,-116.3228
MLS Listing,,Single Family Residential,7300 W Maxwell Dr,Boise,ID,83704,595000,2,1.0,Combes Acres,1026,29620,1956,12,580,,Active,,,https://www.redfin.com/ID/Boise/7300-W-Maxwell-Dr-83704/home/106682458,IMLS,98923014,N,Y,43.6174272,-116.2726312
MLS Listing,,Single Family Residential,4195 N Cambria Ln,Boise,ID,83703,424900,3,2.0,Bloomfield,1092,6098,1988,12,389,8,Active,,,https://www.redfin.com/ID/Boise/4195-N-Cambria-Ln-83703/home/106660273,IMLS,98923012,N,Y,43.6583625,-116.2551999
MLS Listing,,Single Family Residential,7450 N Hampstead Ave,Boise,ID,83714,440000,3,2.0,Landover Estate,1409,8712,1994,13,312,13,Active,,,https://www.redfin.com/ID/Boise/7450-N-Hampstead-Ave-83714/home/106791143,IMLS,98922997,N,Y,43.6822146,-116.2875711
MLS Listing,,Single Family Residential,5048 N Samson,Boise,ID,83704,625000,4,2.5,Stonybrook (Boise),2309,9147,1990,13,271,21,Active,,,https://www.redfin.com/ID/Boise/5048-N-Samson-Ave-83704/home/106742035,IMLS,98922404,N,Y,43.6508306,-116.3133152
MLS Listing,,Vacant Land,"E Stone Point Drive, Boise ID 83712 E Stone Point Dr",Boise,ID,83712,399000,,,Boise NE - 0200,,49222,,13,,,Active,,,https://www.redfin.com/ID/Boise/E-Stone-Point-Drive-Boise-ID-83712-E-Stone-Point-Dr-83712/home/180339444,IMLS,98922968,N,Y,43.5838401,-116.1495841
MLS Listing,,Mobile/Manufactured Home,621 N Timathy,Boise,ID,83713,65000,3,2.0,Rustic Acres,1152,,1978,13,56,,Active,,,https://www.redfin.com/ID/Boise/621-N-Timathy-Rd-83713/home/145186861,IMLS,98922960,N,Y,43.6137782,-116.3239907
MLS Listing,,Single Family Residential,7983 S Red Clf,Boise,ID,83716-3465,499900,4,2.5,Painted Ridge (Boise),1662,4007,2016,13,301,40,Active,,,https://www.redfin.com/ID/Boise/7983-S-Red-Cliff-Ave-83716/home/109559511,IMLS,98922957,N,Y,43.5293093,-116.11043
MLS Listing,,Single Family Residential,10221 W Cory St,Boise,ID,83704,350000,2,1.0,Stacy Sub,826,7405,1986,13,424,,Active,,,https://www.redfin.com/ID/Boise/10221-W-Cory-St-83704/home/106762374,IMLS,98922951,N,Y,43.6268555,-116.3095995
MLS Listing,,Single Family Residential,211 Evergreen Dr,Boise,ID,83716,469900,3,3.0,Wilderness Ranch,1616,46609,1997,13,291,220,Active,,,https://www.redfin.com/ID/Boise/211-Evergreen-Dr-83716/home/115252004,IMLS,98922950,N,Y,43.6618209,-115.9943117
MLS Listing,,Townhouse,2353 N Shaelyn Ln Unit Block B3,Boise,ID,83713-5542,475000,3,2.5,Atrium Heights Subdivision,1712,1742,2024,13,277,,Active,,,https://www.redfin.com/ID/Boise/2353-N-Shaelyn-Ln-83713/unit-Block-B3/home/192379026,IMLS,98922939,N,Y,43.6260541,-116.3214867
MLS Listing,,Townhouse,2375 N Shaelyn Ln Unit Block B4,Boise,ID,83713-5542,485000,3,2.5,Atrium Heights Subdivision,1718,1742,2024,13,282,,Active,,,https://www.redfin.com/ID/Boise/2375-N-Shaelyn-Ln-83713/unit-Block-B4/home/192379027,IMLS,98922941,N,Y,43.6260541,-116.3214867
MLS Listing,,Townhouse,2341 N Shaelyn Ln Unit Block B2,Boise,ID,83713-5542,475000,3,2.5,Atrium Heights Subdivision,1711,1742,2024,13,278,,Active,,,https://www.redfin.com/ID/Boise/2341-N-Shaelyn-Ln-83713/unit-Block-B2/home/192379025,IMLS,98922938,N,Y,43.6260541,-116.3214867
MLS Listing,,Townhouse,2327 N Shaelyn Ln Unit Block B1,Boise,ID,83713-5542,485000,3,2.5,Atrium Heights Subdivision,1718,1742,2024,13,282,,Active,,,https://www.redfin.com/ID/Boise/2327-N-Shaelyn-Ln-83713/unit-Block-B1/home/192379024,IMLS,98922937,N,Y,43.6260541,-116.3214867
MLS Listing,,Townhouse,2299 N Shaelyn Ln Unit Block A4,Boise,ID,83713-5541,485000,3,2.5,Atrium Heights Subdivision,1717,1742,2024,13,282,,Active,,,https://www.redfin.com/ID/Boise/2299-N-Shaelyn-Ln-83713/unit-Block-A4/home/192378947,IMLS,98922936,N,Y,43.6260541,-116.3214867
MLS Listing,,Townhouse,2285 N Shaelyn Ln Unit Block A2,Boise,ID,83713-5541,475000,3,2.5,Atrium Heights Subdivision,1710,1742,2024,13,278,,Active,,,https://www.redfin.com/ID/Boise/2285-N-Shaelyn-Ln-83713/unit-Block-A2/home/192378919,IMLS,98922934,N,Y,43.6260541,-116.3214867
MLS Listing,,Townhouse,2281 N Shaelyn Ln Unit Block A1,Boise,ID,83713-5541,485000,3,2.5,Atrium Heights Subdivision,1716,1742,2024,13,283,,Active,,,https://www.redfin.com/ID/Boise/2281-N-Shaelyn-Ln-83713/unit-Block-A1/home/192378884,IMLS,98922932,N,Y,43.6260541,-116.3214867
MLS Listing,,Townhouse,2293 N Shaelyn Ln Unit Block A3,Boise,ID,83713-5541,475000,3,2.5,Atrium Heights Subdivision,1710,1742,2024,13,278,,Active,,,https://www.redfin.com/ID/Boise/2293-N-Shaelyn-Ln-83713/unit-Block-A3/home/192378881,IMLS,98922935,N,Y,43.6260541,-116.3214867
MLS Listing,,Single Family Residential,4728 N Draft Ave,Boise,ID,83713,429900,3,2.0,Mahogany Park,1550,7230,1998,13,277,26,Active,,,https://www.redfin.com/ID/Boise/4728-N-Draft-Ave-83713/home/106729769,IMLS,98922921,N,Y,43.6476618,-116.3506092
MLS Listing,,Single Family Residential,2155 N Fairmeadow Dr,Boise,ID,83704-4815,560000,5,2.5,Fairmont Park S,2532,8276,1970,13,221,,Active,,,https://www.redfin.com/ID/Boise/2155-N-Fairmeadow-Dr-83704/home/106661221,IMLS,98922919,N,Y,43.6243502,-116.2926162
MLS Listing,,Single Family Residential,10709 W Cruser Dr,Boise,ID,83709,389999,3,1.0,R & V Sub,1190,15681,1961,13,328,,Active,,,https://www.redfin.com/ID/Boise/10709-W-Cruser-Dr-83709/home/106760370,IMLS,98921697,N,Y,43.6034295,-116.3157903
MLS Listing,,Single Family Residential,920 S Roosevelt St,Boise,ID,83705,674900,3,2.5,Boise Bench - 0400,1934,5662,2024,13,349,,Active,September-21-2024 11:30 AM,September-21-2024 02:00 PM,https://www.redfin.com/ID/Boise/920-S-Roosevelt-St-83705/home/109560565,IMLS,98921889,N,Y,43.595506,-116.233223
MLS Listing,,Single Family Residential,3034 S Jupiter Ave,Boise,ID,83709-4200,485000,3,2.5,Boise South - 0500,2027,10890,2004,13,239,21,Active,,,https://www.redfin.com/ID/Boise/3034-S-Jupiter-Ave-83709/home/106655664,IMLS,98922910,N,Y,43.5752017,-116.2801037
MLS Listing,,Vacant Land,7873 S Cole Rd,Boise,ID,83709,5750000,,,Boise SW-Meridian - 0550,,1008414,,13,,,Active,,,https://www.redfin.com/ID/Boise/7873-S-Cole-Rd-83709/home/106657636,IMLS,98922902,N,Y,43.5299889,-116.274275
MLS Listing,,Single Family Residential,10203 W Mossy Cup St,Boise,ID,83709,479900,3,2.0,Charleston Plac,1516,8015,1999,13,317,20,Active,,,https://www.redfin.com/ID/Boise/10203-W-Mossy-Cup-St-83709/home/106730327,IMLS,98922899,N,Y,43.5775908,-116.3093469
MLS Listing,,Single Family Residential,7255 W Diamond St,Boise,ID,83709-0000,1150000,4,3.0,Sorenson A T,3084,43560,1971,13,373,,Active,,,https://www.redfin.com/ID/Boise/7255-W-Diamond-St-83709/home/106778707,IMLS,98922898,N,Y,43.5694004,-116.2721138
MLS Listing,,Multi-Family (2-4 Unit),4856/4858 W Bethel,Boise,ID,83706,515500,4,2.0,Elmwood Place,1600,,1975,13,322,,Active,,,https://www.redfin.com/ID/Boise/4856-W-Bethel-St-83706/home/106664044,IMLS,98922894,N,Y,43.606393,-116.241686
MLS Listing,,Single Family Residential,2949 E Wildernest Ln,Boise,ID,83706,2500000,4,4.5,Nature Woodduck,4306,22259,2007,13,581,173,Active,,,https://www.redfin.com/ID/Boise/2949-E-Wildernest-Ln-83706/home/106740105,IMLS,98922885,N,Y,43.5715198,-116.1480272
MLS Listing,,Single Family Residential,4135 N Hawkeye Pl,Boise,ID,83703,2485000,4,4.5,Eyrie Canyon,3980,22651,2022,13,624,33,Active,September-21-2024 12:00 PM,September-21-2024 03:00 PM,https://www.redfin.com/ID/Boise/4135-Hawkeye-Pl-83703/home/146240380,IMLS,98922882,N,Y,43.6568443,-116.21107
MLS Listing,,Single Family Residential,1991 S Doe Creek Way,Boise,ID,83709,715000,5,3.0,Southpoint Sub,3018,9278,2001,13,237,28,Active,,,https://www.redfin.com/ID/Boise/1991-S-Doe-Creek-Way-83709/home/106698813,IMLS,98922881,N,Y,43.585414,-116.3200843
MLS Listing,,Single Family Residential,12398 W Lewis And Clark Dr,Boise,ID,83713,812900,6,3.0,Lewis And Clark,3544,21780,1969,13,229,,Active,,,https://www.redfin.com/ID/Boise/12398-W-Lewis-and-Clark-Dr-83713/home/106745757,IMLS,98922879,N,Y,43.6356762,-116.3368547
MLS Listing,,Single Family Residential,514 W Williams St,Boise,ID,83706,389000,2,1.0,Londoners Sub,578,3049,1938,13,673,,Active,,,https://www.redfin.com/ID/Boise/514-W-Williams-St-83706/home/106662804,IMLS,98922877,N,Y,43.590853,-116.188026
MLS Listing,,Single Family Residential,1116 N 15th St,Boise,ID,83702,1165000,4,3.0,Lemps Add,2516,6098,1936,13,463,,Active,,,https://www.redfin.com/ID/Boise/1116-N-15th-St-83702/home/106649812,IMLS,98922172,N,Y,43.6281002,-116.2055367
MLS Listing,,Single Family Residential,2529 E Mendota Dr,Boise,ID,83716,525000,4,2.0,Cove East,1863,7840,1992,13,282,18,Active,,,https://www.redfin.com/ID/Boise/2529-E-Mendota-Dr-83716/home/106724303,IMLS,98922874,N,Y,43.5557398,-116.1519271
MLS Listing,,Single Family Residential,4857 S Whitmore Way,Boise,ID,83709,475000,4,2.5,Wildbrook,1695,6098,2003,13,280,37,Active,,,https://www.redfin.com/ID/Boise/4857-S-Whitmore-Way-83709/home/106686416,IMLS,98922871,N,Y,43.5586581,-116.3302512
MLS Listing,,Condo/Co-op,6837 W Colehaven Ln #18,Boise,ID,83704,239900,1,1.0,Allumbaugh Cond,663,,1983,13,362,187,Active,,,https://www.redfin.com/ID/Boise/6837-W-Colehaven-Ln-83704/unit-18/home/192372772,IMLS,98922867,N,Y,43.6168926,-116.2665432
MLS Listing,,Single Family Residential,111 E Crestline Dr,Boise,ID,83702-3023,1795000,4,3.5,Boise Heights,3292,33105,1950,13,545,,Active,September-22-2024 01:00 PM,September-22-2024 04:00 PM,https://www.redfin.com/ID/Boise/111-E-Crestline-Dr-83702/home/106679137,IMLS,98922862,N,Y,43.6311579,-116.187205
MLS Listing,,Vacant Land,718 S Roosevelt St,Boise,ID,83705,549900,,,State Sub,,21780,,13,,,Active,,,https://www.redfin.com/ID/Boise/718-S-Roosevelt-St-83705/home/106669920,IMLS,98922863,N,Y,43.597241,-116.2329939
MLS Listing,,Single Family Residential,3269 S Capistrano Ave,Boise,ID,83705,424900,3,2.0,Dublin Estates,1340,6098,2005,13,317,15,Active,,,https://www.redfin.com/ID/Boise/3269-S-Capistrano-Ave-83705/home/106672806,IMLS,98922864,N,Y,43.5727638,-116.1987473
MLS Listing,,Condo/Co-op,200 N 3rd St #806,Boise,ID,83702,399900,1,1.0,Imperial Plaza,728,,1964,13,549,408,Active,,,https://www.redfin.com/ID/Boise/200-N-3rd-St-83702/unit-806/home/106684983,IMLS,98922860,N,Y,43.6135712,-116.1962679
MLS Listing,,Mobile/Manufactured Home,421 S Curtis Rd #12,Boise,ID,83705,375000,3,2.0,Senator,1880,,2007,13,199,,Active,,,https://www.redfin.com/ID/Boise/421-S-Curtis-Rd-83705/unit-12/home/192266776,IMLS,98922095,N,Y,43.6007133,-116.2539422
MLS Listing,,Single Family Residential,688 N 29th St,Boise,ID,83702,575000,3,2.5,Nietert Sub,1699,4181,2006,13,338,,Active,,,https://www.redfin.com/ID/Boise/688-N-29th-St-83702/home/106767078,IMLS,98922854,N,Y,43.6271072,-116.2265295
MLS Listing,,Condo/Co-op,851 W Front St #704,Boise,ID,83702,449990,1,1.0,The Aspen Lofts,568,,2009,13,792,284,Active,,,https://www.redfin.com/ID/Boise/851-W-Front-St-83702/unit-704/home/106649801,IMLS,98922244,N,Y,43.6142883,-116.2056505
MLS Listing,,Single Family Residential,9150 W Velma St,Boise,ID,83704-3271,439990,3,1.5,Meadow Place,1840,7840,1971,13,239,,Active,,,https://www.redfin.com/ID/Boise/9150-W-Velma-St-83704/home/106798607,IMLS,98922841,N,Y,43.6420098,-116.2962428
MLS Listing,,Townhouse,1118 S Abbey Cir,Boise,ID,83705,339900,2,2.0,Abbey,1170,1742,1972,14,291,150,Active,,,https://www.redfin.com/ID/Boise/1118-S-Abbey-Cir-83705/home/106730087,IMLS,98922836,N,Y,43.5939784,-116.2357395
MLS Listing,,Single Family Residential,33 Wild Rose Ln,Boise,ID,83716,775000,5,2.0,East Boise County - 1450,2321,188614,1970,14,334,,Active,,,https://www.redfin.com/ID/Boise/33-Wildrose-Ln-83716/home/115226320,IMLS,98922834,N,Y,43.654003,-116.028088
MLS Listing,,Single Family Residential,6054 W Grandview Dr,Boise,ID,83709-3119,400000,3,2.0,Owyhee View Sub,1476,9583,1972,14,271,,Active,,,https://www.redfin.com/ID/Boise/6054-W-Grandview-Dr-83709/home/106791530,IMLS,98922829,N,Y,43.5838362,-116.2567745
MLS Listing,,Single Family Residential,6333 W Hollilynn Dr,Boise,ID,83709,1725000,5,3.0,Boise South - 0500,4390,217800,1990,14,393,,Active,,,https://www.redfin.com/ID/Boise/6333-W-Hollilynn-Dr-83709/home/106793558,IMLS,98922824,N,Y,43.521883,-116.2633354
MLS Listing,,Single Family Residential,5700 N Lynwood Pl,Boise,ID,83706,650000,3,2.0,Cruzen Mtn View,1518,17946,1950,14,428,,Active,,,https://www.redfin.com/ID/Boise/5700-N-Lynwood-Pl-83706/home/106701761,IMLS,98921937,N,Y,43.62612,-116.252121
MLS Listing,,Townhouse,622 N Avenue H,Boise,ID,83712,798900,3,3.5,Armory Avenue Subdivision,2085,1393,2024,14,383,100,Active,September-21-2024 02:00 PM,September-21-2024 04:00 PM,https://www.redfin.com/ID/Boise/622-N-Avenue-H-Ave-83712/home/186478868,IMLS,98922799,N,Y,43.614076,-116.183195
MLS Listing,,Single Family Residential,1410 E Holly St,Boise,ID,83712,1398000,3,2.5,Wayne Add,2732,6534,2001,14,512,,Active,,,https://www.redfin.com/ID/Boise/1410-E-Holly-St-83712/home/106705211,IMLS,98922789,N,Y,43.6031263,-116.179975
MLS Listing,,Mobile/Manufactured Home,502 E 40th St #3,Garden City,ID,83714,64900,2,1.0,Fairview Acres,924,,1977,15,70,510,Active,,,https://www.redfin.com/ID/Garden-City/502-E-40th-St-83714/unit-3/home/192351400,IMLS,98922705,N,Y,43.6331622,-116.2421164
MLS Listing,,Multi-Family (2-4 Unit),2766 & 2768 Siesta Ln,Boise,ID,83704,459900,4,2.0,SIESTA PARK,1800,12196,1974,15,256,,Active,,,https://www.redfin.com/ID/Boise/2766-N-Siesta-Ln-83704/home/106670188,IMLS,98922684,N,Y,43.630162,-116.306933
MLS Listing,,Vacant Land,7614 Pierce Park,Boise,ID,83714,7000000,,,Boise NW - 0800,,3924320,,15,,,Active,,,https://www.redfin.com/ID/Boise/7614-N-Pierce-Park-Ln-83714/home/190722762,IMLS,98922632,N,Y,43.6804959,-116.258758
MLS Listing,,Single Family Residential,5983 Ensign,Garden City,ID,83713,425000,3,2.0,Marigold Park,1288,9147,1979,15,330,,Active,,,https://www.redfin.com/ID/Garden-City/5983-Ensign-83713/home/173819362,IMLS,98922625,N,Y,43.6361475,-116.3287866
MLS Listing,,Townhouse,7545 W Iron Dr,Boise,ID,83704,377500,2,2.0,Solano Place,1022,3484,1998,15,369,93,Active,,,https://www.redfin.com/ID/Boise/7545-W-Iron-Dr-83704/home/106668177,IMLS,98922620,N,Y,43.6376808,-116.2759848
MLS Listing,,Single Family Residential,6410 W Post St,Boise,ID,83704,449900,3,2.5,Lambertons Add,1719,3789,2016,15,262,,Active,,,https://www.redfin.com/ID/Boise/6410-W-Post-St-83704/home/109557589,IMLS,98921401,N,Y,43.6228472,-116.261328
MLS Listing,,Condo/Co-op,8875 W Irving St Unit Condo 201,Boise,ID,83704,239900,2,2.0,Darcy Cove Cond,852,,1996,15,282,254,Active,September-22-2024 02:00 PM,September-22-2024 04:00 PM,https://www.redfin.com/ID/Boise/8875-W-Irving-St-83704/unit-201/home/106660581,IMLS,98922607,N,Y,43.6156518,-116.2926413
MLS Listing,,Condo/Co-op,5229 W Morris Hl,Boise,ID,83706,425000,3,2.5,Artisan Point,1470,,2007,16,289,120,Active,,,https://www.redfin.com/ID/Boise/5229-W-Morris-Hill-Rd-83706/home/106698854,IMLS,98922603,N,Y,43.607221,-116.2468304
MLS Listing,,Single Family Residential,3202 W Forsythia Dr,Boise,ID,83703,849000,5,2.5,Forsythia Place,2440,6969,2020,16,348,70,Active,,,https://www.redfin.com/ID/Boise/3202-W-Forsythia-Dr-83703/home/168212970,IMLS,98922599,N,Y,43.6522426,-116.2289535
MLS Listing,,Single Family Residential,4920 W Hillside Ave,Boise,ID,83703,1299000,4,3.0,Garden City - 0700,2464,21780,1969,16,527,,Active,,,https://www.redfin.com/ID/Boise/4920-W-Hillside-Ave-83703/home/106762678,IMLS,98922598,N,Y,43.6678185,-116.2505671
MLS Listing,,Single Family Residential,7007 W Sunnybrook Dr,Boise,ID,83709,392000,3,1.5,Randolph-Robert,1402,7840,1962,16,280,,Active,,,https://www.redfin.com/ID/Boise/7007-W-Sunnybrook-Dr-83709/home/106753745,IMLS,98920482,N,Y,43.5908946,-116.2691087
MLS Listing,,Single Family Residential,1795 E Seaside Ct,Boise,ID,83706,899000,4,3.0,Pier Pointe,2371,7405,1989,16,379,38,Active,,,https://www.redfin.com/ID/Boise/1795-E-Seaside-Ct-83706/home/106729921,IMLS,98922583,N,Y,43.577664,-116.1608775
MLS Listing,,Single Family Residential,5543 S Pepperridge,Boise,ID,83709,420000,4,2.5,Peppertree,2054,5227,2008,16,204,29,Active,,,https://www.redfin.com/ID/Boise/5543-S-Pepperridge-Way-83709/home/106714926,IMLS,98921563,N,Y,43.5526937,-116.3210654
MLS Listing,,Single Family Residential,4420 N Ginzel,Boise,ID,83703,849000,4,3.0,Boise North - 0100,3122,16988,1972,17,272,,Active,,,https://www.redfin.com/ID/Boise/4420-N-Ginzel-St-83703/home/106810521,IMLS,98922566,N,Y,43.6595252,-116.2368162
MLS Listing,,Single Family Residential,7870 W Settlers Ave,Boise,ID,83704,399900,3,2.0,Cambridge Estat,1498,6969,1946,17,267,,Active,,,https://www.redfin.com/ID/Boise/7870-W-Settlers-Ave-83704/home/106700450,IMLS,98922550,N,Y,43.630512,-116.280254
MLS Listing,,Single Family Residential,5561 N Marcliffe Ave,Boise,ID,83704,584500,3,2.0,Skyline Sub,1754,11325,1975,17,333,,Active,,,https://www.redfin.com/ID/Boise/5561-N-Marcliffe-Ave-83704/home/106730331,IMLS,98922549,N,Y,43.6554854,-116.3088144
MLS Listing,,Single Family Residential,3330 N Wagon Wheel,Boise,ID,83702,1390000,4,4.0,Highlands Unit,2850,10454,1958,17,488,,Active,,,https://www.redfin.com/ID/Boise/3330-N-Wagon-Wheel-Rd-83702/home/106666148,IMLS,98920188,N,Y,43.6492258,-116.1970647
MLS Listing,,Single Family Residential,4401 S Falconrest Way,Boise,ID,83716,499900,3,2.0,Silver Wood,1456,8712,1996,18,343,21,Active,,,https://www.redfin.com/ID/Boise/4401-S-Falconrest-Way-83716/home/106716702,IMLS,98921583,N,Y,43.5623775,-116.1567651
MLS Listing,,Townhouse,1675 W Burlison Ln,Boise,ID,83705,579800,3,2.5,Midtown Heights,1821,958,2024,18,318,167,Active,,,https://www.redfin.com/ID/Boise/1675-W-Burlison-Ln-83705/home/192217806,IMLS,98922524,N,Y,43.5877458,-116.2024527
MLS Listing,,Single Family Residential,6773 E Warm Springs Ave,Boise,ID,83716,829000,3,2.5,The Rim at East Valley,2568,6098,2019,18,323,54,Active,,,https://www.redfin.com/ID/Boise/6773-E-Warm-Springs-Ave-83716/home/146240322,IMLS,98922517,N,Y,43.5561731,-116.0989519
MLS Listing,,Single Family Residential,7794 S Cape View Way,Boise,ID,83709,584999,5,3.0,Charter Pointe,3635,8712,2017,18,161,54,Active,,,https://www.redfin.com/ID/Boise/7794-S-Cape-View-Way-83709/home/144545325,IMLS,98922513,N,Y,43.5322842,-116.2969317
MLS Listing,,Single Family Residential,9438 W Stonehill Ct,Boise,ID,83709,849900,3,3.0,Maple Hill,2695,11717,1979,18,315,,Active,,,https://www.redfin.com/ID/Boise/9438-W-Stonehill-Ct-83709/home/106797565,IMLS,98922507,N,Y,43.6046602,-116.2996523
MLS Listing,,Vacant Land,15 Rural Residential Sub Lot,Boise,ID,83716,185000,,,Valley Of The P,,898642,,18,,,Active,,,https://www.redfin.com/ID/Boise/15-Rural-Residential-Sub-Lot-Unknown/home/192311466,IMLS,98922495,N,Y,43.6150186,-116.2023137
MLS Listing,,Vacant Land,TBD Forestland,Boise,ID,83716,199000,,,Valley Of The P,,1525471,,18,,,Active,,,https://www.redfin.com/ID/Boise/TBD-Forestland-Unknown/home/192311462,IMLS,98922494,N,Y,43.6150186,-116.2023137
MLS Listing,,Single Family Residential,1711 N 31st St,Boise,ID,83703,549000,2,1.0,Cruzen Mtn View,1032,10018,1936,18,532,,Active,,,https://www.redfin.com/ID/Boise/1711-N-31st-St-83703/home/106812976,IMLS,98922492,N,Y,43.6360514,-116.2273639
MLS Listing,,Single Family Residential,2812 W Ona,Boise,ID,83705,489900,4,2.5,Herbert Sub,1990,4660,1999,19,246,,Active,,,https://www.redfin.com/ID/Boise/2812-W-Ona-St-83705/home/106791542,IMLS,98922484,N,Y,43.5833569,-116.2163185
MLS Listing,,Single Family Residential,7821 W Mcmullen,Boise,ID,83709,435000,5,2.0,Jackson Manor S,1760,8276,1969,19,247,,Active,September-21-2024 11:00 AM,September-21-2024 02:00 PM,https://www.redfin.com/ID/Boise/7821-W-McMullen-St-83709/home/106650694,IMLS,98922464,N,Y,43.5976713,-116.2795823
MLS Listing,,Townhouse,9608 W Sunflower Ln,Boise,ID,83704,365000,3,2.0,Sunflower Meado,1152,4356,1990,19,317,,Active,,,https://www.redfin.com/ID/Boise/9608-W-Sunflower-Ln-83704/home/106786923,IMLS,98922434,N,Y,43.6251178,-116.3018342
MLS Listing,,Single Family Residential,1428 S Euclid Ave,Boise,ID,83706,699900,3,2.5,Dundee,1702,3136,2021,19,411,,Active,,,https://www.redfin.com/ID/Boise/1428-S-Euclid-Ave-83706/home/175914038,IMLS,98922427,N,Y,43.5949206,-116.1970744
MLS Listing,,Single Family Residential,1424 S Euclid Ave,Boise,ID,83706,699900,3,2.5,Dundee,1702,3354,2021,19,411,,Active,,,https://www.redfin.com/ID/Boise/1424-S-Euclid-Ave-83706/home/175914037,IMLS,98922430,N,Y,43.5949917,-116.1970857
MLS Listing,,Mobile/Manufactured Home,10826 W Ardyce Ln,Boise,ID,83713,175000,3,2.0,Ponderosa Sub,1624,,2000,19,108,,Active,,,https://www.redfin.com/ID/Boise/10826-W-Ardyce-Ln-83713/home/192304116,IMLS,98922419,N,Y,43.630193,-116.318802
MLS Listing,,Single Family Residential,880 N River Path Ln,Boise,ID,83703,695900,3,2.5,Laney Green,1933,5009,2014,19,360,13,Active,,,https://www.redfin.com/ID/Boise/880-N-River-Path-Ln-83703/home/106777904,IMLS,98922421,N,Y,43.6448479,-116.2485754
MLS Listing,,Single Family Residential,1432 S Euclid Ave,Boise,ID,83706,699900,3,2.5,Dundee,1702,3136,2021,19,411,,Active,,,https://www.redfin.com/ID/Boise/1432-S-Euclid-Ave-83706/home/175914039,IMLS,98922414,N,Y,43.5948362,-116.1970851
MLS Listing,,Single Family Residential,2026 W Bedford Dr,Boise,ID,83705,425000,4,2.0,Kinley Sub,2000,8276,1962,19,213,,Active,,,https://www.redfin.com/ID/Boise/2026-W-Bedford-Dr-83705/home/106775145,IMLS,98921170,N,Y,43.575703,-116.207199
MLS Listing,,Mobile/Manufactured Home,9390 W Ustick Rd #18,Boise,ID,83704,239000,3,2.0,Aspen Creek,1512,,2019,19,158,,Active,,,https://www.redfin.com/ID/Boise/9390-W-Ustick-Rd-83704/unit-18/home/183670724,IMLS,98922347,N,Y,43.6362884,-116.2980453
MLS Listing,,Single Family Residential,3733 N 39th St,Boise,ID,83703-0000,899900,7,4.0,Walnut Grove,3819,29185,1977,19,236,,Active,,,https://www.redfin.com/ID/Boise/3733-N-39th-St-83703/home/106801043,IMLS,98922331,N,Y,43.654027,-116.2381383
MLS Listing,,Condo/Co-op,5170 S Surprise Way #205,Boise,ID,83716,519900,2,2.0,Pool Condo,1470,,2000,19,354,504,Active,,,https://www.redfin.com/ID/Boise/5170-S-Surprise-Way-83716/unit-205/home/106785039,IMLS,98922328,N,Y,43.5559132,-116.1223608
MLS Listing,,Single Family Residential,2221 W Pleasanton,Boise,ID,83702,750000,5,2.5,Fairview Add,1872,6098,1939,19,401,,Active,,,https://www.redfin.com/ID/Boise/2221-W-Pleasanton-Ave-83702/home/106740691,IMLS,98922326,N,Y,43.6261212,-116.2181205
MLS Listing,,Single Family Residential,12451 W Heatherhills,Boise,ID,83709,535000,4,2.5,Umpqua,2054,8145,2004,19,260,30,Active,,,https://www.redfin.com/ID/Boise/12451-W-Heather-Hills-St-83709/home/115252022,IMLS,98922324,N,Y,43.5386713,-116.3368793
MLS Listing,,Townhouse,1671 W Burlison Ln,Boise,ID,83705,599800,3,2.5,Midtown Heights,1821,958,2024,19,329,167,Active,,,https://www.redfin.com/ID/Boise/1671-W-Burlison-Ln-83705/home/192217803,IMLS,98922312,N,Y,43.5878487,-116.2024818
MLS Listing,,Townhouse,1679 W Burlison Ln,Boise,ID,83705,499800,2,2.5,Midtown Heights,1341,1001,2024,19,373,167,Active,,,https://www.redfin.com/ID/Boise/1679-W-Burlison-Ln-83705/home/192217847,IMLS,98922311,N,Y,43.5878208,-116.2025209
MLS Listing,,Single Family Residential,1499 E Pineridge,Boise,ID,83716,419000,3,2.0,Breckenridge Su,1180,6098,1990,19,355,8,Active,,,https://www.redfin.com/ID/Boise/1499-E-Pineridge-Dr-83716/home/106746458,IMLS,98921955,N,Y,43.5618622,-116.1648322
MLS Listing,,Single Family Residential,1523 E Seaside Ct,Boise,ID,83706,995900,4,3.0,Pier Pointe,2698,7840,1989,20,369,39,Active,,,https://www.redfin.com/ID/Boise/1523-E-Seaside-Ct-83706/home/106750093,IMLS,98922294,N,Y,43.5781068,-116.1642454
MLS Listing,,Single Family Residential,5792 E Marmount Ct,Boise,ID,83716,1999000,4,3.5,Harris North,3784,12501,2022,20,528,108,Active,,,https://www.redfin.com/ID/Boise/5792-E-Marmount-Ct-83716/home/175919829,IMLS,98922286,N,Y,43.5780875,-116.1167643
MLS Listing,,Single Family Residential,1321 N Owens St,Boise,ID,83704,450000,3,2.0,Colehaven Sub,2007,6969,1966,20,224,,Active,,,https://www.redfin.com/ID/Boise/1321-N-Owens-St-83704/home/106795532,IMLS,98922283,N,Y,43.6171497,-116.2789648
MLS Listing,,Ranch,"S Orchard Access Rd, Boise ID 83716 S Orchard Access Rd",Boise,ID,83716,189000,,,Boise South - 0500,,1742400,,20,,,Active,,,https://www.redfin.com/ID/Boise/S-Orchard-Access-Rd-Boise-ID-83716-S-Orchard-Access-RD-83716/home/192290193,IMLS,98922274,N,Y,43.6150186,-116.2023137
MLS Listing,,Single Family Residential,3500 E Fort Boise Ln,Boise,ID,83716,525000,4,2.5,Trailside Place,2146,5227,2005,20,245,35,Active,,,https://www.redfin.com/ID/Boise/3500-E-Fort-Boise-Ln-83716/home/106674788,IMLS,98922268,N,Y,43.5611353,-116.1401843
MLS Listing,,Single Family Residential,2709 S Inverness Way,Boise,ID,83705,624900,3,2.0,Country Club Manor,1735,8712,1958,20,360,,Active,,,https://www.redfin.com/ID/Boise/2709-S-Inverness-Way-83705/home/106682746,IMLS,98921576,N,Y,43.5772378,-116.2272218
MLS Listing,,Single Family Residential,1628 S Manitou Ave,Boise,ID,83706,465000,3,1.0,Dundee,1416,6098,1937,20,328,,Active,,,https://www.redfin.com/ID/Boise/1628-S-Manitou-Ave-83706/home/106663963,IMLS,98922258,N,Y,43.5921911,-116.1983446
MLS Listing,,Multi-Family (2-4 Unit),9954 - 9956 Utahna Rd,Boise,ID,83714,640000,4,4.0,Randall Acres S,2138,10018,2008,20,299,,Active,,,https://www.redfin.com/ID/Boise/9954-Utahna-Rd-83714/home/106657230,IMLS,98922257,N,Y,43.684639,-116.30734
MLS Listing,,Single Family Residential,12700 W Mardia St,Boise,ID,83709,639000,4,2.5,Rockhampton,2395,8407,2006,20,267,44,Active,,,https://www.redfin.com/ID/Boise/12700-W-Mardia-St-83709/home/106764706,IMLS,98922251,N,Y,43.5509204,-116.3401308
MLS Listing,,Single Family Residential,5454 N Paulson,Boise,ID,83704,550000,4,2.0,Skyline Sub,2376,10062,1974,20,231,,Active,,,https://www.redfin.com/ID/Boise/5454-N-Paulson-Pl-83704/home/106815154,IMLS,98922220,N,Y,43.6544295,-116.3049328
MLS Listing,,Townhouse,10664 W Springgold,Boise,ID,83709,325000,2,2.5,Charlesworth,1088,914,2022,20,299,70,Active,,,https://www.redfin.com/ID/Boise/10664-W-Springgold-Ln-83709/home/177822393,IMLS,98922217,N,Y,43.549372,-116.315264
MLS Listing,,Single Family Residential,6600 S Valley Hts,Boise,ID,83709,550000,3,2.0,Hidden Valley Estates,1527,17859,1974,20,360,,Active,,,https://www.redfin.com/ID/Boise/6600-S-Valley-Heights-Dr-83709/home/106701437,IMLS,98922216,N,Y,43.5430088,-116.3248593
MLS Listing,,Vacant Land,TBD High Corral Rd,Boise,ID,83716,295000,,,Osprey Boise County,,102366,,20,,38,Active,,,https://www.redfin.com/ID/Unknown/TBD-High-Corral-Rd-83716/home/177512462,IMLS,98922210,N,Y,43.7135454,-115.9388549
MLS Listing,,Single Family Residential,6800 W Corona St,Boise,ID,83709,495990,3,2.0,Locale,1694,5967,2024,20,293,100,Active,,,https://www.redfin.com/ID/Boise/6800-W-Corona-St-83709/home/192287188,IMLS,98922207,N,Y,43.5414568,-116.2660204
MLS Listing,,Single Family Residential,4627 N Berkshire Dr,Boise,ID,83704,559900,6,3.0,Sherwood Park West,2862,10890,1969,20,196,,Active,,,https://www.redfin.com/ID/Boise/4627-N-Berkshire-Dr-83704/home/106813313,IMLS,98922206,N,Y,43.6475508,-116.2876892
MLS Listing,,Single Family Residential,6922 S Cheyenne Ave,Boise,ID,83709,476990,3,2.5,Locale,1696,4181,2024,20,281,100,Active,,,https://www.redfin.com/ID/Boise/6922-S-Cheyenne-Ave-83709/home/192287187,IMLS,98922205,N,Y,43.5400144,-116.2677196
MLS Listing,,Single Family Residential,7644 W Stirrup Ave,Boise,ID,83709,659900,4,3.0,Sunset West Sub,2484,39204,1974,20,266,,Active,,,https://www.redfin.com/ID/Boise/7644-W-Stirrup-Ave-83709/home/106656382,IMLS,98922197,N,Y,43.54887,-116.276976
MLS Listing,,Single Family Residential,757 S Harding Pl,Boise,ID,83705,524900,5,3.5,Amaryllis,1844,6098,2001,20,285,,Active,,,https://www.redfin.com/ID/Boise/757-S-Harding-Pl-83705/home/106685851,IMLS,98922191,N,Y,43.5975325,-116.2377015
MLS Listing,,Mobile/Manufactured Home,3779 S Clacton Way,Boise,ID,83716-8704,235000,2,2.0,Golden Dawn Mob,1152,4791,1977,20,204,,Active,,,https://www.redfin.com/ID/Boise/3779-S-Clacton-Way-83716/home/106747978,IMLS,98922181,N,Y,43.5673424,-116.11629
MLS Listing,,Single Family Residential,1962 Danmor Dr,Boise,ID,83712,775000,3,2.0,Foothills East,2609,10018,2004,20,297,,Active,,,https://www.redfin.com/ID/Boise/1962-E-Danmor-Dr-83712/home/106702162,IMLS,98922178,N,Y,43.614159,-116.166478
MLS Listing,,Townhouse,3243 W Moore St,Boise,ID,83702,835000,3,3.5,Whitewater Townhomes,1928,1393,2025,20,433,150,Active,,,https://www.redfin.com/ID/Boise/3243-W-Moore-St-83702/home/192285228,IMLS,98922174,N,Y,43.6314194,-116.2303425
MLS Listing,,Single Family Residential,11732 W Puritan Dr,Boise,ID,83709-7765,549000,4,3.0,Pilgrim Cove,1858,10454,1994,20,295,25,Active,,,https://www.redfin.com/ID/Boise/11732-W-Puritan-Dr-83709/home/106666145,IMLS,98921790,N,Y,43.6040933,-116.3284329
MLS Listing,,Single Family Residential,3070 S Virginia Ave,Boise,ID,83705,405000,3,1.0,Virginia Subdivision,1008,7405,1977,20,402,,Active,,,https://www.redfin.com/ID/Boise/3070-S-Virginia-Ave-83705/home/106670590,IMLS,98922162,N,Y,43.5745737,-116.2020358
MLS Listing,,Townhouse,3249 W Moore St,Boise,ID,83702,825000,3,3.5,Whitewater Townhomes,1928,1176,2025,20,428,150,Active,,,https://www.redfin.com/ID/Boise/3249-W-Moore-St-83702/home/192283087,IMLS,98922163,N,Y,43.6314194,-116.2303425
MLS Listing,,Single Family Residential,5107 W Malad,Boise,ID,83705,405000,3,1.0,Boise Bench - 0400,1250,6534,1958,20,324,,Active,September-21-2024 11:00 AM,September-21-2024 01:00 PM,https://www.redfin.com/ID/Boise/5107-W-Malad-St-83705/home/106658944,IMLS,98922152,N,Y,43.5787435,-116.2450316
MLS Listing,,Single Family Residential,1521 S Chase St,Boise,ID,83709,448900,2,2.0,Boise South - 0500,1030,3310,2021,20,436,33,Active,,,https://www.redfin.com/ID/Boise/1521-S-Chase-St-83709/home/175907348,IMLS,98922147,N,Y,43.5910837,-116.2912047
MLS Listing,,Single Family Residential,4107 W Normandie Dr,Boise,ID,83705,459900,4,2.0,Country Club Manor,1998,8712,1959,20,230,,Active,,,https://www.redfin.com/ID/Boise/4107-W-Normandie-Dr-83705/home/106726009,IMLS,98922144,N,Y,43.573772,-116.232602
MLS Listing,,Single Family Residential,5918 N Lilybrook Pl,Boise,ID,83713,799999,6,4.0,Hobble Creek,3495,18295,1997,21,229,35,Active,,,https://www.redfin.com/ID/Boise/5918-N-Lilybrook-Pl-83713/home/106675186,IMLS,98922038,N,Y,43.6587174,-116.3497547
MLS Listing,,Single Family Residential,5 Seybold Ln,Boise,ID,83716,475000,4,2.0,Horseshoe Bend - Idaho City - 1400,2050,128937,1998,21,232,,Active,,,https://www.redfin.com/ID/Boise/5-Seybold-Ln-83716/home/115254163,IMLS,98922130,N,Y,43.7832019,-115.9921734
MLS Listing,,Single Family Residential,10355 W Seneca Dr,Boise,ID,83709,515000,4,2.0,Knoll Acres Sub,1729,12196,1974,21,298,,Active,,,https://www.redfin.com/ID/Boise/10355-W-Seneca-Dr-83709/home/106799230,IMLS,98922118,N,Y,43.5686945,-116.3118547
MLS Listing,,Single Family Residential,3396 E Anemone Ct,Boise,ID,83716-6847,420000,3,2.0,Columbia Villag,1125,6969,1991,21,373,47,Active,,,https://www.redfin.com/ID/Boise/3396-E-Anemone-Ct-83716/home/106717512,IMLS,98921562,N,Y,43.5525041,-116.1417231
MLS Listing,,Multi-Family (2-4 Unit),4809 W Targee St,Boise,ID,83705,869000,8,4.0,Country Acres,3648,9583,1974,21,238,,Active,,,https://www.redfin.com/ID/Boise/4809-W-Targee-St-83705/home/106681386,IMLS,98921417,N,Y,43.5823614,-116.2418443
MLS Listing,,Vacant Land,1733 S Toluka Way,Boise,ID,83712,694900,,,Boulder Heights,,21344,,21,,63,Active,,,https://www.redfin.com/ID/Boise/1733-S-Toluka-Way-83712/home/106765254,IMLS,98922071,N,Y,43.588146,-116.152705
MLS Listing,,Single Family Residential,370 S Sun Burst Way,Boise,ID,83709-0661,435000,3,2.0,Walnut Ridge,1500,7840,1980,21,290,,Active,,,https://www.redfin.com/ID/Boise/370-S-Sun-Burst-Way-83709/home/106669279,IMLS,98922068,N,Y,43.6012456,-116.2893626
MLS Listing,,Mobile/Manufactured Home,453 Greenleaf St,Boise,ID,83713,55900,2,2.0,Rustic Acres,924,,1980,22,60,,Active,,,https://www.redfin.com/ID/Boise/453-Greenleaf-St-83713/home/192256635,IMLS,98922018,N,Y,43.6137081,-116.3206918
MLS Listing,,Single Family Residential,1404 S Newell St,Boise,ID,83705,379900,2,1.0,Boise Bench - 0400,788,5662,1950,22,482,,Active,,,https://www.redfin.com/ID/Boise/1404-S-Newell-St-83705/home/106765014,IMLS,98919506,N,Y,43.5913328,-116.2389542
MLS Listing,,Single Family Residential,1545 S Trent Point Way,Boise,ID,83712,1967000,4,3.5,Boulder Point,3555,14766,2024,22,553,83,Active,,,https://www.redfin.com/ID/Boise/1545-S-Trent-Point-Way-83712/home/175903218,IMLS,98922011,N,Y,43.588069,-116.141548
MLS Listing,,Single Family Residential,5120 S Tindaris Ln,Meridian,ID,83642,545000,2,2.0,Century Farm,1590,4094,2024,22,343,217,Active,,,https://www.redfin.com/ID/Meridian/5120-S-Tindaris-Ln-83642/home/181150361,IMLS,98922004,N,Y,43.5587329,-116.351585
MLS Listing,,Townhouse,5007 S Palatino Ln,Meridian,ID,83642,627000,2,2.5,Century Farm,2085,5401,2024,22,301,217,Active,,,https://www.redfin.com/ID/Meridian/5007-S-Palatino-Ln-83642/home/181150302,IMLS,98922003,N,Y,43.5593869,-116.3538273
MLS Listing,,Townhouse,5023 S Palatino Ln,Meridian,ID,83642,632700,2,2.5,Century Farm,2080,5401,2024,22,304,217,Active,,,https://www.redfin.com/ID/Meridian/5023-S-Palatino-Ln-83642/home/181150303,IMLS,98922000,N,Y,43.5592414,-116.3538354
MLS Listing,,Mobile/Manufactured Home,657 Silver City Dr,Boise,ID,83713,169900,4,2.0,Rustic Acres,1782,,1988,22,95,,Active,,,https://www.redfin.com/ID/Boise/657-Silver-City-Dr-83713/home/145179971,IMLS,98921997,N,Y,43.6156262,-116.323296
MLS Listing,,Single Family Residential,22 N Corral Flat Rd,Boise,ID,83716,775000,4,3.0,Mores Creek Hts,2189,104544,2022,22,354,33,Active,,,https://www.redfin.com/ID/Boise/22-N-Corral-Flat-Rd-83716/home/192255358,IMLS,98921990,N,Y,43.71196,-115.947171
MLS Listing,,Single Family Residential,10512 W Martingale Dr,Boise,ID,83709,535000,3,2.0,Country Estates,1599,51313,1973,22,335,,Active,,,https://www.redfin.com/ID/Boise/10512-W-Martingale-Dr-83709/home/106681512,IMLS,98921970,N,Y,43.596697,-116.313604
MLS Listing,,Single Family Residential,11803 W Jenilyn Ct,Boise,ID,83713-1795,400000,3,2.0,Demeyer Estates,1480,8276,1985,23,270,,Active,,,https://www.redfin.com/ID/Boise/11803-W-Jenilyn-Ct-83713/home/106662277,IMLS,98921946,N,Y,43.6541118,-116.3294022
MLS Listing,,Condo/Co-op,5134 S Surprise Way #206,Boise,ID,83716,429900,2,2.0,Pool Condo,1035,871,1998,23,415,340,Active,,,https://www.redfin.com/ID/Boise/5134-S-Surprise-Way-83716/unit-206/home/106722925,IMLS,98921895,N,Y,43.5566667,-116.1232114
MLS Listing,,Condo/Co-op,3323 N Lakeharbor Ln #104,Boise,ID,83703,299900,2,2.0,Goosecreek Condos,878,,2004,23,342,207,Active,,,https://www.redfin.com/ID/Boise/3323-N-Lakeharbor-Ln-83703/unit-104/home/106676837,IMLS,98921879,N,Y,43.6510479,-116.2516627
MLS Listing,,Vacant Land,4540 S Fenny Ln,Boise,ID,83709,335000,,,Hardrock,,11761,,23,,,Active,,,https://www.redfin.com/ID/Boise/4540-S-Fenny-Ln-83709/home/106724586,IMLS,98921866,N,Y,43.561765,-116.266161
MLS Listing,,Timeshare,834 E Curling Dr,Boise,ID,83702,1049000,4,4.0,Curling Cove,3627,3920,1979,24,289,250,Active,,,https://www.redfin.com/ID/Boise/834-E-Curling-Dr-83702/home/106744873,IMLS,98921839,N,Y,43.648348,-116.179571
MLS Listing,,Vacant Land,6846 W Amity,Boise,ID,83709,235000,,,Hardrock,,8712,,25,,,Active,,,https://www.redfin.com/ID/Boise/6846-W-Amity-Rd-83709/home/106678526,IMLS,98921803,N,Y,43.561207,-116.267185
MLS Listing,,Townhouse,9177 W Brogan Dr,Boise,ID,83709,350000,2,2.0,Charter Pointe,980,,2009,25,357,146,Active,,,https://www.redfin.com/ID/Boise/9177-W-Brogan-Dr-83709/home/106678948,IMLS,98921801,N,Y,43.5421764,-116.294895
MLS Listing,,Condo/Co-op,548 E Pennsylvania,Boise,ID,83706,299900,2,1.5,Boardwalk Condo,924,,1989,26,325,125,Active,,,https://www.redfin.com/ID/Boise/548-E-Pennsylvania-St-83706/home/106754533,IMLS,98921791,N,Y,43.5866888,-116.176448
MLS Listing,,Single Family Residential,11036 W Peconic Dr,Boise,ID,83709,534900,3,2.5,Five Mile Estat,1737,18120,1977,26,308,,Active,,,https://www.redfin.com/ID/Boise/11036-W-Peconic-Dr-83709/home/106726574,IMLS,98921782,N,Y,43.575924,-116.319468
MLS Listing,,Single Family Residential,9190 W Velma,Boise,ID,83704,379900,4,2.0,Meadow Place,1352,7840,1971,26,281,,Active,,,https://www.redfin.com/ID/Boise/9190-W-Velma-St-83704/home/106798986,IMLS,98921743,N,Y,43.642023,-116.2964957
MLS Listing,,Single Family Residential,915 N Carmen Ave,Boise,ID,83704-9779,415900,3,2.0,HenkelS Mitche,1417,7405,1991,26,294,,Active,,,https://www.redfin.com/ID/Boise/915-N-Carmen-Ave-83704/home/106791236,IMLS,98921738,N,Y,43.6132136,-116.3024488
MLS Listing,,Single Family Residential,1066 E Hearthstone Dr,Boise,ID,83702,1250000,5,3.5,Highlands Unit,3408,14461,1979,26,367,,Active,,,https://www.redfin.com/ID/Boise/1066-E-Hearthstone-Dr-83702/home/106743657,IMLS,98921729,N,Y,43.6560868,-116.1772905
MLS Listing,,Single Family Residential,11541 W Baserri Dr,Boise,ID,83709,439900,3,2.0,Aralar Park,1574,6969,2016,26,279,55,Active,,,https://www.redfin.com/ID/Boise/11541-W-Baserri-Dr-83709/home/109557334,IMLS,98921680,N,Y,43.5910069,-116.3262191
MLS Listing,,Single Family Residential,11732 W Raul,Boise,ID,83709,699900,4,3.0,Carmichael Sub,3090,8712,2005,26,227,28,Active,September-21-2024 11:00 AM,September-21-2024 02:00 PM,https://www.redfin.com/ID/Boise/11732-W-Raul-St-83709/home/106781617,IMLS,98921678,N,Y,43.5289535,-116.3283914
MLS Listing,,Condo/Co-op,1620 W Bannock St #402,Boise,ID,83702,779900,2,2.0,Mccartys Sub,1214,,2023,26,642,330,Active,September-21-2024 12:00 PM,September-21-2024 02:00 PM,https://www.redfin.com/ID/Boise/1620-W-Bannock-St-83702/unit-402/home/186232206,IMLS,98921665,N,Y,43.6225855,-116.2121687
MLS Listing,,Single Family Residential,9863 W Rustica St,Boise,ID,83709,389900,3,2.0,Devonshire,1306,348,2013,26,299,33,Active,,,https://www.redfin.com/ID/Boise/9863-W-Rustica-St-83709/home/106682046,IMLS,98921662,N,Y,43.5423509,-116.3052213
MLS Listing,,Single Family Residential,10325 W Mossy Cup,Boise,ID,83709,439900,3,2.0,Charleston Vill,1431,8145,1998,26,307,25,Active,,,https://www.redfin.com/ID/Boise/10325-W-Mossy-Cup-St-83709/home/106707851,IMLS,98921657,N,Y,43.5775755,-116.3105738
MLS Listing,,Single Family Residential,1712 S Pomander Rd,Boise,ID,83705,459000,4,2.0,Eagleson Park A,1669,8712,1947,26,275,,Active,,,https://www.redfin.com/ID/Boise/1712-S-Pomander-Rd-83705/home/106781880,IMLS,98920594,N,Y,43.5881106,-116.2196075
MLS Listing,,Single Family Residential,9770 W Appling Dr,Boise,ID,83704,444000,3,2.0,West Capital Ma,1522,12196,1979,26,292,,Active,,,https://www.redfin.com/ID/Boise/9770-W-Appling-Dr-83704/home/106670173,IMLS,98921640,N,Y,43.6386522,-116.3038274
MLS Listing,,Single Family Residential,2714 W Jefferson St,Boise,ID,83703,550000,2,2.0,West Side,1333,6098,1910,26,413,,Active,,,https://www.redfin.com/ID/Boise/2714-W-Jefferson-St-83702/home/106671708,IMLS,98921635,N,Y,43.6247691,-116.2250876
MLS Listing,,Single Family Residential,1935 Danmor Dr,Boise,ID,83712-6610,825000,4,3.0,Foothills East,2248,11761,1983,27,367,,Active,September-21-2024 01:00 PM,September-21-2024 04:00 PM,https://www.redfin.com/ID/Boise/1935-E-Danmor-Dr-83712/home/106734183,IMLS,98920128,N,Y,43.613688,-116.166928
MLS Listing,,Single Family Residential,6266 N Royal Park Ave,Boise,ID,83713,579000,4,3.0,Bristol Heights,2520,6577,2000,27,230,60,Active,,,https://www.redfin.com/ID/Boise/6266-N-Royal-Park-Ave-83713/home/106764630,IMLS,98921632,N,Y,43.6617973,-116.3608879
MLS Listing,,Single Family Residential,2323 W Hill Rd,Boise,ID,83702,699000,4,2.0,Boise North - 0100,1905,8276,1970,27,367,,Active,,,https://www.redfin.com/ID/Boise/2323-W-Hill-Rd-83702/home/106671588,IMLS,98921619,N,Y,43.6448732,-116.2170862
MLS Listing,,Single Family Residential,5742 E Millet Dr,Boise,ID,83716,844900,3,3.0,Triplett Ranch,2688,11761,2014,27,314,167,Active,,,https://www.redfin.com/ID/Boise/5742-E-Millet-Dr-83716/home/106725961,IMLS,98921616,N,Y,43.5709864,-116.1122973
MLS Listing,,Single Family Residential,2316 W Ona St,Boise,ID,83705,425000,3,2.0,Hale Sub Add,1152,5662,1976,27,369,,Active,,,https://www.redfin.com/ID/Boise/2316-W-Ona-St-83705/home/106786241,IMLS,98921608,N,Y,43.5835291,-116.2107181
MLS Listing,,Single Family Residential,9905 W Granger Ave,Boise,ID,83704,410000,4,2.0,Mitchell Manor,1748,8712,1915,27,235,,Active,,,https://www.redfin.com/ID/Boise/9905-W-Granger-Ave-83704/home/106756035,IMLS,98921607,N,Y,43.628267,-116.305556
MLS Listing,,Single Family Residential,11045 W Hazelwood Dr,Boise,ID,83709,519000,4,3.0,Hazelwood,2222,6054,2006,27,234,37,Active,,,https://www.redfin.com/ID/Boise/11045-W-Hazelwood-Dr-83709/home/106764985,IMLS,98921600,N,Y,43.5480053,-116.3200104
MLS Listing,,Single Family Residential,8703 W Vincent St,Boise,ID,83709,899900,3,2.5,Vincent,1934,49092,2000,27,465,,Active,,,https://www.redfin.com/ID/Boise/8703-W-Vincent-St-83709/home/106677604,IMLS,98921594,N,Y,43.5880292,-116.2905194
MLS Listing,,Mobile/Manufactured Home,397 Silver City Dr,Boise,ID,83713,169900,3,2.0,West Meadow Estates,1680,,1976,27,101,,Active,,,https://www.redfin.com/ID/Boise/397-Silver-City-Dr-83713/home/192186211,IMLS,98921580,N,Y,43.6143727,-116.3169364
MLS Listing,,Single Family Residential,3510 S Pimmit Pl,Boise,ID,83706,649900,3,2.0,Lakewood,1921,10018,1988,27,338,32,Active,,,https://www.redfin.com/ID/Boise/3510-S-Pimmit-Pl-83706/home/106743143,IMLS,98921573,N,Y,43.5702261,-116.1737672
MLS Listing,,Vacant Land,4610 N Accipiter,Boise,ID,83703,450000,,,Eyrie Canyon,,16291,,27,,46,Active,,,https://www.redfin.com/ID/Boise/4610-N-Accipiter-Way-83703/home/189759079,IMLS,98921547,N,Y,43.660561,-116.213708
MLS Listing,,Multi-Family (2-4 Unit),3834-3836 S Gulley Ave,Boise,ID,83709,449900,6,3.5,Knoll Acres Sub,2328,12196,1978,27,193,,Active,,,https://www.redfin.com/ID/Boise/3834-S-Gulley-Ave-83709/home/106790943,IMLS,98921545,N,Y,43.5693237,-116.3106192
MLS Listing,,Vacant Land,868 N 31st,Boise,ID,83702,245000,,,FRANK DAVIS ADDITION,,3484,,27,,,Active,,,https://www.redfin.com/ID/Boise/868-N-31st-St-83702/home/106699349,IMLS,98921533,N,Y,43.6306053,-116.2283276
MLS Listing,,Single Family Residential,585 N Morningside Way,Boise,ID,83712,1367000,4,3.5,Morningside Heights,3656,12022,2000,27,374,37,Active,,,https://www.redfin.com/ID/Boise/585-N-Morningside-Way-83712/home/106727024,IMLS,98921524,N,Y,43.6096023,-116.1696763
MLS Listing,,Mobile/Manufactured Home,915 S Curtis Rd #74 Rd,Boise,ID,83705,88000,2,1.0,Homecrest,896,,1972,27,98,,Active,,,https://www.redfin.com/ID/Boise/915-S-Curtis-Rd-83705/unit-74/home/192155152,IMLS,98921267,N,Y,43.5954626,-116.2557829
MLS Listing,,Single Family Residential,7701 W Bearcreek Ct,Boise,ID,83704,597000,4,3.0,Bayhill Springs,2318,9583,1993,27,258,32,Active,,,https://www.redfin.com/ID/Boise/7701-W-Bearcreek-Ct-83704/home/106693751,IMLS,98920975,N,Y,43.634781,-116.2779848
MLS Listing,,Single Family Residential,703 W Berwick Dr,Boise,ID,83706-4719,599990,3,2.0,Sylvan Park Sub,1787,8450,1977,28,336,,Active,,,https://www.redfin.com/ID/Boise/703-W-Berwick-Dr-83706/home/106739227,IMLS,98921498,N,Y,43.5733736,-116.1899889
MLS Listing,,Single Family Residential,3056 S Millbrook Way,Boise,ID,83716,829900,3,3.0,Harris Ranch,2645,4443,2020,28,314,107,Active,September-21-2024 02:00 PM,September-21-2024 04:00 PM,https://www.redfin.com/ID/Boise/3056-S-Millbrook-Way-83716/home/171248208,IMLS,98921474,N,Y,43.5735584,-116.1275126
MLS Listing,,Single Family Residential,3304 N Acre Ln,Boise,ID,83704,675000,3,2.0,Suburban Park,1651,27442,1971,28,409,,Active,,,https://www.redfin.com/ID/Boise/3304-N-Acre-Ln-83704/home/106668574,IMLS,98921470,N,Y,43.6349495,-116.2721201
MLS Listing,,Single Family Residential,8386 W Sundisk St,Boise,ID,83714,535000,5,2.5,Sunstone,2227,5662,2005,28,240,22,Active,,,https://www.redfin.com/ID/Boise/8386-W-Sundisk-St-83714/home/106654362,IMLS,98921441,N,Y,43.6866844,-116.2908991
MLS Listing,,Single Family Residential,10500 W Skycrest Dr,Boise,ID,83704,489800,4,3.0,Skyline Sub,1990,9234,1978,28,246,,Active,,,https://www.redfin.com/ID/Boise/10500-W-Skycrest-Dr-83704/home/106751559,IMLS,98921434,N,Y,43.6532995,-116.3128992
MLS Listing,,Vacant Land,TBD Gold Fork Ridge Rd,Boise,ID,83716,105000,,,Clear Creek,,43560,,28,,,Active,,,https://www.redfin.com/ID/Boise/TBD-Gold-Fork-Ridge-Rd-83716/home/145195300,IMLS,98921430,N,Y,43.6187102,-116.2146068
MLS Listing,,Single Family Residential,7055 W Saxton Dr,Boise,ID,83714-2367,405000,3,2.0,Saddleback Park,1181,6969,1987,28,343,17,Active,,,https://www.redfin.com/ID/Boise/7055-W-Saxton-Dr-83714/home/106690128,IMLS,98919902,N,Y,43.670787,-116.2767703
MLS Listing,,Condo/Co-op,4250 E Haystack St #205,Boise,ID,83716,379900,1,1.0,Harris Ranch Lofts,693,,2024,28,548,220,Active,September-21-2024 12:00 PM,September-21-2024 03:00 PM,https://www.redfin.com/ID/Boise/4250-E-Haystack-St-83716/unit-205/home/192166249,IMLS,98921408,N,Y,43.5717522,-116.1309587
MLS Listing,,Townhouse,615 S Archstone Way,Boise,ID,83709,520000,3,2.0,Englefield Green,1628,9104,2008,28,319,175,Active,,,https://www.redfin.com/ID/Boise/615-S-Archstone-Way-83709/home/106807698,IMLS,98921404,N,Y,43.598712,-116.265275
MLS Listing,,Multi-Family (5+ Unit),2104 N 18th St,Boise,ID,83702,1315000,5,5.0,Vaughans Add,2750,8712,1947,28,478,,Active,,,https://www.redfin.com/ID/Boise/2104-N-18th-St-83702/home/145197387,IMLS,98921018,N,Y,43.6394258,-116.2105931
MLS Listing,,Single Family Residential,3317 W Crescent Rim,Boise,ID,83706,2850000,5,4.5,Monte Vista Ada,5345,19166,2014,29,533,,Active,,,https://www.redfin.com/ID/Boise/3317-W-Crescent-Rim-Dr-83706/home/106713386,IMLS,98921376,N,Y,43.609331,-116.223502
MLS Listing,,Single Family Residential,3025 W Gavin St,Boise,ID,83703,979000,2,2.5,Cruzen,1588,8712,2023,29,616,,Active,,,https://www.redfin.com/ID/Boise/3025-W-Gavin-St-83703/home/106660184,IMLS,98921296,N,Y,43.6389384,-116.2265605
MLS Listing,,Single Family Residential,4654 N Maple Grove Rd,Boise,ID,83704,649900,4,3.0,Emerald View,2769,6098,2024,29,235,,Active,,,https://www.redfin.com/ID/Boise/4654-N-Maple-Grove-Rd-83704/home/186477252,IMLS,98921277,N,Y,43.647542,-116.293536
MLS Listing,,Single Family Residential,12482 W Arabian Dr,Boise,ID,83709,657000,4,3.0,Sun Creek,2246,7579,2024,29,293,42,Active,,,https://www.redfin.com/ID/Boise/12482-W-Arabian-Dr-83709/home/192154155,IMLS,98921265,N,Y,43.563547,-116.337895
MLS Listing,,Single Family Residential,12506 W Arabian Dr,Boise,ID,83709,664900,4,3.0,Sun Creek,2670,5924,2024,29,249,42,Active,,,https://www.redfin.com/ID/Boise/12506-W-Arabian-Dr-83709/home/192154135,IMLS,98921264,N,Y,43.56354,-116.338111
MLS Listing,,Single Family Residential,12514 W Arabian Dr,Boise,ID,83709,672850,5,3.0,Sun Creek,2683,5924,2024,29,251,42,Active,,,https://www.redfin.com/ID/Boise/12514-W-Arabian-Dr-83709/home/192154134,IMLS,98921263,N,Y,43.563537,-116.338296
MLS Listing,,Single Family Residential,531 E Provident Dr,Boise,ID,83706,749900,4,3.0,LoggerS Creek,2500,7405,1991,29,300,8,Active,,,https://www.redfin.com/ID/Boise/531-E-Provident-Dr-83706/home/106742168,IMLS,98921251,N,Y,43.5869581,-116.1768409
MLS Listing,,Condo/Co-op,3005 Crescent Rim Dr #302,Boise,ID,83706,850000,2,2.0,Spectacular Condominiums,1278,,2012,30,665,620,Active,,,https://www.redfin.com/ID/Boise/3005-W-Crescent-Rim-Dr-83706/unit-302/home/106812666,IMLS,98920327,N,Y,43.603979,-116.218922
MLS Listing,,Townhouse,2064 S Gedalio Ln,Meridian,ID,83642,479990,2,2.0,Movado Village,1446,6534,2018,30,332,174,Active,,,https://www.redfin.com/ID/Meridian/2064-S-Gedalio-Ln-83642/home/146239483,IMLS,98921188,N,Y,43.5862954,-116.3404481
