SALE TYPE,SOLD DATE,PROPERTY TYPE,ADDRESS,CITY,STATE OR PROVINCE,ZIP OR POSTAL CODE,PRICE,BEDS,BATHS,LOCATION,SQUARE FEET,LOT SIZE,YEAR BUILT,DAYS ON MARKET,$/SQUARE FEET,HOA/MONTH,STATUS,NEXT OPEN HOUSE START TIME,NEXT OPEN HOUSE END TIME,URL (SEE https://www.redfin.com/buy-a-home/comparative-market-analysis FOR INFO ON PRICING),SOURCE,MLS#,FAVORITE,INTERESTED,LATITUDE,LONGITUDE
MLS Listing,,Single Family Residential,13013 Marthas Choice Cir,Bowie,MD,20720,650000,5,3.5,RED WILLOW CLUSTER,3743,23324,1988,1,174,29,Pre On-Market,,,https://www.redfin.com/MD/Bowie/13013-Marthas-Choice-Cir-20720/home/10902264,BRIGHT MLS,MDPG2122042,N,Y,38.9741446,-76.7789023
MLS Listing,,Single Family Residential,16103 Eastlawn Ct,Bowie,MD,20716,650000,5,3.5,COVINGTON,2208,9137,2001,3,294,24,Pre On-Market,,,https://www.redfin.com/MD/Bowie/16103-Eastlawn-Ct-20716/home/10654118,BRIGHT MLS,MDPG2125794,N,Y,38.9372837,-76.7268881
MLS Listing,,Condo/Co-op,11220 Raging Brook Dr #218,Bowie,MD,20720,250000,1,1.0,GLENSFORD CONDO,1038,,1990,6,241,343,Active,,,https://www.redfin.com/MD/Bowie/11220-Raging-Brook-Dr-20720/unit-218/home/10813979,BRIGHT MLS,MDPG2122314,N,Y,38.9536203,-76.8111837
MLS Listing,,Townhouse,12902 Libertys Delight Dr Unit 85A,Bowie,MD,20720,498900,3,2.5,FAIRWOOD,2879,,2006,11,173,269,Active,,,https://www.redfin.com/MD/Bowie/12902-Libertys-Delight-Dr-20720/unit-85A/home/11755628,BRIGHT MLS,MDPG2124300,N,Y,38.9606053,-76.7827826
MLS Listing,,Single Family Residential,2306 Grove Hurst Ln,Bowie,MD,20721,749900,4,4.0,BALK HILL VILLAGE,4520,5988,2016,22,166,72,Active,,,https://www.redfin.com/MD/Bowie/2306-Grove-Hurst-Ln-20721/home/109737360,BRIGHT MLS,MDPG2119624,N,Y,38.9203079,-76.8421111
MLS Listing,,Single Family Residential,15808 Perkins Ln,Bowie,MD,20716,415000,3,2.0,POINTER RIDGE AT,1020,14261,1972,45,407,,Active,,,https://www.redfin.com/MD/Bowie/15808-Perkins-Ln-20716/home/10664504,BRIGHT MLS,MDPG2118854,N,Y,38.9123026,-76.7335049
MLS Listing,,Single Family Residential,803 Congressional Ct,Bowie,MD,20721,430000,3,2.5,NEWBRIDGE,1636,10627,1982,69,263,24,Active,,,https://www.redfin.com/MD/Bowie/803-Congressional-Ct-20721/home/10845754,BRIGHT MLS,MDPG2118414,N,Y,38.9024639,-76.8091742
MLS Listing,,Single Family Residential,3602 Violetwood Pl,Bowie,MD,20715,575000,6,2.5,VICTORIA HEIGHTS AT BELAIR,2736,12056,1968,1,210,,Active,,,https://www.redfin.com/MD/Bowie/3602-Violetwood-Pl-20715/home/10896432,BRIGHT MLS,MDPG2125904,N,Y,38.98476,-76.7359386
MLS Listing,,Townhouse,11224 Westport Dr,Bowie,MD,20720,360000,3,1.5,LOTTSFORD COMMUNITY-PLAT 14,1166,1500,1985,1,309,93,Pre On-Market,,,https://www.redfin.com/MD/Bowie/11224-Westport-Dr-20720/home/10837764,BRIGHT MLS,MDPG2126086,N,Y,38.9509269,-76.81081
MLS Listing,,Vacant Land,16309 Ayrwood Ln,Bowie,MD,20716,399999,,,Bowie,,20898,,1,,,Active,,,https://www.redfin.com/MD/Bowie/16309-Ayrwood-Ln-20716/home/174576996,BRIGHT MLS,MDPG2126074,N,Y,38.916828,-76.721548
MLS Listing,,Single Family Residential,15002 Jerimiah Ln,Bowie,MD,20721,750000,5,3.5,COLLINGTON STATION,4003,12850,1995,1,187,80,Pre On-Market,,,https://www.redfin.com/MD/Bowie/15002-Jerimiah-Ln-20721/home/10641258,BRIGHT MLS,MDPG2126010,N,Y,38.9024012,-76.7465919
MLS Listing,,Single Family Residential,8600 Elm Ave,Bowie,MD,20715,350000,3,1.0,BOWIE,1008,7500,1982,1,347,,Active,September-22-2024 02:00 PM,September-22-2024 04:00 PM,https://www.redfin.com/MD/Bowie/8600-Elm-Ave-20715/home/10875718,BRIGHT MLS,MDPG2124430,N,Y,39.0070432,-76.7732587
MLS Listing,,Single Family Residential,12800 Chesney Ln,Bowie,MD,20715,450000,4,1.5,CHAPEL FORGE AT BELAIR,2232,9360,1966,1,202,,Pre On-Market,,,https://www.redfin.com/MD/Bowie/12800-Chesney-Ln-20715/home/10885952,BRIGHT MLS,MDPG2125798,N,Y,38.9898926,-76.7408172
MLS Listing,,Single Family Residential,16505 Everdale Ct,Bowie,MD,20716,684900,5,3.5,COVINGTON,3788,8050,1998,2,181,75,Active,,,https://www.redfin.com/MD/Bowie/16505-Everdale-Ct-20716/home/10653783,BRIGHT MLS,MDPG2123416,N,Y,38.9304879,-76.7193139
MLS Listing,,Single Family Residential,16406 Edgepark Ct,Bowie,MD,20716,615000,5,3.5,COVINGTON,1988,6814,1995,3,309,10,Active,,,https://www.redfin.com/MD/Bowie/16406-Edgepark-Ct-20716/home/10653757,BRIGHT MLS,MDPG2123372,N,Y,38.9319461,-76.7201466
MLS Listing,,Single Family Residential,4412 Saddle River Dr,Bowie,MD,20720,690999,4,3.5,LOTTSFORD COMMUNITY PLAT 16,4642,12407,1989,3,149,,Active,,,https://www.redfin.com/MD/Bowie/4412-Saddle-River-Dr-20720/home/10837402,BRIGHT MLS,MDPG2122344,N,Y,38.9517098,-76.804933
MLS Listing,,Single Family Residential,13019 8th St,Bowie,MD,20720,380000,5,3.0,BOWIE,936,5000,1948,3,406,,Active,,,https://www.redfin.com/MD/Bowie/13019-8th-St-20720/home/10882381,BRIGHT MLS,MDPG2125764,N,Y,39.0090322,-76.7798051
MLS Listing,,Townhouse,206 Mattisse Pl Unit 1009 D,Bowie,MD,20716,467985,3,2.5,SOUTHLAKE,2481,,2025,3,189,245,Active,September-21-2024 12:00 PM,September-21-2024 02:00 PM,https://www.redfin.com/MD/Bowie/206-Mattisse-PL-20716/unit-1009-D/home/192544908,BRIGHT MLS,MDPG2125886,N,Y,38.89692838,-76.72293955
MLS Listing,,Townhouse,13230 Saint James Sanctuary Dr,Bowie,MD,20720,593000,3,3.5,FAIRWOOD SANCTUARY-PLAT 27>,2154,2264,2010,3,275,109,Pre On-Market,September-22-2024 02:00 PM,September-22-2024 04:00 PM,https://www.redfin.com/MD/Bowie/13230-Saint-James-Sanctuary-Dr-20720/home/11224427,BRIGHT MLS,MDPG2124574,N,Y,38.96117,-76.7756156
MLS Listing,,Townhouse,220 Matisse Pl Unit 1009L,Bowie,MD,20716,424990,3,2.5,SOUTHLAKE,1606,,2025,3,265,245,Active,September-21-2024 12:00 PM,September-21-2024 02:00 PM,https://www.redfin.com/MD/Bowie/220-Matisse-PL-20716/unit-1009L/home/192543669,BRIGHT MLS,MDPG2125874,N,Y,38.89705765,-76.72331952
MLS Listing,,Single Family Residential,2209 Harwood Ln,Bowie,MD,20716,539900,3,2.5,HEATHER HILLS AT BELAIR,1872,9721,1965,3,288,,Active,,,https://www.redfin.com/MD/Bowie/2209-Harwood-Ln-20716/home/10647531,BRIGHT MLS,MDPG2123548,N,Y,38.9493987,-76.7271785
MLS Listing,,Townhouse,216 Matisse Pl Unit 1009J,Bowie,MD,20716,425485,3,2.5,SOUTHLAKE,1606,,2025,3,265,245,Active,September-21-2024 12:00 PM,September-21-2024 02:00 PM,https://www.redfin.com/MD/Bowie/216-Matisse-PL-20716/unit-1009J/home/192543600,BRIGHT MLS,MDPG2125868,N,Y,38.89693073,-76.72311782
MLS Listing,,Townhouse,212 Matisse Pl Unit 1009G,Bowie,MD,20716,422485,3,2.5,SOUTHLAKE,1606,,2025,3,263,245,Active,September-21-2024 12:00 PM,September-21-2024 02:00 PM,https://www.redfin.com/MD/Bowie/212-Matisse-PL-20716/unit-1009G/home/192543288,BRIGHT MLS,MDPG2125862,N,Y,38.8969775,-76.72313927
MLS Listing,,Townhouse,204 Matisse Pl Unit 1009C,Bowie,MD,20716,423485,3,2.5,SOUTHLAKE,1606,,2025,3,264,245,Active,September-21-2024 12:00 PM,September-21-2024 02:00 PM,https://www.redfin.com/MD/Bowie/204-Matisse-PL-20716/unit-1009C/home/192543063,BRIGHT MLS,MDPG2125856,N,Y,38.89698501,-76.72315484
MLS Listing,,Townhouse,200 Matisse Pl Unit 1009A,Bowie,MD,20716,434990,3,2.5,SOUTHLAKE,1606,,2025,3,271,245,Active,September-21-2024 12:00 PM,September-21-2024 02:00 PM,https://www.redfin.com/MD/Bowie/200-Matisse-Pl-20716/unit-1009A/home/192542788,BRIGHT MLS,MDPG2125848,N,Y,38.895607,-76.722534
MLS Listing,,Single Family Residential,12405 Stirrup Ln,Bowie,MD,20715,455000,4,2.0,SOMERSET AT BELAIR,1404,9277,1962,3,324,,Pre On-Market,September-22-2024 12:00 PM,September-22-2024 02:00 PM,https://www.redfin.com/MD/Bowie/12405-Stirrup-Ln-20715/home/10644902,BRIGHT MLS,MDPG2124698,N,Y,38.9705263,-76.7400253
MLS Listing,,Single Family Residential,2618 Felter Ln,Bowie,MD,20715,497000,4,2.5,FOXHILL AT BELAIR,1872,11615,1963,3,265,,Pre On-Market,,,https://www.redfin.com/MD/Bowie/2618-Felter-Ln-20715/home/10649002,BRIGHT MLS,MDPG2125358,N,Y,38.9612362,-76.7442881
MLS Listing,,Single Family Residential,13706 Camelot Field Dr,Bowie,MD,20720,792000,4,4.5,FAIRWOOD,2994,8072,2018,4,265,171,Active,,,https://www.redfin.com/MD/Bowie/13706-Camelot-Field-Dr-20720/home/12483590,BRIGHT MLS,MDPG2125180,N,Y,38.9490834,-76.7673843
MLS Listing,,Single Family Residential,2933 Tallow Ln,Bowie,MD,20715,435000,3,2.0,TULIP GROVE AT BELAIR,1726,8400,1966,4,252,,Active,,,https://www.redfin.com/MD/Bowie/2933-Tallow-Ln-20715/home/10650238,BRIGHT MLS,MDPG2125576,N,Y,38.9702697,-76.7455112
MLS Listing,,Single Family Residential,6705 Mcdonough Ter,Bowie,MD,20720,575000,4,3.0,HIGHBRIDGE ESTATES,1646,22201,1965,4,349,,Pre On-Market,,,https://www.redfin.com/MD/Bowie/6705-McDonough-Ter-20720/home/10894359,BRIGHT MLS,MDPG2125598,N,Y,38.981307,-76.780959
MLS Listing,,Single Family Residential,14202 Dawn Whistle Way,Bowie,MD,20721,1225000,5,5.5,COLLINGBROOK,7235,40000,2012,5,169,50,Active,,,https://www.redfin.com/MD/Bowie/14202-Dawn-Whistle-Way-20721/home/11140430,BRIGHT MLS,MDPG2125156,N,Y,38.9400381,-76.7590857
MLS Listing,,Single Family Residential,3512 Madonna Ln,Bowie,MD,20715,450000,3,2.0,MEADOWBROOK AT BELAIR,1727,9750,1965,5,261,,Active,,,https://www.redfin.com/MD/Bowie/3512-Madonna-Ln-20715/home/10909452,BRIGHT MLS,MDPG2125280,N,Y,38.9801852,-76.7558121
MLS Listing,,Single Family Residential,12415 Seabury Ln,Bowie,MD,20715,415000,3,2.0,SOMERSET AT BELAIR,1457,9750,1962,5,285,,Active,,,https://www.redfin.com/MD/Bowie/12415-Seabury-Ln-20715/home/10639225,BRIGHT MLS,MDPG2122980,N,Y,38.9750947,-76.7393067
MLS Listing,,Single Family Residential,12402 Longwater Dr,Bowie,MD,20721,1320000,4,4.5,WOODMORE-PLAT 6>,5749,30029,2001,5,230,153,Active,,,https://www.redfin.com/MD/Bowie/12402-Longwater-Dr-20721/home/10670592,BRIGHT MLS,MDPG2125246,N,Y,38.9352206,-76.7901637
MLS Listing,,Single Family Residential,12218 Quintette Ln,Bowie,MD,20720,575000,3,2.5,NORTHRIDGE PLAT 26,1820,4400,1995,5,316,65,Active,,,https://www.redfin.com/MD/Bowie/12218-Quintette-Ln-20720/home/10879394,BRIGHT MLS,MDPG2125492,N,Y,38.9933877,-76.7936821
MLS Listing,,Single Family Residential,2703 Lyn Pl,Bowie,MD,20715,415000,5,3.0,LONGRIDGE AT BELAIR,2082,21849,1962,5,199,,Active,,,https://www.redfin.com/MD/Bowie/2703-Lyn-Pl-20715/home/10644249,BRIGHT MLS,MDPG2125578,N,Y,38.9669443,-76.755508
MLS Listing,,Single Family Residential,16305 Ayrwood Ln,Bowie,MD,20716,1049995,5,4.0,MITCHELLVILLE MANOR,4800,60940,2024,5,219,,Active,,,https://www.redfin.com/MD/Bowie/16305-Ayrwood-Ln-20716/home/104535368,BRIGHT MLS,MDPG2125594,N,Y,38.9167599,-76.721975
MLS Listing,,Single Family Residential,2514 Nicol Cir,Bowie,MD,20721,790000,4,2.5,TARTAN SOUTH-PLAT FOUR>,3540,10454,2004,5,223,17,Pre On-Market,,,https://www.redfin.com/MD/Bowie/2514-Nicol-Cir-20721/home/11124669,BRIGHT MLS,MDPG2125496,N,Y,38.9231102,-76.8299722
MLS Listing,,Single Family Residential,12508 Saber Ln,Bowie,MD,20715,495000,4,2.0,SOMERSET AT BELAIR,2165,9759,1962,6,229,,Active,,,https://www.redfin.com/MD/Bowie/12508-Saber-Ln-20715/home/10646602,BRIGHT MLS,MDPG2125172,N,Y,38.971842,-76.7357413
MLS Listing,,Townhouse,2522 Campus Way N,Bowie,MD,20721,630000,4,3.5,BALK HILL VILLAGE,3098,4293,2015,6,203,70,Pre On-Market,,,https://www.redfin.com/MD/Bowie/2522-Campus-Way-N-20721/home/98168712,BRIGHT MLS,MDPG2125332,N,Y,38.9243532,-76.8405685
MLS Listing,,Single Family Residential,3115 New Coach Ln,Bowie,MD,20716,538888,4,2.5,NORTHVIEW AT BELAIR VILLAGE,2020,10712,1975,8,267,,Active,,,https://www.redfin.com/MD/Bowie/3115-New-Coach-Ln-20716/home/10656363,BRIGHT MLS,MDPG2115080,N,Y,38.9335231,-76.7445617
MLS Listing,,Single Family Residential,1700 Pittsfield Ln,Bowie,MD,20716,449900,3,2.5,POINTER RIDGE,1790,12060,1970,8,251,,Active,,,https://www.redfin.com/MD/Bowie/1700-Pittsfield-Ln-20716/home/10638671,BRIGHT MLS,MDPG2123656,N,Y,38.9131406,-76.7224
MLS Listing,,Single Family Residential,18106 Central,Bowie,MD,20716,625000,3,2.0,Bowie,1389,21780,1961,9,450,,Pre On-Market,,,https://www.redfin.com/MD/Bowie/18106-Central-Ave-20716/home/10638930,BRIGHT MLS,MDPG2125110,N,Y,38.9034622,-76.6902435
MLS Listing,,Townhouse,1701 Stourbridge Ct,Bowie,MD,20721,490000,4,3.5,WOODVIEW VILLAGE,2190,2000,1992,9,224,68,Active,,,https://www.redfin.com/MD/Bowie/1701-Stourbridge-Ct-20721/home/10861298,BRIGHT MLS,MDPG2110372,N,Y,38.9135479,-76.8294121
MLS Listing,,Townhouse,851 Faraway Ct,Bowie,MD,20721,425000,3,2.5,SOUTHLAKE PLAT 2,1335,1500,1994,10,318,80,Active,,,https://www.redfin.com/MD/Bowie/851-Faraway-Ct-20721/home/10848955,BRIGHT MLS,MDPG2112968,N,Y,38.9018377,-76.818812
MLS Listing,,Single Family Residential,14502 Clover Hill Ter,Bowie,MD,20720,650000,5,3.5,OLD STAGE KNOLLS PLAT FIVE,2288,10012,1990,10,284,10,Pre On-Market,,,https://www.redfin.com/MD/Bowie/14502-Clover-Hill-Ter-20720/home/10651298,BRIGHT MLS,MDPG2123458,N,Y,38.9541322,-76.7542227
MLS Listing,,Townhouse,640 Maple Lawn Dr Unit 217C,Bowie,MD,20716,474990,3,3.0,SOUTHLAKE,1741,,2024,10,273,130,Active,September-21-2024 12:00 PM,September-21-2024 02:00 PM,https://www.redfin.com/MD/Bowie/640-Maple-Lawn-DR-20716/unit-217C/home/192404834,BRIGHT MLS,MDPG2125044,N,Y,38.89590012,-76.72412233
MLS Listing,,Single Family Residential,10417 Foxlake Dr,Bowie,MD,20721,715000,4,3.5,FOXLAKE,3212,8715,1994,11,223,88,Active,,,https://www.redfin.com/MD/Bowie/10417-Foxlake-Dr-20721/home/10826629,BRIGHT MLS,MDPG2124814,N,Y,38.9175289,-76.8249514
MLS Listing,,Single Family Residential,17770 Mill Branch Pl,Bowie,MD,20716,825000,5,3.5,Bowie,3105,471319,1972,11,266,,Active,,,https://www.redfin.com/MD/Bowie/17770-Mill-Branch-Pl-20716/home/10670846,BRIGHT MLS,MDPG2119048,N,Y,38.9350555,-76.6936171
MLS Listing,,Single Family Residential,5203 Cornelias Prospect Dr,Bowie,MD,20720,975000,5,4.5,FAIRWOOD,5881,17808,2004,11,166,239,Active,,,https://www.redfin.com/MD/Bowie/5203-Cornelias-Prospect-Dr-20720/home/11129217,BRIGHT MLS,MDPG2124918,N,Y,38.9611527,-76.7918842
MLS Listing,,Single Family Residential,13218 Eldorado Greenfields Dr,Bowie,MD,20720,720000,4,3.5,FAIRWOOD,2688,8769,2013,11,268,,Pre On-Market,,,https://www.redfin.com/MD/Bowie/13218-Eldorado-Greenfields-Dr-20720/home/11157620,BRIGHT MLS,MDPG2124884,N,Y,38.9545172,-76.7756911
MLS Listing,,Single Family Residential,14003 Heatherstone Dr,Bowie,MD,20720,750000,3,3.5,OLD STAGE KNOLLS PLAT THREE,2276,10000,1989,12,330,25,Active,,,https://www.redfin.com/MD/Bowie/14003-Heatherstone-Dr-20720/home/10651187,BRIGHT MLS,MDPG2123132,N,Y,38.9558522,-76.7634908
MLS Listing,,Single Family Residential,13108 Yorktown Dr,Bowie,MD,20715,599000,4,2.0,YORKTOWN AT BELAIR,2232,12735,1966,12,268,,Active,,,https://www.redfin.com/MD/Bowie/13108-Yorktown-Dr-20715/home/10885130,BRIGHT MLS,MDPG2123770,N,Y,38.9911978,-76.7338776
MLS Listing,,Single Family Residential,11701 Locust Dale Ct,Bowie,MD,20721,1550000,7,5.5,LOCUST GROVE,7828,90169,1985,12,198,,Active,,,https://www.redfin.com/MD/Bowie/11701-Locust-Dale-Ct-20721/home/10648786,BRIGHT MLS,MDPG2124680,N,Y,38.9335879,-76.8035941
MLS Listing,,Single Family Residential,2921 Tapered Ln,Bowie,MD,20715,459900,4,2.5,TULIP GROVE AT BELAIR,2232,18448,1965,13,206,,Pre On-Market,,,https://www.redfin.com/MD/Bowie/2921-Tapered-Ln-20715/home/10639654,BRIGHT MLS,MDPG2123122,N,Y,38.9692811,-76.7481788
MLS Listing,,Condo/Co-op,4007 Seaside Alder Rd Unit F - VIOLET - 8405,Bowie,MD,20720,441735,2,2.0,Bowie,1288,,2024,13,343,332,Active,September-21-2024 12:00 PM,September-21-2024 03:00 PM,https://www.redfin.com/MD/Bowie/4007-Seaside-Alder-Rd-20720/unit-F-VIOLET-8405/home/192375576,BRIGHT MLS,MDPG2124666,N,Y,38.944319,-76.791655
MLS Listing,,Single Family Residential,16110 Pond Meadow Ln,Bowie,MD,20716,460000,4,2.0,POINTER RIDGE,1583,11199,1970,13,291,,Active,,,https://www.redfin.com/MD/Bowie/16110-Pond-Meadow-Ln-20716/home/10666015,BRIGHT MLS,MDPG2121556,N,Y,38.913109,-76.7262572
MLS Listing,,Townhouse,935 Pleasant Hill Ln,Bowie,MD,20716,399000,2,2.5,RIDGEVIEW ESTATES ADDITION PLAT 3,1120,2042,1987,15,356,,Active,,,https://www.redfin.com/MD/Bowie/935-Pleasant-Hill-Ln-20716/home/10667524,BRIGHT MLS,MDPG2124488,N,Y,38.9032603,-76.7221195
MLS Listing,,Townhouse,13035 Silver Maple Ct,Bowie,MD,20715,460000,3,3.0,BOWIE FOREST,1450,1520,1991,15,317,105,Active,,,https://www.redfin.com/MD/Bowie/13035-Silver-Maple-Ct-20715/home/10651789,BRIGHT MLS,MDPG2124428,N,Y,38.9792651,-76.7300675
MLS Listing,,Townhouse,3220 Scarlet Oak Ter,Bowie,MD,20715,399900,4,3.5,BOWIE FOREST,1450,1600,1995,15,276,105,Active,,,https://www.redfin.com/MD/Bowie/3220-Scarlet-Oak-Ter-20715/home/10651937,BRIGHT MLS,MDPG2123352,N,Y,38.9782771,-76.7311383
MLS Listing,,Single Family Residential,2602 Arden Forest Ln,Bowie,MD,20716,675000,4,3.5,MITCHELLVILLE EAST,2440,11427,1990,16,277,,Active,,,https://www.redfin.com/MD/Bowie/2602-Arden-Forest-Ln-20716/home/10661051,BRIGHT MLS,MDPG2124130,N,Y,38.9251131,-76.7242715
MLS Listing,,Townhouse,14626 London Ln,Bowie,MD,20715,369999,3,2.5,PRINCETON SQUARE ADDITION PLAT ONE,1800,1306,1986,17,206,95,Active,,,https://www.redfin.com/MD/Bowie/14626-London-Ln-20715/home/10670363,BRIGHT MLS,MDPG2123152,N,Y,38.9553591,-76.7494632
MLS Listing,,Single Family Residential,7622 Quicksilver Ct,Bowie,MD,20720,625000,3,3.5,NORTHRIDGE PLAT 24>,2756,9085,1994,17,227,65,Active,,,https://www.redfin.com/MD/Bowie/7622-Quicksilver-Ct-20720/home/10879226,BRIGHT MLS,MDPG2121558,N,Y,38.9939447,-76.7922327
MLS Listing,,Single Family Residential,8003 Race Horse Ln,Bowie,MD,20715,749999,4,3.5,SADDLEBROOK WEST,4646,10890,2002,18,161,71,Active,,,https://www.redfin.com/MD/Bowie/8003-Race-Horse-Ln-20715/home/10914101,BRIGHT MLS,MDPG2121986,N,Y,39.0016207,-76.7481153
MLS Listing,,Single Family Residential,12804 10th St,Bowie,MD,20720,450000,3,2.5,BOWIE,1948,18983,1923,19,231,,Active,,,https://www.redfin.com/MD/Bowie/12804-10th-St-20720/home/10893050,BRIGHT MLS,MDPG2122010,N,Y,39.0068526,-76.7849623
MLS Listing,,Single Family Residential,4001 Winchester Ln,Bowie,MD,20715,525000,3,2.0,WHITEHALL AT BELAIR,1849,14952,1967,21,284,,Pre On-Market,,,https://www.redfin.com/MD/Bowie/4001-Winchester-Ln-20715/home/10877807,BRIGHT MLS,MDPG2123848,N,Y,38.9893382,-76.7562832
MLS Listing,,Single Family Residential,1301 Kings Valley Dr,Bowie,MD,20721,475000,3,2.5,KETTERING,1990,11348,1985,22,239,,Pre On-Market,,,https://www.redfin.com/MD/Bowie/1301-Kings-Valley-Dr-20721/home/10661832,BRIGHT MLS,MDPG2123676,N,Y,38.9075357,-76.7918373
MLS Listing,,Vacant Land,9011 Normal School Rd,Bowie,MD,20715,350000,,,Bowie,,242194,,24,,,Active,,,https://www.redfin.com/MD/Bowie/9011-Normal-School-Rd-20715/home/23224557,BRIGHT MLS,MDPG2122952,N,Y,39.014541,-76.764839
MLS Listing,,Townhouse,184 Lawndale Dr Unit 1010J,Bowie,MD,20716,428485,3,2.5,SOUTHLAKE,1606,,2025,24,267,245,Active,,,https://www.redfin.com/MD/Bowie/184-Lawndale-DR-20716/unit-1010J/home/192208181,BRIGHT MLS,MDPG2123666,N,Y,38.89647069,-76.72314613
MLS Listing,,Single Family Residential,5304 Roberts Prospect Dr,Bowie,MD,20720,1200000,5,4.5,FAIRWOOD,5024,15145,2008,24,239,239,Active,,,https://www.redfin.com/MD/Bowie/5304-Roberts-Prospect-Dr-20720/home/11129146,BRIGHT MLS,MDPG2123602,N,Y,38.9625773,-76.7922636
MLS Listing,,Single Family Residential,13405 Oxhill Ct,Bowie,MD,20715,650000,4,3.0,OVERBROOK AT BELAIR,2343,15075,1966,26,277,,Active,,,https://www.redfin.com/MD/Bowie/13405-Oxhill-Ct-20715/home/23268275,BRIGHT MLS,MDPG2122390,N,Y,38.9979816,-76.7312326
MLS Listing,,Townhouse,15423 Neman Dr,Bowie,MD,20716,381750,3,3.5,OAK POND PLAT FIVEPHASE C,1160,2250,1987,29,329,47,Pre On-Market,,,https://www.redfin.com/MD/Bowie/15423-Neman-Dr-20716/home/10665352,BRIGHT MLS,MDPG2123162,N,Y,38.9266046,-76.7375161
MLS Listing,,Single Family Residential,7510 High Bridge Rd,Bowie,MD,20720,599900,4,3.0,WEST WOODS>,1532,52708,1912,31,392,,Active,,,https://www.redfin.com/MD/Bowie/7510-High-Bridge-Rd-20720/home/18993856,BRIGHT MLS,MDPG2122574,N,Y,38.993678,-76.7749919
MLS Listing,,Townhouse,4718 Ridgeline Ter #281,Bowie,MD,20720,329900,2,3.0,GLENSFORD CONDO,1701,4661,1991,31,194,305,Pre On-Market,,,https://www.redfin.com/MD/Bowie/4718-Ridgeline-Ter-20720/unit-281/home/10813919,BRIGHT MLS,MDPG2122954,N,Y,38.9524491,-76.8103132
MLS Listing,,Single Family Residential,10703 Vista Linda Dr,Bowie,MD,20721,645000,4,3.0,VISTA ESTATES EAST,2498,17552,1992,33,258,30,Active,,,https://www.redfin.com/MD/Bowie/10703-Vista-Linda-Dr-20721/home/10856158,BRIGHT MLS,MDPG2121458,N,Y,38.9420467,-76.8206807
MLS Listing,,Townhouse,16107 Edenwood Dr,Bowie,MD,20716,430000,3,2.5,COVINGTON,1380,1500,1999,33,312,55,Pre On-Market,,,https://www.redfin.com/MD/Bowie/16107-Edenwood-Dr-20716/home/10672796,BRIGHT MLS,MDPG2121856,N,Y,38.9386826,-76.7289513
MLS Listing,,Townhouse,3828 Envision Ter,Bowie,MD,20716,415500,3,2.5,EVERGREEN ESTATES PLAT 3,1240,2477,1990,37,335,69,Active,,,https://www.redfin.com/MD/Bowie/3828-Envision-Ter-20716/home/10643711,BRIGHT MLS,MDPG2119280,N,Y,38.9402831,-76.7379696
MLS Listing,,Single Family Residential,17129 Russet Dr,Bowie,MD,20716,690000,5,2.5,LONGLEAF-PLAT 1>,3523,10488,2000,40,196,52,Active,,,https://www.redfin.com/MD/Bowie/17129-Russet-Dr-20716/home/10674313,BRIGHT MLS,MDPG2121620,N,Y,38.9487585,-76.7067974
MLS Listing,,Single Family Residential,4812 Willes Vision Dr,Bowie,MD,20720,739989,5,3.5,FAIRWOOD,3000,17317,2004,41,247,167,Active,,,https://www.redfin.com/MD/Bowie/4812-Willes-Vision-Dr-20720/home/11139661,BRIGHT MLS,MDPG2122006,N,Y,38.9567017,-76.780663
MLS Listing,,Single Family Residential,15542 Twin River Cir Unit H5,Bowie,MD,20716,744990,4,2.5,SOUTHLAKE,3571,6626,2024,41,209,105,Active,September-21-2024 12:00 PM,September-21-2024 02:00 PM,https://www.redfin.com/MD/Bowie/15542-Twin-River-Cir-20716/unit-H5/home/191952134,BRIGHT MLS,MDPG2121944,N,Y,38.890562,-76.733722
MLS Listing,,Single Family Residential,14200 Dunwood Valley Dr,Bowie,MD,20721,819000,4,3.5,WOODMORE HIGHLANDS-PLAT 2>,3564,40292,1997,42,230,28,Active,,,https://www.redfin.com/MD/Bowie/14200-Dunwood-Valley-Dr-20721/home/10659350,BRIGHT MLS,MDPG2119436,N,Y,38.9359879,-76.7595398
MLS Listing,,Townhouse,651 Fairmont Dr Unit 216B,Bowie,MD,20716,489990,3,2.5,SOUTHLAKE,2030,,2024,43,241,130,Active,September-21-2024 12:00 PM,September-21-2024 02:00 PM,https://www.redfin.com/MD/Bowie/651-Fairmont-DR-20716/unit-216B/home/191934215,BRIGHT MLS,MDPG2121752,N,Y,38.89462514,-76.72630408
MLS Listing,,Townhouse,17131 Hardisty Way,Bowie,MD,20715,640857,4,3.5,MILL BRANCH,2463,2000,2024,45,260,95,Active,,,https://www.redfin.com/MD/Bowie/17131-Hardisty-Way-20715/home/185396525,BRIGHT MLS,MDPG2121180,N,Y,38.9589846,-76.7079677
MLS Listing,,Single Family Residential,12402 Pleasant Prospect Rd,Bowie,MD,20721,2390000,5,6.5,PLEASANT PROSPECT PLAT FOUR,9608,85378,2003,46,249,165,Pre On-Market,,,https://www.redfin.com/MD/Bowie/12402-Pleasant-Prospect-Rd-20721/home/10670440,BRIGHT MLS,MDPG2121408,N,Y,38.930957,-76.7905928
MLS Listing,,Single Family Residential,1108 Pennypacker Ln,Bowie,MD,20716,449999,3,2.0,POINTER RIDGE,1583,10000,1969,48,284,,Active,,,https://www.redfin.com/MD/Bowie/1108-Pennypacker-Ln-20716/home/10647564,BRIGHT MLS,MDPG2121114,N,Y,38.9048936,-76.7259418
MLS Listing,,Single Family Residential,15309 Doveheart Ln,Bowie,MD,20721,799900,4,3.5,ASHLEIGH,4304,10006,2004,53,186,44,Active,,,https://www.redfin.com/MD/Bowie/15309-Doveheart-Ln-20721/home/10677099,BRIGHT MLS,MDPG2120654,N,Y,38.9177315,-76.7416541
MLS Listing,,Single Family Residential,TBB Glenn Lake Dr Unit EMORY,Bowie,MD,20716,839990,4,2.5,SOUTH LAKE,4205,4205,2024,53,200,105,Active,,,https://www.redfin.com/MD/Bowie/TBB-Glenn-Lake-Dr-20716/unit-EMORY/home/191794403,BRIGHT MLS,MDPG2120666,N,Y,38.8948403,-76.72878335
MLS Listing,,Single Family Residential,TBB Glenn Lake Dr Unit RICHMOND,Bowie,MD,20716,879990,4,3.5,SOUTH LAKE,4478,7889,2024,54,197,105,Active,,,https://www.redfin.com/MD/Bowie/TBB-Glenn-Lake-Dr-20716/unit-RICHMOND/home/191788823,BRIGHT MLS,MDPG2120596,N,Y,38.89490887,-76.72883241
MLS Listing,,Single Family Residential,TBB Glenn Lake Dr Unit CREIGHTON,Bowie,MD,20716,929990,4,4.5,SOUTH LAKE,4670,6760,2024,54,199,105,Active,,,https://www.redfin.com/MD/Bowie/TBB-Glenn-Lake-Dr-20716/unit-CREIGHTON/home/191788688,BRIGHT MLS,MDPG2120588,N,Y,38.8948525,-76.72878949
MLS Listing,,Single Family Residential,806 Pengrove Ct,Bowie,MD,20716,699900,4,2.5,NATIONAL RESEARCH HOME PARK PLAT 7,2500,8354,2024,54,280,47,Active,,,https://www.redfin.com/MD/Bowie/806-Pengrove-Ct-20716/home/10667836,BRIGHT MLS,MDPG2117062,N,Y,38.9011319,-76.724337
MLS Listing,,Single Family Residential,15710 Paramont Ln,Bowie,MD,20716,469900,3,2.0,POINTER RIDGE,1671,10200,1968,55,281,,Active,,,https://www.redfin.com/MD/Bowie/15710-Paramont-Ln-20716/home/10663982,BRIGHT MLS,MDPG2119496,N,Y,38.9053874,-76.7328927
MLS Listing,,Single Family Residential,1225 Port Echo Ln,Bowie,MD,20716,489900,3,2.5,POINTER RIDGE,2172,11679,1969,56,226,,Active,,,https://www.redfin.com/MD/Bowie/1225-Port-Echo-Ln-20716/home/10652662,BRIGHT MLS,MDPG2110398,N,Y,38.9073318,-76.7217885
MLS Listing,,Single Family Residential,1518 Perrell Ln,Bowie,MD,20716,465000,4,2.0,POINTER RIDGE,1788,10000,1969,57,260,,Active,,,https://www.redfin.com/MD/Bowie/1518-Perrell-Ln-20716/home/10648645,BRIGHT MLS,MDPG2118922,N,Y,38.9104239,-76.7354136
MLS Listing,,Townhouse,12805 Libertys Delight Dr Unit 72B,Bowie,MD,20720,499000,3,3.0,FAIRWOOD,2253,,2009,61,221,352,Active,,,https://www.redfin.com/MD/Bowie/12805-Libertys-Delight-Dr-20720/unit-72B/home/28478829,BRIGHT MLS,MDPG2118544,N,Y,38.9609096,-76.7832816
MLS Listing,,Single Family Residential,10900 Elon Dr,Bowie,MD,20720,574900,4,3.5,GLENN DALE ESTATES PLAT 1>,1872,10527,1979,66,307,,Active,,,https://www.redfin.com/MD/Bowie/10900-Elon-Dr-20720/home/10825776,BRIGHT MLS,MDPG2119232,N,Y,38.9500917,-76.8181352
MLS Listing,,Townhouse,17135 Hardisty Way,Bowie,MD,20715,629641,3,3.0,MILL BRANCH,2485,1600,2024,67,253,95,Active,,,https://www.redfin.com/MD/Bowie/17135-Hardisty-Way-20715/home/185396523,BRIGHT MLS,MDPG2119274,N,Y,38.9589843,-76.707827
MLS Listing,,Single Family Residential,12402 Rustic Hill Dr,Bowie,MD,20715,479900,4,3.0,ROCKLEDGE AT BELAIR,1998,11000,1967,67,240,,Active,,,https://www.redfin.com/MD/Bowie/12402-Rustic-Hill-Dr-20715/home/10877501,BRIGHT MLS,MDPG2119230,N,Y,39.0019248,-76.7529507
MLS Listing,,Single Family Residential,1007 Kings Tree Dr,Bowie,MD,20721,525000,4,3.0,KETTERING,1769,10919,1982,68,297,,Active,,,https://www.redfin.com/MD/Bowie/1007-Kings-Tree-Dr-20721/home/10661611,BRIGHT MLS,MDPG2118098,N,Y,38.9039295,-76.7933681
MLS Listing,,Single Family Residential,13508 Gullivers Trl,Bowie,MD,20720,604999,4,2.5,HIGHBRIDGE PLAT 6,2324,6841,1993,73,260,47,Active,,,https://www.redfin.com/MD/Bowie/13508-Gullivers-Trl-20720/home/10888593,BRIGHT MLS,MDPG2117302,N,Y,38.9760285,-76.7711317
MLS Listing,,Condo/Co-op,4005 Seaside Alder Rd Unit B - IVY - 9104,Bowie,MD,20720,383140,1,1.0,Bowie,888,,2024,73,431,258,Active,,,https://www.redfin.com/MD/Bowie/4005-Seaside-Alder-Rd-20720/unit-B-IVY-9104/home/191501441,BRIGHT MLS,MDPG2118574,N,Y,38.944449,-76.792481
MLS Listing,,Single Family Residential,3418 Memphis Ln,Bowie,MD,20715,590000,5,4.0,MEADOWBROOK AT BELAIR,2852,11200,1965,80,207,,Active,,,https://www.redfin.com/MD/Bowie/3418-Memphis-Ln-20715/home/10880703,BRIGHT MLS,MDPG2113126,N,Y,38.9757651,-76.7555268
MLS Listing,,Condo/Co-op,15607 Everglade Ln Unit B204,Bowie,MD,20716,275000,2,2.0,WOODLAND LAKE CONDO,1050,,1999,83,262,330,Active,,,https://www.redfin.com/MD/Bowie/15607-Everglade-Ln-20716/unit-B204/home/10677507,BRIGHT MLS,MDPG2117240,N,Y,38.9396691,-76.733466
MLS Listing,,Townhouse,16910 Saint Helen Ave,Bowie,MD,20716,559990,3,3.5,MILL BRANCH CROSSING,2201,2400,,83,254,135,Active,September-21-2024 11:00 AM,September-21-2024 05:00 PM,https://www.redfin.com/MD/Bowie/16910-Saint-Helen-Ave-20716/home/185396810,BRIGHT MLS,MDPG2117498,N,Y,38.936682,-76.712512
MLS Listing,,Townhouse,5220 Maries Retreat Dr #126,Bowie,MD,20720,495000,3,3.5,RETREAT AT FAIRWOOD TOWNHOME CONDO-PHASE 11>,2572,,2005,85,192,368,Active,,,https://www.redfin.com/MD/Bowie/5220-Maries-Retreat-Dr-20720/unit-126/home/11224334,BRIGHT MLS,MDPG2114160,N,Y,38.962151,-76.7884583
MLS Listing,,Single Family Residential,12402 Chasemount Ct,Bowie,MD,20720,669900,4,2.5,MARLEIGH,3142,13823,2003,86,213,93,Active,,,https://www.redfin.com/MD/Bowie/12402-Chasemount-Ct-20720/home/10676473,BRIGHT MLS,MDPG2112330,N,Y,38.9512752,-76.7891208
MLS Listing,,Single Family Residential,HOMESITE N57 Meadow Creek Dr,Bowie,MD,20716,949990,5,5.5,SOUTH LAKE,4415,7439,2024,89,215,105,Active,September-21-2024 12:00 PM,September-21-2024 04:00 PM,https://www.redfin.com/MD/Bowie/HOMESITE-N57-Meadow-Creek-DR-Unknown/home/191250188,BRIGHT MLS,MDPG2116890,N,Y,38.89431245,-76.72953782
MLS Listing,,Single Family Residential,HOMESITE N56 Meadow Creek Dr,Bowie,MD,20716,1024990,5,5.0,SOUTH LAKE,4639,10573,2024,89,221,105,Active,September-21-2024 12:00 PM,September-21-2024 04:00 PM,https://www.redfin.com/MD/Bowie/HOMESITE-N56-Meadow-Creek-DR-Unknown/home/191247963,BRIGHT MLS,MDPG2116880,N,Y,38.89427038,-76.72939556
MLS Listing,,Condo/Co-op,4007 Seaside Alder Rd Unit E - LILY - 8206,Bowie,MD,20720,426060,1,1.0,Bowie,881,,2024,91,484,320,Active,,,https://www.redfin.com/MD/Bowie/4007-Seaside-Alder-Rd-20720/unit-E-LILY-8206/home/189089893,BRIGHT MLS,MDPG2100470,N,Y,38.944319,-76.791655
MLS Listing,,Vacant Land,12203 Lanham Severn Rd,Bowie,MD,20720,325000,,,Bowie,,145055,,91,,,Active,,,https://www.redfin.com/MD/Bowie/12203-Lanham-Severn-Rd-20720/home/23251095,BRIGHT MLS,MDPG2115998,N,Y,39.000752,-76.793335
MLS Listing,,Single Family Residential,16009 Pennsbury Dr,Bowie,MD,20716,789900,5,3.5,NATIONAL RESEARCH HOME PARK PLAT OF CORRECTION,3677,12854,2024,95,215,47,Active,,,https://www.redfin.com/MD/Bowie/16009-Pennsbury-Dr-20716/home/10667951,BRIGHT MLS,MDPG2099862,N,Y,38.901503,-76.727639
MLS Listing,,Single Family Residential,TBB Glenn Lake Dr Unit BARBADOS,Bowie,MD,20716,799990,3,2.5,SOUTH LAKE,3503,6760,2024,95,228,105,Active,,,https://www.redfin.com/MD/Bowie/TBB-Glenn-Lake-DR-20716/unit-BARBADOS/home/191161160,BRIGHT MLS,MDPG2116268,N,Y,38.89500907,-76.72901212
MLS Listing,,Single Family Residential,2515 Kenhill Dr,Bowie,MD,20715,472999,3,2.0,KENILWORTH AT BELAIR,1583,13201,1963,96,299,,Active,,,https://www.redfin.com/MD/Bowie/2515-Kenhill-Dr-20715/home/10649582,BRIGHT MLS,MDPG2115792,N,Y,38.9586643,-76.742057
MLS Listing,,Single Family Residential,TBB Meadow Creek Dr Unit NEW HAVEN,Bowie,MD,20716,764990,4,2.5,SOUTH LAKE,3442,6576,2024,96,222,105,Active,,,https://www.redfin.com/MD/Bowie/TBB-Meadow-Creek-DR-Unknown/unit-NEW-HAVEN/home/191124099,BRIGHT MLS,MDPG2116130,N,Y,38.89466094,-76.72881614
MLS Listing,,Townhouse,1701 Apple Blossom Ct,Bowie,MD,20721,465000,3,4.0,WOODVIEW VILLAGE WEST,1584,2200,1998,98,294,95,Active,,,https://www.redfin.com/MD/Bowie/1701-Apple-Blossom-Ct-20721/home/10867472,BRIGHT MLS,MDPG2116050,N,Y,38.9122632,-76.8342218
MLS Listing,,Vacant Land,8815 Maple Ave,Bowie,MD,20720,158000,,,BOWIE,,5000,,104,,,Active,,,https://www.redfin.com/MD/Bowie/8815-Maple-Ave-20720/home/11756529,BRIGHT MLS,MDPG2115146,N,Y,39.0112238,-76.7816081
MLS Listing,,Single Family Residential,12647 Hillmeade Station Dr,Bowie,MD,20720,570000,5,3.0,HILLMEADE STATION PLAT FIVE,1768,10714,1987,105,322,25,Active,,,https://www.redfin.com/MD/Bowie/12647-Hillmeade-Station-Dr-20720/home/10875634,BRIGHT MLS,MDPG2114952,N,Y,38.9860588,-76.7822128
MLS Listing,,Vacant Land,2415 Mitchellville Rd,Bowie,MD,20716,350000,,,Bowie,,47916,,115,,,Active,,,https://www.redfin.com/MD/Bowie/2415-Mitchellville-Rd-20716/home/23220396,BRIGHT MLS,MDPG2113404,N,Y,38.923681,-76.731958
MLS Listing,,Single Family Residential,Pine Ave,Bowie,MD,20715,699512,4,2.5,BOWIE,2616,74923,2024,134,267,,Active,,,https://www.redfin.com/MD/Bowie/Pine-Ave-20715/home/23149657,BRIGHT MLS,MDPG2108620,N,Y,39.007739,-76.770444
MLS Listing,,Townhouse,9912 Hillandale Way #12,Bowie,MD,20721,555982,3,3.5,THE VILLAS AT REGENT PARK COND-AMND PHS13-25>,4024,,2007,146,138,420,Active,,,https://www.redfin.com/MD/Bowie/9912-Hillandale-Way-20721/unit-12/home/17411103,BRIGHT MLS,MDPG2109612,N,Y,38.9177565,-76.8351616
MLS Listing,,Single Family Residential,805 Quail Creek Pl,Bowie,MD,20716,999990,4,4.5,SOUTHLAKE,6000,7700,,148,167,105,Active,,,https://www.redfin.com/MD/Bowie/805-Quaul-Creek-Pl-20716/home/179309805,BRIGHT MLS,MDPG2110540,N,Y,38.892101,-76.733828
MLS Listing,,Single Family Residential,15581 Twin River Cir,Bowie,MD,20716,899990,4,3.5,SOUTHLAKE,4600,7700,,149,196,105,Active,,,https://www.redfin.com/MD/Bowie/15581-Twin-River-Cir-20716/home/179309798,BRIGHT MLS,MDPG2110502,N,Y,38.892148,-76.734208
MLS Listing,,Single Family Residential,5601 Paynes Endeavor Dr,Bowie,MD,20720,659900,4,2.5,FAIRWOOD,2796,10964,2003,167,236,129,Active,,,https://www.redfin.com/MD/Bowie/5601-Paynes-Endeavor-Dr-20720/home/11129353,BRIGHT MLS,MDPG2087778,N,Y,38.9662812,-76.7839057
MLS Listing,,Condo/Co-op,4007 Seaside Alder Rd Unit F - VIOLET - 8404,Bowie,MD,20720,430650,2,2.0,Bowie,1288,,2024,232,334,332,Active,,,https://www.redfin.com/MD/Bowie/4007-Seaside-Alder-Rd-20720/unit-F-VIOLET-8404/home/189545529,BRIGHT MLS,MDPG2102318,N,Y,38.944319,-76.791655
MLS Listing,,Condo/Co-op,4007 Seaside Alder Rd Unit H - HOLLY - 8307,Bowie,MD,20720,450240,3,2.0,Bowie,1320,,2024,232,341,338,Active,,,https://www.redfin.com/MD/Bowie/4007-Seaside-Alder-Rd-20720/unit-H-HOLLY-8307/home/189545514,BRIGHT MLS,MDPG2102316,N,Y,38.944319,-76.791655
MLS Listing,,Condo/Co-op,4007 Seaside Alder Rd Unit H - HOLLY - 8302,Bowie,MD,20720,457310,3,2.0,Bowie,1320,,2024,232,346,338,Active,,,https://www.redfin.com/MD/Bowie/4007-Seaside-Alder-Rd-20720/unit-H-HOLLY-8302/home/189545398,BRIGHT MLS,MDPG2102314,N,Y,38.944319,-76.791655
MLS Listing,,Condo/Co-op,4007 Seaside Alder Rd Unit H - HOLLY - 8202,Bowie,MD,20720,450240,3,2.0,Bowie,1320,,2024,282,341,338,Active,,,https://www.redfin.com/MD/Bowie/4007-Seaside-Alder-Rd-20720/unit-H-HOLLY-8202/home/188862501,BRIGHT MLS,MDPG2098626,N,Y,38.944319,-76.791655
MLS Listing,,Condo/Co-op,4007 Seaside Alder Rd Unit G - ROSE - 8208,Bowie,MD,20720,431990,2,2.0,Bowie,1294,,2024,282,334,333,Active,,,https://www.redfin.com/MD/Bowie/4007-Seaside-Alder-Rd-20720/unit-G-ROSE-8208/home/188862492,BRIGHT MLS,MDPG2098624,N,Y,38.944319,-76.791655
MLS Listing,,Condo/Co-op,4007 Seaside Alder Rd Unit G - ROSE - 8201,Bowie,MD,20720,443850,2,2.0,Bowie,1294,,2024,282,343,333,Active,,,https://www.redfin.com/MD/Bowie/4007-Seaside-Alder-Rd-20720/unit-G-ROSE-8201/home/188862473,BRIGHT MLS,MDPG2098622,N,Y,38.944319,-76.791655
MLS Listing,,Condo/Co-op,4007 Seaside Alder Rd Unit D- DAISY - 8101,Bowie,MD,20720,406990,1,1.0,Bowie,1005,,2024,282,405,1959,Active,,,https://www.redfin.com/MD/Bowie/4007-Seaside-Alder-Rd-20720/unit-D-DAISY-8101/home/188862296,BRIGHT MLS,MDPG2098614,N,Y,38.944319,-76.791655
MLS Listing,,Condo/Co-op,4007 Seaside Alder Rd Unit C - POPPY - 8103,Bowie,MD,20720,391990,1,1.0,Bowie,934,,2024,282,420,266,Active,,,https://www.redfin.com/MD/Bowie/4007-Seaside-Alder-Rd-20720/unit-C-POPPY-8103/home/188862273,BRIGHT MLS,MDPG2098610,N,Y,38.944319,-76.791655
MLS Listing,,Condo/Co-op,4007 Seaside Alder Rd Unit B - IVY - 8104,Bowie,MD,20720,386980,1,1.0,Bowie,888,,2024,282,436,258,Active,,,https://www.redfin.com/MD/Bowie/4007-Seaside-Alder-Rd-20720/unit-B-IVY-8104/home/188862264,BRIGHT MLS,MDPG2098606,N,Y,38.944319,-76.791655
MLS Listing,,Vacant Land,12338 Lanham Severn Rd,Bowie,MD,20720,235000,,,HUNTINGTON ESTATES>,,87120,,297,,,Active,,,https://www.redfin.com/MD/Bowie/12338-Lanham-Severn-Rd-20720/home/11154052,BRIGHT MLS,MDPG2096174,N,Y,39.004776,-76.79366
MLS Listing,,Vacant Land,Thompkins Ln,Bowie,MD,20715,500000,,,Bowie,,341510,,309,,,Active,,,https://www.redfin.com/MD/Bowie/Thompkins-Ln-20720/home/23298916,BRIGHT MLS,MDPG2095520,N,Y,39.021615,-76.779763
MLS Listing,,Vacant Land,9448 Lemons Bridge Rd,Bowie,MD,20720,115000,,,Bowie,,21780,,337,,,Active,,,https://www.redfin.com/MD/Bowie/9448-Lemons-Brg-Rd-20720/home/10896548,BRIGHT MLS,MDPG2093810,N,Y,39.020648,-76.76296
MLS Listing,,Single Family Residential,Church Rd,Bowie,MD,20720,1349000,5,5.0,BOWIE/MITCHELLVILLE,5797,43560,,388,233,,Active,,,https://www.redfin.com/MD/Bowie/Church-Rd-20720/home/23170980,BRIGHT MLS,MDPG2087386,N,Y,38.956513,-76.765716
MLS Listing,,Single Family Residential,12902 Sutters Ln,Bowie,MD,20720,555000,4,2.5,PROSPECT KNOLLLS,3412,12971,1976,471,163,,Active,,,https://www.redfin.com/MD/Bowie/12902-Sutters-Ln-20720/home/10900757,BRIGHT MLS,MDPG2071820,N,Y,38.9735181,-76.7834244
MLS Listing,,Vacant Land,5th St,Bowie,MD,20720,45000,,,BOWIE,,29621,,666,,,Active,,,https://www.redfin.com/MD/Bowie/5th-St-20720/home/23261471,BRIGHT MLS,MDPG2055672,N,Y,39.011432,-76.780087
MLS Listing,,Vacant Land,14401 Jericho Park Rd,Bowie,MD,20715,90000,,,AMBERGER SUB,,27292,,734,,,Active,,,https://www.redfin.com/MD/Bowie/14401-Jericho-Park-Rd-20715/home/181754214,BRIGHT MLS,MDPG2056880,N,Y,39.0135236,-76.7558126
MLS Listing,,Vacant Land,000-000 High Brg,Bowie,MD,20715,290000,,,Bowie,,173369,,1064,,,Active,,,https://www.redfin.com/MD/Bowie/000-000-High-BRG-20715/home/178746866,BRIGHT MLS,MDPG2014912,N,Y,38.99796332,-76.77401256
New Construction Home,,Townhouse,17214 Melford Blvd,Bowie,MD,20715,689992,4,3.5,Bowie,2874,,2024,5,240,,Active,,,https://www.redfin.com/MD/Bowie/17214-Melford-Blvd-20715/home/185396504,Zillow,B75E0DD6D088,N,Y,38.9586579,-76.7080934
New Construction Home,,Townhouse,17125 Hardisty Way,Bowie,MD,20715,639955,3,3.0,Bowie,2463,,2024,5,260,,Active,,,https://www.redfin.com/MD/Bowie/17125-Hardisty-Way-20715/home/185396526,Zillow,23B047C33850,N,Y,38.9589502,-76.7081829
New Construction Home,,Townhouse,17218 Hardisty Way,Bowie,MD,20715,639741,3,3.0,Bowie,2503,,2024,5,256,,Active,,,https://www.redfin.com/MD/Bowie/17218-Hardisty-Way-20715/home/185396361,Zillow,E4070295B046,N,Y,38.9599901,-76.7061527
New Construction Home,,Townhouse,17218 Melford Blvd,Bowie,MD,20715,689985,4,3.5,Bowie,2874,,2024,5,240,,Active,,,https://www.redfin.com/MD/Bowie/17218-Melford-Blvd-20715/home/185396506,Zillow,9672A6144F76,N,Y,38.9586575,-76.7079246
New Construction Home,,Townhouse,17216 Hardisty Way,Bowie,MD,20715,624447,4,3.5,Bowie,2503,,2024,5,249,,Active,,,https://www.redfin.com/MD/Bowie/17216-Hardisty-Way-20715/home/185396360,Zillow,1627CAA842F9,N,Y,38.9599361,-76.7061394
New Construction Home,,Townhouse,528 Glenn Lake Dr,Bowie,MD,20716,669507,4,3.5,Bowie,2774,,2024,5,241,,Active,,,https://www.redfin.com/MD/Bowie/528-Glenn-Lake-Dr-20716/home/185396623,Zillow,7FFCC528DB9E,N,Y,38.894224,-76.727478
New Construction Home,,Townhouse,5108 Rosie Oliver St,Bowie,MD,20715,579873,3,3.0,Bowie,2003,,2024,5,290,,Active,,,https://www.redfin.com/MD/Bowie/5108-Rosie-Oliver-St-20715/home/185396378,Zillow,1E62BC6BE1A4,N,Y,38.959698,-76.704949
New Construction Home,,Townhouse,17105 Hardisty Way,Bowie,MD,20715,697403,4,3.5,Bowie,2463,,2024,5,283,,Active,,,https://www.redfin.com/MD/Bowie/17105-Hardisty-Way-20715/home/185396499,Zillow,CFA02B70F57D,N,Y,38.9588623,-76.7085867
New Construction Home,,Townhouse,17206 Hardisty Way,Bowie,MD,20715,622421,4,3.5,Bowie,2503,,2024,5,249,,Active,,,https://www.redfin.com/MD/Bowie/17206-Hardisty-Way-20715/home/185396356,Zillow,A4D56F99D48E,N,Y,38.9596464,-76.7060857
New Construction Home,,Townhouse,133 Summit Point Blvd,Bowie,MD,20716,710377,4,3.5,Bowie,3112,,2024,5,228,,Active,,,https://www.redfin.com/MD/Bowie/133-Summit-Point-Blvd-20716/home/185396606,Zillow,6842F63BCE8E,N,Y,38.896611,-76.724949
New Construction Home,,Townhouse,17220 Melford Blvd,Bowie,MD,20715,689813,4,3.5,Bowie,2874,,2024,5,240,,Active,,,https://www.redfin.com/MD/Bowie/17220-Melford-Blvd-20715/home/185396507,Zillow,D1184EF28D97,N,Y,38.9586573,-76.7078402
New Construction Home,,Townhouse,17204 Hardisty Way,Bowie,MD,20715,629463,3,3.0,Bowie,2503,,2024,5,251,,Active,,,https://www.redfin.com/MD/Bowie/17204-Hardisty-Way-20715/home/185396364,Zillow,6DF3261EAABE,N,Y,38.9595915,-76.7060856
New Construction Home,,Townhouse,5104 Rosie Oliver St,Bowie,MD,20715,579710,3,3.0,Bowie,2003,,2024,5,289,,Active,,,https://www.redfin.com/MD/Bowie/5104-Rosie-Oliver-St-20715/home/185396382,Zillow,39344CEC03B4,N,Y,38.9595879,-76.704948
New Construction Home,,Townhouse,514 Glenn Lake Dr,Bowie,MD,20716,674250,3,3.5,Bowie,2774,,2024,5,243,,Active,,,https://www.redfin.com/MD/Bowie/514-Glenn-Lake-Dr-20716/home/185396629,Zillow,D48115D460FF,N,Y,38.894498,-76.727907
New Construction Home,,Townhouse,16111 Gwynn Brook Way,Bowie,MD,20716,690688,4,3.5,Bowie,2329,,2024,5,297,,Active,,,https://www.redfin.com/MD/Bowie/16111-Gwynn-Brook-Way-20716/home/179309580,Zillow,6F5A265CBE08,N,Y,38.891835,-76.725314
New Construction Home,,Townhouse,17222 Melford Blvd,Bowie,MD,20715,689225,4,3.5,Bowie,2874,,2024,5,240,,Active,,,https://www.redfin.com/MD/Bowie/17222-Melford-Blvd-20715/home/185396508,Zillow,D3C0DFBB4FCE,N,Y,38.9586571,-76.7077558
New Construction Home,,Townhouse,16123 Gwynn Brook Way,Bowie,MD,20716,674471,4,3.5,Bowie,2774,,2024,5,243,,Active,,,https://www.redfin.com/MD/Bowie/16123-Gwynn-Brook-Way-20716/home/179309573,Zillow,E3BA6FD09ACE,N,Y,38.892022,-76.72485
New Construction Home,,Single Family Residential,3906 Diplomat Ave,Bowie,MD,20721,1069990,5,3.5,Bowie,3274,,2024,34,327,,Active,,,https://www.redfin.com/MD/Bowie/3906-Diplomat-Ave-20721/home/11755426,Zillow,9D4D9CC00DE1,N,Y,38.944124,-76.758394
New Construction Home,,Townhouse,16912 Saint Helen Ave,Bowie,MD,20716,514990,4,3.5,Bowie,2201,,2024,35,234,,Active,,,https://www.redfin.com/MD/Bowie/16912-Saint-Helen-Ave-20716/home/185396811,Zillow,B6571072B4C8,N,Y,38.936731,-76.712456
New Construction Home,,Townhouse,16904 Saint Helen Ave,Bowie,MD,20716,514990,3,3.5,Bowie,2118,,2024,83,243,,Active,,,https://www.redfin.com/MD/Bowie/16904-Saint-Helen-Ave-20716/home/190301358,Zillow,862A1F0AAFB2,N,Y,38.936519,-76.712701
New Construction Home,,Single Family Residential,Meadow Creek Dr Unit N57,Bowie,MD,20716,949990,5,5.5,Bowie,4415,,2024,88,215,,Active,,,https://www.redfin.com/MD/Bowie/Meadow-Creek-DR-20716/unit-N57/home/191266043,Zillow,1F672A9B887A,N,Y,38.89431381225586,-76.72953796386719
New Construction Home,,Single Family Residential,Meadow Creek Dr Unit N56,Bowie,MD,20716,1024990,5,5.0,Bowie,4639,,2024,88,221,,Active,,,https://www.redfin.com/MD/Bowie/Meadow-Creek-DR-20716/unit-N56/home/191266037,Zillow,C0A298448605,N,Y,38.89427185058594,-76.7293930053711
New Construction Plan,,Townhouse,Chelsea Plan,Bowie,MD,20715,660000,3,2.5,Bowie,2833,,,5,233,,Active,,,https://www.redfin.com/MD/Bowie/Bowie/Chelsea/home/188124984,Zillow,E4019AC9DEF2,N,Y,38.9602566,-76.7074732
New Construction Plan,,Townhouse,Greenwich Plan,Bowie,MD,20715,554000,3,3.0,Bowie,1963,,,5,282,,Active,,,https://www.redfin.com/MD/Bowie/Bowie/Greenwich/home/188125007,Zillow,9272DC2B9380,N,Y,38.9602566,-76.7074732
New Construction Plan,,Townhouse,The Waverly at South Lake Plan,Bowie,MD,20716,595000,3,2.5,Bowie,2728,,,5,218,,Active,,,https://www.redfin.com/MD/Bowie/Bowie/The-Waverly-at-South-Lake/home/188284879,Zillow,8FE36E27E65A,N,Y,38.895795,-76.725074
New Construction Plan,,Townhouse,Gramercy Plan,Bowie,MD,20715,604000,3,2.5,Bowie,2463,,,5,245,,Active,,,https://www.redfin.com/MD/Bowie/Bowie/Gramercy/home/188124950,Zillow,A5662D602449,N,Y,38.9602566,-76.7074732
New Construction Plan,,Townhouse,The Vista at South Lake Plan,Bowie,MD,20716,650000,3,2.5,Bowie,3066,,,5,212,,Active,,,https://www.redfin.com/MD/Bowie/Bowie/The-Vista-at-South-Lake/home/188281657,Zillow,75186FC13D3A,N,Y,38.895795,-76.725074
New Construction Plan,,Single Family Residential,Barbados Plan,Bowie,MD,20716,799990,3,2.5,Bowie,3503,,,100,228,,Active,,,https://www.redfin.com/MD/Bowie/Bowie/Barbados/home/191082435,Zillow,DFAE7A0C04C0,N,Y,38.89462,-76.72905
New Construction Plan,,Single Family Residential,New Haven II Plan,Bowie,MD,20716,764990,4,2.5,Bowie,3442,,,100,222,,Active,,,https://www.redfin.com/MD/Bowie/Bowie/New-Haven-II/home/191082426,Zillow,D7B5DFACEB61,N,Y,38.89462,-76.72905
New Construction Plan,,Single Family Residential,Emory II Plan,Bowie,MD,20716,839990,4,2.5,Bowie,4205,,,100,200,,Active,,,https://www.redfin.com/MD/Bowie/Bowie/Emory-II/home/191082423,Zillow,09961BC0C31C,N,Y,38.89462,-76.72905
New Construction Plan,,Single Family Residential,Creighton Plan,Bowie,MD,20716,929990,4,4.5,Bowie,4670,,,100,199,,Active,,,https://www.redfin.com/MD/Bowie/Bowie/Creighton/home/191082415,Zillow,FAD8AAAD60C5,N,Y,38.89462,-76.72905
New Construction Plan,,Single Family Residential,Richmond Plan,Bowie,MD,20716,879990,4,3.5,Bowie,4478,,,100,197,,Active,,,https://www.redfin.com/MD/Bowie/Bowie/Richmond/home/191082412,Zillow,95B3FAA95B65,N,Y,38.89462,-76.72905
New Construction Plan,,Single Family Residential,Albemarle Plan,Bowie,MD,20716,844990,4,2.5,Bowie,3809,,,100,222,,Active,,,https://www.redfin.com/MD/Bowie/Bowie/Albemarle/home/191082411,Zillow,3DA310645992,N,Y,38.89462,-76.72905
New Construction Plan,,Single Family Residential,Ballenger Plan,Bowie,MD,20716,689990,4,2.5,Bowie,2737,,,134,252,,Active,,,https://www.redfin.com/MD/Bowie/Bowie/Ballenger/home/188393379,Zillow,2FF601C5B16D,N,Y,38.890488,-76.72836
New Construction Plan,,Condo/Co-op,Picasso Plan,Bowie,MD,20716,464990,3,2.5,Bowie,2481,,,144,187,,Active,,,https://www.redfin.com/MD/Bowie/Bowie/Picasso/home/188391317,Zillow,2B823F93C48F,N,Y,38.896904,-76.723678
New Construction Plan,,Townhouse,Strauss Front Garage Plan,Bowie,MD,20716,514990,3,2.5,Bowie,2285,,,214,225,,Active,,,https://www.redfin.com/MD/Bowie/Bowie/Strauss-Front-Garage/home/189749172,Zillow,E0F876516254,N,Y,38.8971527,-76.7241407
New Construction Plan,,Townhouse,Mozart Front Garage Plan,Bowie,MD,20716,494990,3,2.5,Bowie,1916,,,214,258,,Active,,,https://www.redfin.com/MD/Bowie/Bowie/Mozart-Front-Garage/home/189749161,Zillow,8455883BEEA0,N,Y,38.8971527,-76.7241407
New Construction Plan,,Townhouse,Strauss Attic Front Garage Plan,Bowie,MD,20716,569990,4,3.5,Bowie,2628,,,214,217,,Active,,,https://www.redfin.com/MD/Bowie/Bowie/Strauss-Attic-Front-Garage/home/189749159,Zillow,CB1D2693E2CB,N,Y,38.8971527,-76.7241407
New Construction Plan,,Single Family Residential,Lexington II Plan,Bowie,MD,20721,1069990,4,2.5,Bowie,3274,,,236,327,,Active,,,https://www.redfin.com/MD/Bowie/Bowie/Lexington-II/home/189507118,Zillow,1484E7451360,N,Y,38.9409241,-76.7594643
New Construction Plan,,Single Family Residential,Aspen Plan,Bowie,MD,20721,1350990,5,5.5,Bowie,5520,,,236,245,,Active,,,https://www.redfin.com/MD/Bowie/Bowie/Aspen/home/189507105,Zillow,0EE6D5394BEA,N,Y,38.9409241,-76.7594643
New Construction Plan,,Single Family Residential,Monarch Plan,Bowie,MD,20721,1340990,4,5.0,Bowie,5622,,,236,239,,Active,,,https://www.redfin.com/MD/Bowie/Bowie/Monarch/home/189507080,Zillow,08B33AAB19E5,N,Y,38.9409241,-76.7594643
New Construction Plan,,Single Family Residential,Kingsport II Plan,Bowie,MD,20721,1120990,4,2.5,Bowie,3436,,,236,326,,Active,,,https://www.redfin.com/MD/Bowie/Bowie/Kingsport-II/home/189507079,Zillow,B6EFE73368EF,N,Y,38.9409241,-76.7594643
New Construction Plan,,Single Family Residential,Monticello Plan,Bowie,MD,20721,1195990,4,2.5,Bowie,4554,,,236,263,,Active,,,https://www.redfin.com/MD/Bowie/Bowie/Monticello/home/189507077,Zillow,0C8B9D355A6E,N,Y,38.9409241,-76.7594643
New Construction Plan,,Single Family Residential,Bramante Ranch Plan,Bowie,MD,20716,699990,3,2.0,Bowie,2642,,,286,265,,Active,,,https://www.redfin.com/MD/Bowie/Bowie/Bramante-Ranch/home/188822721,Zillow,37929BE8F8EF,N,Y,38.890488,-76.72836
New Construction Plan,,Single Family Residential,Hudson Plan,Bowie,MD,20716,744990,4,2.5,Bowie,3571,,,313,209,,Active,,,https://www.redfin.com/MD/Bowie/Bowie/Hudson/home/188412357,Zillow,68314248914E,N,Y,38.890488,-76.72836
New Construction Plan,,Townhouse,The Waverly Essential Series (E-Series) Plan,Bowie,MD,20716,549990,3,2.5,Bowie,2306,,,313,239,,Active,,,https://www.redfin.com/MD/Bowie/Bowie/The-Waverly-Essential-Series-E-Series/home/188281861,Zillow,5645D2260BA4,N,Y,38.895795,-76.725074
New Construction Plan,,Townhouse,Mozart Plan,Bowie,MD,20716,479990,3,2.5,Bowie,1741,,,313,276,,Active,,,https://www.redfin.com/MD/Bowie/Bowie/Mozart/home/188411260,Zillow,3EC59872440B,N,Y,38.8971527,-76.7241407
New Construction Plan,,Townhouse,Strauss Plan,Bowie,MD,20716,499990,3,2.5,Bowie,2034,,,313,246,,Active,,,https://www.redfin.com/MD/Bowie/Bowie/Strauss/home/188424800,Zillow,B001CEF6193F,N,Y,38.8971527,-76.7241407
New Construction Plan,,Townhouse,Strauss Attic Plan,Bowie,MD,20716,554990,4,3.5,Bowie,2377,,,313,233,,Active,,,https://www.redfin.com/MD/Bowie/Bowie/Strauss-Attic/home/188407670,Zillow,FAE4DED3BA42,N,Y,38.8971527,-76.7241407
New Construction Plan,,Single Family Residential,Lehigh Plan,Bowie,MD,20716,769990,4,2.5,Bowie,3978,,,313,194,,Active,,,https://www.redfin.com/MD/Bowie/Bowie/Lehigh/home/188421163,Zillow,BD50A0DD429D,N,Y,38.890488,-76.72836
New Construction Plan,,Single Family Residential,Tyler Plan,Bowie,MD,20716,884990,4,3.5,Bowie,4611,,,313,192,,Active,,,https://www.redfin.com/MD/Bowie/Bowie/Tyler/home/188422124,Zillow,15FAD7150C6C,N,Y,38.890198,-76.727974
New Construction Plan,,Single Family Residential,Columbia Plan,Bowie,MD,20716,714990,4,2.5,Bowie,3133,,,313,228,,Active,,,https://www.redfin.com/MD/Bowie/Bowie/Columbia/home/188412138,Zillow,592357E0B7F2,N,Y,38.890488,-76.72836
New Construction Plan,,Single Family Residential,Longwood Plan,Bowie,MD,20716,924990,4,3.0,Bowie,4410,,,313,210,,Active,,,https://www.redfin.com/MD/Bowie/Bowie/Longwood/home/188408307,Zillow,2764DE13576B,N,Y,38.890198,-76.727974
New Construction Plan,,Single Family Residential,Stratford Hall Plan,Bowie,MD,20716,984990,4,4.5,Bowie,5747,,,313,171,,Active,,,https://www.redfin.com/MD/Bowie/Bowie/Stratford-Hall/home/188407587,Zillow,FFED9CEAEDB7,N,Y,38.890198,-76.727974
New Construction Plan,,Single Family Residential,Marymount Plan,Bowie,MD,20716,944990,4,3.5,Bowie,4701,,,313,201,,Active,,,https://www.redfin.com/MD/Bowie/Bowie/Marymount/home/188385437,Zillow,5F5721E9ED28,N,Y,38.890198,-76.727974
New Construction Plan,,Condo/Co-op,Matisse Plan,Bowie,MD,20716,419990,3,2.5,Bowie,1606,,,313,262,,Active,,,https://www.redfin.com/MD/Bowie/Bowie/Matisse/home/188381351,Zillow,DBB9BF302FDF,N,Y,38.896904,-76.723678
