SALE TYPE,SOLD DATE,PROPERTY TYPE,ADDRESS,CITY,STATE OR PROVINCE,ZIP OR POSTAL CODE,PRICE,BEDS,BATHS,LOCATION,SQUARE FEET,LOT SIZE,YEAR BUILT,DAYS ON MARKET,$/SQUARE FEET,HOA/MONTH,STATUS,NEXT OPEN HOUSE START TIME,NEXT OPEN HOUSE END TIME,URL (SEE https://www.redfin.com/buy-a-home/comparative-market-analysis FOR INFO ON PRICING),SOURCE,MLS#,FAVORITE,INTERESTED,LATITUDE,LONGITUDE
MLS Listing,,Condo/Co-op,5042 N Western Ave #2,Chicago,IL,60625,649999,3,2.0,CHI - Lincoln Square,1800,,2022,2,361,117,Active,September-21-2024 12:00 PM,September-21-2024 02:00 PM,https://www.redfin.com/IL/Chicago/5042-N-Western-Ave-60625/unit-2/home/178282564,MRED as Distributed by MLS Grid,12163791,N,Y,41.9735131,-87.6893554
MLS Listing,,Condo/Co-op,65 E Monroe St #4521,Chicago,IL,60603,794900,2,2.0,CHI - Loop,1630,,2008,5,488,1383,Active,,,https://www.redfin.com/IL/Chicago/65-E-Monroe-St-60603/unit-4521/home/39567709,MRED as Distributed by MLS Grid,12163318,N,Y,41.8806386,-87.6255308
MLS Listing,,Condo/Co-op,1255 N State Pkwy Unit 2AC,Chicago,IL,60610,750000,2,2.0,Churchill,2000,,1924,5,375,3145,Active,,,https://www.redfin.com/IL/Chicago/1255-N-State-Pkwy-60610/unit-2AC/home/14124162,MRED as Distributed by MLS Grid,12163422,N,Y,41.9056616,-87.6284312
MLS Listing,,Condo/Co-op,6264 S Gullikson Rd Unit 4B,Chicago,IL,60638,235000,2,2.0,CHI - Clearing,1100,,2005,5,214,308,Active,,,https://www.redfin.com/IL/Chicago/6264-S-Gullikson-Rd-60638/unit-4B/home/192600512,MRED as Distributed by MLS Grid,12160061,N,Y,41.7776532,-87.7981844
MLS Listing,,Condo/Co-op,4619 S Prairie Ave Unit GDN,Chicago,IL,60653,225000,3,3.0,CHI - Grand Boulevard,2500,,1902,5,90,228,Active,,,https://www.redfin.com/IL/Chicago/4619-S-Prairie-Ave-60653/unit-GDN/home/12707122,MRED as Distributed by MLS Grid,12153793,N,Y,41.8106269,-87.6191882
MLS Listing,,Condo/Co-op,5140 N Albany Ave #2,Chicago,IL,60625,294900,2,2.0,CHI - North Park,1400,,1924,6,211,359,Active,,,https://www.redfin.com/IL/Chicago/5140-N-Albany-Ave-60625/unit-2/home/12622088,MRED as Distributed by MLS Grid,12158848,N,Y,41.9751609,-87.7065229
MLS Listing,,Single Family Residential,3535 N Neva Ave,Chicago,IL,60634,334900,3,2.0,CHI - Dunning,1176,4064,1951,6,285,,Active,,,https://www.redfin.com/IL/Chicago/3535-N-Neva-Ave-60634/home/13468960,MRED as Distributed by MLS Grid,12152144,N,Y,41.9445311,-87.8054747
MLS Listing,,Condo/Co-op,2012 W Erie St Unit 3E,Chicago,IL,60612,560000,3,2.0,CHI - West Town,,,2013,6,,261,Active,,,https://www.redfin.com/IL/Chicago/2012-W-Erie-St-60612/unit-3E/home/44648843,MRED as Distributed by MLS Grid,12162701,N,Y,41.893361,-87.6776181
MLS Listing,,Condo/Co-op,212 E Cullerton St #812,Chicago,IL,60616,265000,1,1.0,CHI - Near South Side,907,,2003,6,292,378,Active,,,https://www.redfin.com/IL/Chicago/212-E-Cullerton-St-60616/unit-812/home/12677868,MRED as Distributed by MLS Grid,12162663,N,Y,41.8557482,-87.6217636
MLS Listing,,Single Family Residential,3859 W 55th St,Chicago,IL,60632,320000,5,2.0,CHI - West Elsdon,1755,3484,1950,6,182,,Active,,,https://www.redfin.com/IL/Chicago/3859-W-55th-St-60632/home/14012049,MRED as Distributed by MLS Grid,12151970,N,Y,41.7929699,-87.7205158
MLS Listing,,Condo/Co-op,3763 N Wilton Ave Unit 1S,Chicago,IL,60613,755000,3,3.0,CHI - Lake View,1800,,2008,6,419,275,Active,September-21-2024 11:00 AM,September-21-2024 01:00 PM,https://www.redfin.com/IL/Chicago/3763-N-Wilton-Ave-60613/unit-1S/home/17457988,MRED as Distributed by MLS Grid,12162578,N,Y,41.9509465,-87.6530437
MLS Listing,,Condo/Co-op,2706 W Chicago Ave #3,Chicago,IL,60622,474900,3,2.0,CHI - West Town,1700,,2007,6,279,128,Active,,,https://www.redfin.com/IL/Chicago/2706-W-Chicago-Ave-60622/unit-3/home/26810505,MRED as Distributed by MLS Grid,12162559,N,Y,41.8958821,-87.6946251
MLS Listing,,Condo/Co-op,4343 N Clarendon Ave #2409,Chicago,IL,60613,145000,0,1.0,CHI - Uptown,600,,1974,6,242,630,Active,,,https://www.redfin.com/IL/Chicago/4343-N-Clarendon-Ave-60613/unit-2409/home/13397846,MRED as Distributed by MLS Grid,12162502,N,Y,41.9612878,-87.6494037
MLS Listing,,Condo/Co-op,111 W Maple St #2407,Chicago,IL,60610,205000,1,1.0,CHI - Near North Side,550,,1991,6,373,394,Active,,,https://www.redfin.com/IL/Chicago/111-W-Maple-St-60610/unit-2407/home/12791793,MRED as Distributed by MLS Grid,12162442,N,Y,41.9016475,-87.6318546
MLS Listing,,Condo/Co-op,850 N Damen Ave Unit 2F,Chicago,IL,60622,249999,2,1.0,CHI - West Town,750,,1915,6,333,200,Active,September-21-2024 12:00 PM,September-21-2024 02:00 PM,https://www.redfin.com/IL/Chicago/850-N-Damen-Ave-60622/unit-2F/home/40378664,MRED as Distributed by MLS Grid,12159042,N,Y,41.8974111,-87.6773467
MLS Listing,,Condo/Co-op,2306 W Touhy Ave #204,Chicago,IL,60645,377000,2,2.0,CHI - West Ridge,1300,,2007,6,290,270,Active,,,https://www.redfin.com/IL/Chicago/2306-W-Touhy-Ave-60645/unit-204/home/18940881,MRED as Distributed by MLS Grid,12162322,N,Y,42.0125611,-87.6879637
MLS Listing,,Single Family Residential,5930 S Narragansett Ave,Chicago,IL,60638,390000,3,3.0,CHI - Clearing,1732,4356,1998,6,225,,Active,,,https://www.redfin.com/IL/Chicago/5930-S-Narragansett-Ave-60638/home/13997055,MRED as Distributed by MLS Grid,12141748,N,Y,41.7840789,-87.7818045
MLS Listing,,Condo/Co-op,701 S Wells St #1605,Chicago,IL,60607,354900,2,2.0,CHI - Loop,1263,,2002,7,281,945,Active,,,https://www.redfin.com/IL/Chicago/701-S-Wells-St-60607/unit-1605/home/12693469,MRED as Distributed by MLS Grid,12161834,N,Y,41.8731482,-87.6332396
MLS Listing,,Single Family Residential,32 W 109th Pl,Chicago,IL,60628,210000,3,2.5,CHI - Roseland,1717,6098,1912,7,122,,Active,,,https://www.redfin.com/IL/Chicago/32-W-109th-Pl-60628/home/13075513,MRED as Distributed by MLS Grid,12157808,N,Y,41.6954886,-87.6244211
MLS Listing,,Single Family Residential,21 W 114th Pl,Chicago,IL,60628,195000,5,2.0,CHI - Roseland,1573,6098,1888,7,124,,Active,,,https://www.redfin.com/IL/Chicago/21-W-114th-Pl-60628/home/13062008,MRED as Distributed by MLS Grid,12156061,N,Y,41.6860225,-87.6238466
MLS Listing,,Condo/Co-op,7714 N Paulina St Unit 1S,Chicago,IL,60626,359000,3,2.5,CHI - Rogers Park,1809,,1923,7,198,458,Active,September-21-2024 12:00 PM,September-21-2024 02:00 PM,https://www.redfin.com/IL/Chicago/7714-N-Paulina-St-60626/unit-1S/home/192496990,MRED as Distributed by MLS Grid,12160754,N,Y,42.0217224,-87.6733902
MLS Listing,,Condo/Co-op,444 W Fullerton Pkwy #1909,Chicago,IL,60614,425000,2,2.0,CHI - Lincoln Park,,,1972,7,,1145,Active,,,https://www.redfin.com/IL/Chicago/444-W-Fullerton-Pkwy-60614/unit-1909/home/22924476,MRED as Distributed by MLS Grid,12161430,N,Y,41.9258338,-87.6408832
MLS Listing,,Condo/Co-op,4355 S Lake Park Ave Unit 2N,Chicago,IL,60653,625000,3,3.0,CHI - Kenwood,2000,,2012,7,313,,Active,,,https://www.redfin.com/IL/Chicago/4355-S-Lake-Park-Ave-60653/unit-2N/home/64226846,MRED as Distributed by MLS Grid,12150936,N,Y,41.8156405,-87.5973525
MLS Listing,,Condo/Co-op,2238 W Walton St #2,Chicago,IL,60622,665000,3,2.0,CHI - West Town,,,1914,7,,195,Active,September-21-2024 11:00 AM,September-21-2024 01:00 PM,https://www.redfin.com/IL/Chicago/2238-W-Walton-St-60622/unit-2/home/190720788,MRED as Distributed by MLS Grid,12159247,N,Y,41.8987532,-87.6835627
MLS Listing,,Multi-Family (2-4 Unit),3342 S Aberdeen St,Chicago,IL,60608,595000,7,4.0,CHI - Bridgeport,,3125,1900,7,,,Active,,,https://www.redfin.com/IL/Chicago/3342-S-Aberdeen-St-60608/home/190326005,MRED as Distributed by MLS Grid,12161031,N,Y,41.833034,-87.6537778
MLS Listing,,Condo/Co-op,3110 W Berteau Ave #1,Chicago,IL,60618,349000,3,2.0,CHI - Irving Park,1350,,1926,8,259,405,Active,,,https://www.redfin.com/IL/Chicago/3110-W-Berteau-Ave-60618/unit-1/home/18929282,MRED as Distributed by MLS Grid,12160023,N,Y,41.9577349,-87.7060619
MLS Listing,,Condo/Co-op,2809 W Washington Blvd #101,Chicago,IL,60612,159000,1,1.0,CHI - East Garfield Park,,,1922,8,,279,Active,,,https://www.redfin.com/IL/Chicago/2809-W-Washington-Blvd-60612/unit-101/home/18941089,MRED as Distributed by MLS Grid,12159977,N,Y,41.8825983,-87.6967544
MLS Listing,,Condo/Co-op,1440 S Michigan Ave #420,Chicago,IL,60605,250000,1,1.0,CHI - Near South Side,775,,2001,8,323,366,Active,,,https://www.redfin.com/IL/Chicago/1440-S-Michigan-Ave-60605/unit-420/home/12734088,MRED as Distributed by MLS Grid,12159929,N,Y,41.8629784,-87.6243933
MLS Listing,,Single Family Residential,4543 W Schubert Ave,Chicago,IL,60639,395000,3,2.0,CHI - Hermosa,2252,3720,1927,9,175,,Active,,,https://www.redfin.com/IL/Chicago/4543-W-Schubert-Ave-60639/home/13443451,MRED as Distributed by MLS Grid,12159236,N,Y,41.929338,-87.7409552
MLS Listing,,Condo/Co-op,737 W Washington Blvd #3004,Chicago,IL,60661,569000,2,2.0,CHI - Near West Side,1300,,2003,12,438,1111,Active,September-22-2024 12:00 PM,September-22-2024 02:00 PM,https://www.redfin.com/IL/Chicago/737-W-Washington-Blvd-60661/unit-3004/home/12681021,MRED as Distributed by MLS Grid,12157517,N,Y,41.8821306,-87.6468599
MLS Listing,,Multi-Family (2-4 Unit),3445 N Oakley Ave,Chicago,IL,60618,875000,6,4.0,CHI - North Center,,,1894,12,,,Active,,,https://www.redfin.com/IL/Chicago/3445-N-Oakley-Ave-60618/home/13387188,MRED as Distributed by MLS Grid,12144296,N,Y,41.9444903,-87.6855308
MLS Listing,,Condo/Co-op,1816 W Belmont Ave #2,Chicago,IL,60657,499000,2,2.0,CHI - North Center,1300,,2005,12,384,125,Active,,,https://www.redfin.com/IL/Chicago/1816-W-Belmont-Ave-60657/unit-2/home/183900525,MRED as Distributed by MLS Grid,12149707,N,Y,41.9398174,-87.674629
MLS Listing,,Condo/Co-op,550 N Saint Clair St #2103,Chicago,IL,60611,515000,2,2.0,CHI - Near North Side,1250,,,12,412,868,Active,,,https://www.redfin.com/IL/Chicago/550-N-Saint-Clair-St-60611/unit-2103/home/39565642,MRED as Distributed by MLS Grid,12157191,N,Y,41.8922991,-87.6229169
MLS Listing,,Multi-Family (2-4 Unit),4304 N Central Park Ave,Chicago,IL,60618,799900,6,4.0,CHI - Irving Park,,3750,1914,13,,,Active,,,https://www.redfin.com/IL/Chicago/4304-N-Central-Park-Ave-60618/home/13484048,MRED as Distributed by MLS Grid,12150112,N,Y,41.9594891,-87.7182697
MLS Listing,,Condo/Co-op,70 W Burton Pl Unit 706F,Chicago,IL,60610,199900,1,1.0,Sandburg Village,,,1965,13,,556,Active,,,https://www.redfin.com/IL/Chicago/70-W-Burton-Pl-60610/unit-706F/home/14113916,MRED as Distributed by MLS Grid,12156754,N,Y,41.9096718,-87.6312396
MLS Listing,,Condo/Co-op,5318 N Ravenswood Ave #107,Chicago,IL,60640,435000,2,2.0,CHI - Lincoln Square,,,2003,13,,252,Active,,,https://www.redfin.com/IL/Chicago/5318-N-Ravenswood-Ave-60640/unit-107/home/12668922,MRED as Distributed by MLS Grid,12156686,N,Y,41.9785654,-87.6754118
MLS Listing,,Condo/Co-op,3815 S Langley Ave #301,Chicago,IL,60653,225000,2,1.5,CHI - Oakland,1200,,2007,13,188,173,Active,,,https://www.redfin.com/IL/Chicago/3815-S-Langley-Ave-60653/unit-301/home/26822528,MRED as Distributed by MLS Grid,12156513,N,Y,41.8252518,-87.6095026
MLS Listing,,Condo/Co-op,3950 N Lake Shore Dr #1506,Chicago,IL,60613,249900,2,1.0,CHI - Lake View,1100,,1957,13,227,894,Active,,,https://www.redfin.com/IL/Chicago/3950-N-Lake-Shore-Dr-60613/unit-1506/home/13380943,MRED as Distributed by MLS Grid,12151885,N,Y,41.954247,-87.6458578
MLS Listing,,Condo/Co-op,1117 W Fry St Unit G,Chicago,IL,60642,342000,2,2.0,CHI - West Town,1600,,1890,13,214,319,Active,September-22-2024 11:00 AM,September-22-2024 01:00 PM,https://www.redfin.com/IL/Chicago/1117-W-Fry-St-60642/unit-G/home/12789303,MRED as Distributed by MLS Grid,12156573,N,Y,41.8971566,-87.6559008
MLS Listing,,Condo/Co-op,2817 N Oakley Ave Unit 3E,Chicago,IL,60618,549000,2,2.0,CHI - Logan Square,1300,,2018,13,422,250,Active,,,https://www.redfin.com/IL/Chicago/2817-N-Oakley-Ave-60618/unit-3E/home/147586616,MRED as Distributed by MLS Grid,12146545,N,Y,41.9328,-87.6851772
MLS Listing,,Single Family Residential,530 N Paulina St,Chicago,IL,60622,1289000,3,3.5,CHI - West Town,2586,,2000,13,498,,Active,,,https://www.redfin.com/IL/Chicago/530-N-Paulina-St-60622/home/14104361,MRED as Distributed by MLS Grid,12153934,N,Y,41.8918439,-87.6698834
MLS Listing,,Condo/Co-op,2642 N Troy St #3,Chicago,IL,60647,495000,3,1.0,CHI - Logan Square,1300,,1906,13,381,227,Active,,,https://www.redfin.com/IL/Chicago/2642-N-Troy-St-60647/unit-3/home/26806389,MRED as Distributed by MLS Grid,12153939,N,Y,41.9298873,-87.7064901
MLS Listing,,Condo/Co-op,125 E 13th St #1114,Chicago,IL,60605,279900,1,1.0,Museum Park Lofts,800,,2004,13,350,293,Active,,,https://www.redfin.com/IL/Chicago/125-E-13th-St-60605/unit-1114/home/12637700,MRED as Distributed by MLS Grid,12156469,N,Y,41.8656294,-87.6231209
MLS Listing,,Condo/Co-op,4039 N Elston Ave #3,Chicago,IL,60618,524900,3,2.0,CHI - Irving Park,1850,,2020,13,284,202,Active,,,https://www.redfin.com/IL/Chicago/4039-N-Elston-Ave-60618/unit-3/home/171055658,MRED as Distributed by MLS Grid,12148474,N,Y,41.9548287,-87.7202578
MLS Listing,,Multi-Family (2-4 Unit),7910 S Greenwood Ave,Chicago,IL,60619,350000,11,5.0,CHI - Chatham,,3049,2008,14,,,Active,,,https://www.redfin.com/IL/Chicago/7910-S-Greenwood-Ave-60619/home/192022630,MRED as Distributed by MLS Grid,12155518,N,Y,41.7509282,-87.5982382
MLS Listing,,Single Family Residential,5750 S Merrimac Ave,Chicago,IL,60638,550000,4,3.0,CHI - Garfield Ridge,1827,4356,1955,14,301,,Active,,,https://www.redfin.com/IL/Chicago/5750-S-Merrimac-Ave-60638/home/14002900,MRED as Distributed by MLS Grid,12150795,N,Y,41.7872939,-87.7782258
MLS Listing,,Single Family Residential,10563 S Central Park Ave,Chicago,IL,60655,330000,3,2.0,CHI - Mount Greenwood,1200,5043,1938,14,275,,Active,,,https://www.redfin.com/IL/Chicago/10563-S-Central-Park-Ave-60655/home/183860915,MRED as Distributed by MLS Grid,12145481,N,Y,41.7005408,-87.710646
MLS Listing,,Condo/Co-op,1428 W Lunt Ave Unit 2N,Chicago,IL,60626,259900,2,2.0,CHI - Rogers Park,1100,,1913,15,236,328,Active,,,https://www.redfin.com/IL/Chicago/1428-W-Lunt-Ave-60626/unit-2N/home/18918988,MRED as Distributed by MLS Grid,12150736,N,Y,42.0094036,-87.6673133
MLS Listing,,Townhouse,5210 S King Dr Unit F,Chicago,IL,60615,449000,4,2.5,CHI - Washington Park,2340,10000,2010,15,192,,Active,September-21-2024 12:00 PM,September-21-2024 02:00 PM,https://www.redfin.com/IL/Chicago/5210-S-King-Dr-60615/unit-F/home/185198433,MRED as Distributed by MLS Grid,12153803,N,Y,41.800008188,-87.61638378
MLS Listing,,Condo/Co-op,2 E Erie St #3609,Chicago,IL,60611,515000,2,2.0,CHI - Near North Side,1175,,2002,15,438,791,Active,,,https://www.redfin.com/IL/Chicago/2-E-Erie-St-60611/unit-3609/home/12593252,MRED as Distributed by MLS Grid,12149023,N,Y,41.8943685,-87.6275053
MLS Listing,,Condo/Co-op,1715 W Beach Ave #1,Chicago,IL,60622,579000,3,2.5,CHI - West Town,2000,,1882,15,290,250,Active,,,https://www.redfin.com/IL/Chicago/1715-W-Beach-Ave-60622/unit-1/home/14108550,MRED as Distributed by MLS Grid,12150934,N,Y,41.907363,-87.6707028
MLS Listing,,Condo/Co-op,1740 W Foster Ave Unit 3R,Chicago,IL,60640,269900,1,1.5,CHI - Edgewater,,,1929,19,,352,Active,,,https://www.redfin.com/IL/Chicago/1740-W-Foster-Ave-60640/unit-3R/home/18932424,MRED as Distributed by MLS Grid,12151781,N,Y,41.9763951,-87.6737143
MLS Listing,,Condo/Co-op,2495 N Milwaukee Ave Unit 3N,Chicago,IL,60647,649900,3,2.0,CHI - Logan Square,1283,,2016,19,507,370,Active,,,https://www.redfin.com/IL/Chicago/2495-N-Milwaukee-Ave-60647/unit-3N/home/167530518,MRED as Distributed by MLS Grid,12148639,N,Y,41.9267802,-87.7033832
MLS Listing,,Single Family Residential,1329 W 71st St,Chicago,IL,60636,269900,6,2.5,CHI - Englewood,2051,3484,1916,19,132,,Active,,,https://www.redfin.com/IL/Chicago/1329-W-71st-St-60636/home/13915054,MRED as Distributed by MLS Grid,12147444,N,Y,41.7647741,-87.6585444
MLS Listing,,Single Family Residential,3327 W Glenlake Ave,Chicago,IL,60659,899900,6,4.5,CHI - North Park,4230,8276,1946,20,213,,Active,,,https://www.redfin.com/IL/Chicago/3327-W-Glenlake-Ave-60659/home/13516913,MRED as Distributed by MLS Grid,12151110,N,Y,41.9918784,-87.7124855
MLS Listing,,Condo/Co-op,3862 S Lake Park Ave Unit 3N,Chicago,IL,60653,390000,3,2.0,CHI - Oakland,1850,,2007,20,211,389,Active,,,https://www.redfin.com/IL/Chicago/3862-S-Lake-Park-Ave-60653/unit-3N/home/26822858,MRED as Distributed by MLS Grid,12147456,N,Y,41.8252772,-87.6044618
MLS Listing,,Condo/Co-op,6970 N Wolcott Ave Unit G,Chicago,IL,60626,124900,2,1.0,CHI - Rogers Park,900,,1927,21,139,286,Active,,,https://www.redfin.com/IL/Chicago/6970-N-Wolcott-Ave-60626/unit-G/home/12806663,MRED as Distributed by MLS Grid,12149789,N,Y,42.0085572,-87.6782711
MLS Listing,,Condo/Co-op,1101 S State St #1300,Chicago,IL,60605,399000,3,2.0,State Place Tower,1480,,2004,22,270,1276,Active,,,https://www.redfin.com/IL/Chicago/1101-S-State-St-60605/unit-1300/home/183742461,MRED as Distributed by MLS Grid,12148697,N,Y,41.8689674,-87.6270061
MLS Listing,,Condo/Co-op,1715 W Ohio St Unit 2N,Chicago,IL,60622,600000,2,2.0,CHI - West Town,,,1889,22,,505,Active,,,https://www.redfin.com/IL/Chicago/1715-W-Ohio-St-60622/unit-2N/home/12616789,MRED as Distributed by MLS Grid,12145872,N,Y,41.8920115,-87.6703405
MLS Listing,,Single Family Residential,701 W 92nd St,Chicago,IL,60620,215000,3,1.0,CHI - Washington Heights,1036,4443,1950,23,208,,Active,,,https://www.redfin.com/IL/Chicago/701-W-92nd-St-60620/home/13106627,MRED as Distributed by MLS Grid,12143027,N,Y,41.7266484,-87.6411244
MLS Listing,,Single Family Residential,1307 W Schubert Ave,Chicago,IL,60614,1525000,5,3.5,CHI - Lincoln Park,3500,3000,1992,23,436,,Active,September-21-2024 10:00 AM,September-21-2024 12:00 PM,https://www.redfin.com/IL/Chicago/1307-W-Schubert-Ave-60614/home/13362782,MRED as Distributed by MLS Grid,12147726,N,Y,41.9304999,-87.6614089
MLS Listing,,Condo/Co-op,1334 W Greenleaf Ave Unit 3D,Chicago,IL,60626,285000,2,2.0,CHI - Rogers Park,919,,1925,26,310,323,Active,,,https://www.redfin.com/IL/Chicago/1334-W-Greenleaf-Ave-60626/unit-3D/home/18940023,MRED as Distributed by MLS Grid,12142154,N,Y,42.010693,-87.663991
MLS Listing,,Condo/Co-op,655 W Irving Park Rd #5306,Chicago,IL,60613,235000,1,1.0,CHI - Lake View,816,,1973,26,288,970,Active,,,https://www.redfin.com/IL/Chicago/655-W-Irving-Park-Rd-60613/unit-5306/home/12604285,MRED as Distributed by MLS Grid,12141859,N,Y,41.9543534,-87.6469849
MLS Listing,,Single Family Residential,949 N Central Park Ave,Chicago,IL,60651,287000,5,2.0,CHI - Humboldt Park,1201,3125,1913,27,239,,Active,,,https://www.redfin.com/IL/Chicago/949-N-Central-Park-Ave-60651/home/13284893,MRED as Distributed by MLS Grid,12145208,N,Y,41.898772,-87.7161373
MLS Listing,,Condo/Co-op,4534 N Cumberland Ave #301,Chicago,IL,60656,240000,1,1.0,CHI - O'Hare,,,2002,29,,300,Active,,,https://www.redfin.com/IL/Chicago/4534-N-Cumberland-Ave-60656/unit-301/home/12701627,MRED as Distributed by MLS Grid,12143249,N,Y,41.9620305,-87.8371479
MLS Listing,,Single Family Residential,6666 W Imlay St,Chicago,IL,60631,417900,5,3.0,CHI - Norwood Park,2525,3750,1924,29,166,,Active,,,https://www.redfin.com/IL/Chicago/6666-W-Imlay-St-60631/home/13593792,MRED as Distributed by MLS Grid,12143257,N,Y,41.9993366,-87.7949283
MLS Listing,,Multi-Family (2-4 Unit),3541 N Paulina St,Chicago,IL,60657,799000,6,3.0,CHI - Lake View,,3125,1909,30,,,Active,,,https://www.redfin.com/IL/Chicago/3541-N-Paulina-St-60657/home/13384977,MRED as Distributed by MLS Grid,12139920,N,Y,41.9463741,-87.6709841
MLS Listing,,Single Family Residential,4855 W Montrose Ave,Chicago,IL,60641,479000,3,2.0,CHI - Portage Park,1421,3484,1955,30,337,,Active,,,https://www.redfin.com/IL/Chicago/4855-W-Montrose-Ave-60641/home/13476385,MRED as Distributed by MLS Grid,12137199,N,Y,41.9604971,-87.7497652
MLS Listing,,Condo/Co-op,330 N Jefferson St #1002,Chicago,IL,60661,385000,1,1.0,CHI - Near West Side,864,,2000,30,446,677,Active,,,https://www.redfin.com/IL/Chicago/330-N-Jefferson-St-60661/unit-1002/home/12599519,MRED as Distributed by MLS Grid,12141636,N,Y,41.8876953,-87.6437642
MLS Listing,,Condo/Co-op,728 W Jackson Blvd #525,Chicago,IL,60661,269000,1,1.0,CHI - Near West Side,1000,,1925,33,269,580,Active,,,https://www.redfin.com/IL/Chicago/728-W-Jackson-Blvd-60661/unit-525/home/12814495,MRED as Distributed by MLS Grid,12138238,N,Y,41.8784211,-87.6449756
MLS Listing,,Townhouse,11217 S Avenue L Ave,Chicago,IL,60617,164900,2,1.0,CHI - South Chicago,947,3250,1949,34,174,,Active,September-21-2024 11:00 AM,September-21-2024 02:00 PM,https://www.redfin.com/IL/Chicago/11217-S-Avenue-L-60617/home/13035074,MRED as Distributed by MLS Grid,12134886,N,Y,41.6912724,-87.5361926
MLS Listing,,Condo/Co-op,5652 W 63rd St Unit 3E,Chicago,IL,60638,249000,2,2.0,CHI - Clearing,1100,,2006,34,226,190,Active,,,https://www.redfin.com/IL/Chicago/5652-W-63rd-St-60638/unit-3E/home/39517861,MRED as Distributed by MLS Grid,12132570,N,Y,41.7782489,-87.7638408
MLS Listing,,Single Family Residential,11079 S Bell Ave,Chicago,IL,60643,595000,4,2.5,CHI - Morgan Park,5126,14505,1916,34,116,,Active,,,https://www.redfin.com/IL/Chicago/11079-S-Bell-Ave-60643/home/13070844,MRED as Distributed by MLS Grid,12133381,N,Y,41.6922307,-87.6772104
MLS Listing,,Single Family Residential,1423 N California Ave,Chicago,IL,60622,875000,4,3.5,CHI - West Town,4000,,2018,34,219,,Active,,,https://www.redfin.com/IL/Chicago/1423-N-California-Ave-60622/home/17557497,MRED as Distributed by MLS Grid,12139295,N,Y,41.9073107,-87.6967204
MLS Listing,,Condo/Co-op,2827 N Woodard St Unit 1S,Chicago,IL,60618,338000,2,1.0,CHI - Avondale,1200,,1920,34,282,294,Active,,,https://www.redfin.com/IL/Chicago/2827-N-Woodard-St-60618/unit-1S/home/12702072,MRED as Distributed by MLS Grid,12136477,N,Y,41.9328942,-87.7118188
MLS Listing,,Condo/Co-op,3900 N Pine Grove Ave #302,Chicago,IL,60613,325000,2,2.0,CHI - Lake View,900,,1976,34,361,675,Active,,,https://www.redfin.com/IL/Chicago/3900-N-Pine-Grove-Ave-60613/unit-302/home/12613600,MRED as Distributed by MLS Grid,12125292,N,Y,41.9531382,-87.6481721
MLS Listing,,Condo/Co-op,3150 N Lake Shore Dr Unit 8E,Chicago,IL,60657,429000,3,2.0,CHI - Lake View,1650,,1963,35,260,1193,Active,,,https://www.redfin.com/IL/Chicago/3150-N-Lake-Shore-Dr-60657/unit-8E/home/13371357,MRED as Distributed by MLS Grid,12137916,N,Y,41.9390365,-87.6385457
MLS Listing,,Multi-Family (2-4 Unit),7408 S Eberhart Ave,Chicago,IL,60619,420000,6,4.0,CHI - Greater Grand Crossing,,3049,1921,37,,,Active,,,https://www.redfin.com/IL/Chicago/7408-S-Eberhart-Ave-60619/home/13918408,MRED as Distributed by MLS Grid,12131084,N,Y,41.7599364,-87.6129876
MLS Listing,,Condo/Co-op,2101 W Rice St #101,Chicago,IL,60622,479900,2,2.0,CHI - West Town,1500,,2001,40,320,362,Active,,,https://www.redfin.com/IL/Chicago/2101-W-Rice-St-60622/unit-101/home/12739819,MRED as Distributed by MLS Grid,12125382,N,Y,41.8966715,-87.6800721
MLS Listing,,Condo/Co-op,2423 W Fullerton Ave Unit 3E,Chicago,IL,60647,499900,2,2.0,CHI - Logan Square,1000,,2021,40,500,202,Active,,,https://www.redfin.com/IL/Chicago/2423-W-Fullerton-Ave-60647/unit-3E/home/177004017,MRED as Distributed by MLS Grid,12134339,N,Y,41.9247277,-87.6884714
MLS Listing,,Townhouse,860 W Lakeside Pl Unit A,Chicago,IL,60640,515000,3,2.5,CHI - Uptown,1800,,1988,41,286,295,Active,,,https://www.redfin.com/IL/Chicago/860-W-Lakeside-Pl-60640/unit-A/home/13394120,MRED as Distributed by MLS Grid,12096036,N,Y,41.9685109,-87.6524483
MLS Listing,,Condo/Co-op,400 W Huron St #1002,Chicago,IL,60654,1424900,3,2.5,CHI - Near North Side,2200,,2017,41,648,2359,Active,,,https://www.redfin.com/IL/Chicago/400-W-Huron-St-60654/unit-1002/home/113165022,MRED as Distributed by MLS Grid,12130278,N,Y,41.8949755,-87.6387316
MLS Listing,,Condo/Co-op,5900 S King Dr Unit C-3,Chicago,IL,60637,240000,3,2.0,CHI - Washington Park,1220,,1900,42,197,257,Active,,,https://www.redfin.com/IL/Chicago/5900-S-King-Dr-60637/unit-C-3/home/183808041,MRED as Distributed by MLS Grid,12129355,N,Y,41.787336,-87.6168859
MLS Listing,,Condo/Co-op,3440 N Lake Shore Dr Unit 14B,Chicago,IL,60657,364900,2,1.0,CHI - Lake View,,,1959,42,,921,Active,,,https://www.redfin.com/IL/Chicago/3440-N-Lake-Shore-Dr-60657/unit-14B/home/13376484,MRED as Distributed by MLS Grid,12132136,N,Y,41.9444587,-87.641485
MLS Listing,,Condo/Co-op,1806 W Belmont Ave #1,Chicago,IL,60657,869900,3,3.5,CHI - North Center,2200,,2017,42,395,278,Active,,,https://www.redfin.com/IL/Chicago/1806-W-Belmont-Ave-60657/unit-1/home/171312782,MRED as Distributed by MLS Grid,12132057,N,Y,41.9398309,-87.6742495
MLS Listing,,Condo/Co-op,4454 S Vincennes Ave Unit 3S,Chicago,IL,60653,255000,3,2.0,CHI - Grand Boulevard,1700,,2005,42,150,454,Active,,,https://www.redfin.com/IL/Chicago/4454-S-Vincennes-Ave-60653/unit-3S/home/172779265,MRED as Distributed by MLS Grid,12111830,N,Y,41.813291,-87.6142577
MLS Listing,,Multi-Family (2-4 Unit),6937 S Laflin St,Chicago,IL,60636,300000,4,2.0,CHI - West Englewood,,,1928,42,,,Active,,,https://www.redfin.com/IL/Chicago/6937-S-Laflin-St-60636/home/192043684,MRED as Distributed by MLS Grid,12119584,N,Y,41.7674693,-87.6611861
MLS Listing,,Condo/Co-op,2800 N Lake Shore Dr #1710,Chicago,IL,60657,525000,2,1.0,CHI - Lake View,,,1969,44,,823,Active,,,https://www.redfin.com/IL/Chicago/2800-N-Lake-Shore-Dr-60657/unit-1710/home/13369326,MRED as Distributed by MLS Grid,12129812,N,Y,41.933219,-87.6371314
MLS Listing,,Townhouse,4412 S Oakenwald Ave,Chicago,IL,60653,549000,4,2.5,CHI - Kenwood,2995,,1879,48,183,,Active,,,https://www.redfin.com/IL/Chicago/4412-S-Oakenwald-Ave-60653/home/13961558,MRED as Distributed by MLS Grid,12127183,N,Y,41.8147834,-87.5963121
MLS Listing,,Condo/Co-op,1838 N Western Ave #303,Chicago,IL,60647,750000,3,2.0,CHI - Logan Square,,,2022,48,,273,Active,,,https://www.redfin.com/IL/Chicago/1838-N-Western-Ave-60647/unit-303/home/176556040,MRED as Distributed by MLS Grid,12121649,N,Y,41.9151548,-87.6876683
MLS Listing,,Condo/Co-op,8629 1/2 W Foster Ave Unit 1A,Chicago,IL,60656,289000,3,3.0,CHI - O'Hare,2000,,1955,50,145,310,Active,,,https://www.redfin.com/IL/Chicago/8629-W-Foster-Ave-60656/unit-1A/home/191875854,MRED as Distributed by MLS Grid,12122397,N,Y,41.9723935,-87.8423318
MLS Listing,,Condo/Co-op,240 E Illinois St #2603,Chicago,IL,60611,399900,1,1.0,CHI - Near North Side,,,2008,51,,745,Active,,,https://www.redfin.com/IL/Chicago/240-E-Illinois-St-60611/unit-2603/home/13150347,MRED as Distributed by MLS Grid,12123907,N,Y,41.8911546,-87.6210377
MLS Listing,,Condo/Co-op,4343 N Clarendon Ave #1102,Chicago,IL,60613,279000,2,2.0,CHI - Uptown,1150,,1974,51,243,1090,Active,,,https://www.redfin.com/IL/Chicago/4343-N-Clarendon-Ave-60613/unit-1102/home/13398328,MRED as Distributed by MLS Grid,12123788,N,Y,41.9612878,-87.6494037
MLS Listing,,Single Family Residential,10821 S Eberhart Ave,Chicago,IL,60628,316000,4,3.0,CHI - Roseland,1212,4791,1941,51,261,,Active,,,https://www.redfin.com/IL/Chicago/10821-S-Eberhart-Ave-60628/home/13079455,MRED as Distributed by MLS Grid,12123555,N,Y,41.6975799,-87.610811
MLS Listing,,Condo/Co-op,1322 S Wabash Ave Ph 6,Chicago,IL,60605,710000,2,2.0,CHI - Near South Side,2221,,1903,53,320,822,Active,,,https://www.redfin.com/IL/Chicago/1322-S-Wabash-Ave-60605/unit-6/home/14083420,MRED as Distributed by MLS Grid,12122885,N,Y,41.8647709,-87.6261181
MLS Listing,,Single Family Residential,9133 S Drexel Ave,Chicago,IL,60619,289900,7,3.0,CHI - Burnside,2097,3049,1927,54,138,,Active,,,https://www.redfin.com/IL/Chicago/9133-S-Drexel-Ave-60619/home/192369314,MRED as Distributed by MLS Grid,12119710,N,Y,41.7284331,-87.6006817
MLS Listing,,Single Family Residential,9145 S Pleasant Ave,Chicago,IL,60643,640000,6,3.0,CHI - Beverly,2545,,1940,55,251,,Active,,,https://www.redfin.com/IL/Chicago/9145-S-Pleasant-Ave-60643/home/13099951,MRED as Distributed by MLS Grid,12118601,N,Y,41.7274679,-87.669786
MLS Listing,,Single Family Residential,2240 N Parkside Ave,Chicago,IL,60639,375000,4,2.0,CHI - Belmont Cragin,1072,3049,1927,55,350,,Active,,,https://www.redfin.com/IL/Chicago/2240-N-Parkside-Ave-60639/home/13427897,MRED as Distributed by MLS Grid,12117726,N,Y,41.92153,-87.767413
MLS Listing,,Condo/Co-op,2413 W Fullerton Ave #3,Chicago,IL,60647,674500,2,2.0,CHI - Logan Square,2000,,2015,55,337,215,Active,,,https://www.redfin.com/IL/Chicago/2413-W-Fullerton-Ave-60647/unit-3/home/144511007,MRED as Distributed by MLS Grid,12119967,N,Y,41.9246247,-87.6883538
MLS Listing,,Single Family Residential,6307 W Berenice Ave,Chicago,IL,60634,635000,5,4.5,CHI - Dunning,2302,6250,,56,276,,Active,,,https://www.redfin.com/IL/Chicago/6307-W-Berenice-Ave-60634/home/13468149,MRED as Distributed by MLS Grid,12118991,N,Y,41.9500323,-87.7843414
MLS Listing,,Multi-Family (2-4 Unit),3125 W Pershing Rd,Chicago,IL,60632,475000,6,3.0,CHI - Brighton Park,,3049,1914,61,,,Active,,,https://www.redfin.com/IL/Chicago/3125-W-Pershing-Rd-60632/home/14039193,MRED as Distributed by MLS Grid,12116101,N,Y,41.8224263,-87.7031539
MLS Listing,,Condo/Co-op,215 N Aberdeen St Unit B401,Chicago,IL,60607,384900,2,2.0,Blue Moon Lofts,,,1918,61,,576,Active,,,https://www.redfin.com/IL/Chicago/215-N-Aberdeen-St-60607/unit-401B/home/12738789,MRED as Distributed by MLS Grid,12116146,N,Y,41.886141,-87.654329
MLS Listing,,Single Family Residential,8214 S Laflin St,Chicago,IL,60620,240000,6,2.0,CHI - Auburn Gresham,1452,3920,1923,61,165,,Active,,,https://www.redfin.com/IL/Chicago/8214-S-Laflin-St-60620/home/13907190,MRED as Distributed by MLS Grid,12106197,N,Y,41.7444049,-87.6611498
MLS Listing,,Condo/Co-op,3130 W Fullerton Ave Unit 2E,Chicago,IL,60647,430000,2,2.0,CHI - Logan Square,1250,,2008,62,344,292,Active,,,https://www.redfin.com/IL/Chicago/3130-W-Fullerton-Ave-60647/unit-2E/home/13450602,MRED as Distributed by MLS Grid,12113627,N,Y,41.9249975,-87.7059012
MLS Listing,,Condo/Co-op,500 W Superior St #802,Chicago,IL,60654,525000,2,2.0,CHI - Near North Side,1154,,2005,65,455,1350,Active,,,https://www.redfin.com/IL/Chicago/500-W-Superior-St-60654/unit-802/home/12621468,MRED as Distributed by MLS Grid,12106008,N,Y,41.895951,-87.642196
MLS Listing,,Condo/Co-op,1355 N Sandburg Ter Unit 2108D,Chicago,IL,60610,308500,1,1.0,CHI - Near North Side,850,,1950,69,363,918,Active,,,https://www.redfin.com/IL/Chicago/1355-N-Sandburg-Ter-60610/unit-2108D/home/14112609,MRED as Distributed by MLS Grid,12101257,N,Y,41.9070365,-87.6319256
MLS Listing,,Condo/Co-op,600 N Dearborn St #1101,Chicago,IL,60654,450000,2,2.0,Farallon,,,2001,70,,1013,Active,,,https://www.redfin.com/IL/Chicago/600-N-Dearborn-St-60654/unit-1101/home/12696137,MRED as Distributed by MLS Grid,12106968,N,Y,41.8926974,-87.6301704
MLS Listing,,Single Family Residential,230 W 109th St,Chicago,IL,60628,80000,3,2.0,CHI - Roseland,1218,3049,1893,71,66,,Active,,,https://www.redfin.com/IL/Chicago/230-W-109th-St-60628/home/13076103,MRED as Distributed by MLS Grid,12101814,N,Y,41.6963379,-87.6292323
MLS Listing,,Condo/Co-op,225 S Sangamon St #811,Chicago,IL,60607,450000,2,2.0,CHI - Near West Side,1000,,2007,72,450,508,Active,,,https://www.redfin.com/IL/Chicago/225-S-Sangamon-St-60607/unit-811/home/52638433,MRED as Distributed by MLS Grid,12101595,N,Y,41.8782525,-87.6504831
MLS Listing,,Single Family Residential,9129 S Marshfield Ave,Chicago,IL,60620,275000,6,2.0,CHI - Washington Heights,1192,3920,1926,73,231,,Active,,,https://www.redfin.com/IL/Chicago/9129-S-Marshfield-Ave-60620/home/13100270,MRED as Distributed by MLS Grid,12097710,N,Y,41.7275371,-87.6637652
MLS Listing,,Condo/Co-op,2440 W Irving Park Rd #3,Chicago,IL,60618,699000,3,2.0,CHI - North Center,1750,,2019,75,399,230,Active,,,https://www.redfin.com/IL/Chicago/2440-W-Irving-Park-Rd-60618/unit-3/home/144322221,MRED as Distributed by MLS Grid,12102881,N,Y,41.9541656,-87.6900815
MLS Listing,,Condo/Co-op,5300 S Shore Dr #35,Chicago,IL,60615,230000,3,2.0,CHI - Hyde Park,1650,,1922,75,139,1366,Active,,,https://www.redfin.com/IL/Chicago/5300-S-Shore-Dr-60615/unit-35/home/188142289,MRED as Distributed by MLS Grid,12098970,N,Y,41.7993832,-87.5829545
MLS Listing,,Condo/Co-op,6812 N Wayne Ave Unit 3C,Chicago,IL,60626,155000,1,1.0,CHI - Rogers Park,600,,1925,77,258,208,Active,,,https://www.redfin.com/IL/Chicago/6812-N-Wayne-Ave-60626/unit-3C/home/12653952,MRED as Distributed by MLS Grid,12097633,N,Y,42.0059745,-87.6651702
MLS Listing,,Condo/Co-op,1720 S Michigan Ave #2004,Chicago,IL,60616,231000,1,1.0,CHI - Near South Side,720,,2007,86,321,334,Active,,,https://www.redfin.com/IL/Chicago/1720-S-Michigan-Ave-60616/unit-2004/home/39571796,MRED as Distributed by MLS Grid,12093012,N,Y,41.8586026,-87.6246153
MLS Listing,,Condo/Co-op,235 W Van Buren St #4508,Chicago,IL,60607,490000,2,2.0,CHI - Loop,1155,,2009,86,424,546,Active,,,https://www.redfin.com/IL/Chicago/235-W-Van-Buren-St-60607/unit-4508/home/113099009,MRED as Distributed by MLS Grid,12085002,N,Y,41.8765303,-87.6347529
MLS Listing,,Condo/Co-op,6431 N Damen Ave Unit 1E,Chicago,IL,60645,300000,3,2.0,Edgemoor Park Condos,1100,,1960,98,273,334,Active,,,https://www.redfin.com/IL/Chicago/6431-N-Damen-Ave-60645/unit-1E/home/18943903,MRED as Distributed by MLS Grid,12082510,N,Y,41.9986704,-87.6795724
MLS Listing,,Condo/Co-op,303 W Ohio St #1604,Chicago,IL,60654,319000,1,1.0,CHI - Near North Side,728,,2009,124,438,601,Active,,,https://www.redfin.com/IL/Chicago/303-W-Ohio-St-60654/unit-1604/home/40369364,MRED as Distributed by MLS Grid,12055404,N,Y,41.8921257,-87.6357066
MLS Listing,,Condo/Co-op,1528 S Wabash Ave #401,Chicago,IL,60605,274999,2,1.0,CHI - Near South Side,1180,,1904,131,233,724,Active,,,https://www.redfin.com/IL/Chicago/1528-S-Wabash-Ave-60605/unit-401/home/12694156,MRED as Distributed by MLS Grid,12043257,N,Y,41.8609592,-87.6260054
MLS Listing,,Single Family Residential,10644 S Wallace St,Chicago,IL,60628,300000,4,3.0,CHI - Roseland,1546,3920,1926,134,194,,Active,,,https://www.redfin.com/IL/Chicago/10644-S-Wallace-St-60628/home/13079229,MRED as Distributed by MLS Grid,12043361,N,Y,41.7002039,-87.6380737
MLS Listing,,Condo/Co-op,505 N Mcclurg Ct #2602,Chicago,IL,60611,824900,2,2.0,Parkview Condominiums,1464,,2008,153,563,1275,Active,,,https://www.redfin.com/IL/Chicago/505-N-McClurg-Ct-60611/unit-2602/home/21815594,MRED as Distributed by MLS Grid,12014941,N,Y,41.8915247,-87.6173266
Redfin Data,,Condo/Co-op,260 E Chestnut St #707,Chicago,IL,60611,209900,1,1.0,Chicago,,,1965,2,,,Pre On-Market,,,https://www.redfin.com/IL/Chicago/260-E-Chestnut-St-60611/unit-707/home/14119192,Coming Soon,101722,N,Y,41.8986419,-87.6196002
Redfin Data,,Single Family Residential,11041 S Emerald Ave,Chicago,IL,60628,269900,6,3.0,Chicago,,4843,1922,2,,,Pre On-Market,,,https://www.redfin.com/IL/Chicago/11041-S-Emerald-Ave-60628/home/13077456,Coming Soon,101717,N,Y,41.6929532,-87.6409001
Redfin Data,,Condo/Co-op,1019 W Monroe St Unit 4E,Chicago,IL,60607,774900,2,2.0,Chicago,1600,,2006,2,484,340,Pre On-Market,,,https://www.redfin.com/IL/Chicago/1019-W-Monroe-St-60607/unit-4E/home/18938476,Coming Soon,101715,N,Y,41.8802007,-87.6529142
Redfin Data,,Multi-Family (2-4 Unit),5028 N Major Ave,Chicago,IL,60630,769900,8,3.0,Chicago,2442,3484,1915,5,315,,Pre On-Market,,,https://www.redfin.com/IL/Chicago/5028-N-Major-Ave-60630/home/13500899,Coming Soon,101687,N,Y,41.9731608,-87.7712875
Redfin Data,,Single Family Residential,6141 S Rockwell St,Chicago,IL,60629,125000,3,1.0,Chicago,1298,3750,1922,5,96,,Pre On-Market,,,https://www.redfin.com/IL/Chicago/6141-S-Rockwell-St-60629/home/14011652,Coming Soon,101683,N,Y,41.7816459,-87.6883309
Redfin Data,,Condo/Co-op,7031 W Touhy Ave #308,Niles,IL,60714,315000,2,1.0,Niles,1363,,1998,9,231,363,Pre On-Market,,,https://www.redfin.com/IL/Niles/7031-W-Touhy-Ave-60714/unit-308/home/192436975,Coming Soon,101562,N,Y,42.0109136,-87.8029301
Redfin Data,,Condo/Co-op,4157 N Bernard St #2,Chicago,IL,60618,245000,2,1.0,Chicago,,,1929,13,,243,Pre On-Market,,,https://www.redfin.com/IL/Chicago/4157-N-Bernard-St-60618/unit-2/home/12687243,Coming Soon,101489,N,Y,41.957332,-87.713889
Redfin Data,,Condo/Co-op,1725 W Division St #201,Chicago,IL,60622,750000,2,2.0,Chicago,,6250,,14,,580,Pre On-Market,,,https://www.redfin.com/IL/Chicago/1725-W-Division-St-60622/unit-201/home/173041437,Coming Soon,101468,N,Y,41.9029869,-87.6709723
Redfin Data,,Condo/Co-op,8 W Monroe St #2100,Chicago,IL,60603,1290000,4,2.5,Chicago,5388,,1912,49,239,2277,Pre On-Market,,,https://www.redfin.com/IL/Chicago/8-W-Monroe-St-60603/unit-2100/home/45513676,Coming Soon,100732,N,Y,41.8808597,-87.6283136
Redfin Data,,Condo/Co-op,50 E 16th St #406,Chicago,IL,60616,375000,2,2.0,Chicago,1000,,2008,70,375,728,Pre On-Market,,,https://www.redfin.com/IL/Chicago/50-E-16th-St-60616/unit-406/home/21814069,Coming Soon,100151,N,Y,41.8603983,-87.6251554
Redfin Data,,Condo/Co-op,2909 N Sheridan Rd #1607,Chicago,IL,60657,215000,1,1.0,North Side,950,,1952,82,226,866,Pre On-Market,,,https://www.redfin.com/IL/Chicago/2909-N-Sheridan-Rd-60657/unit-1607/home/13370724,Coming Soon,99858,N,Y,41.9347019,-87.6391327
MLS Listing,,Multi-Family (2-4 Unit),5035 W Adams St,Chicago,IL,60644,379500,9,3.0,CHI - Austin,,,1923,1,,,Active,,,https://www.redfin.com/IL/Chicago/5035-W-Adams-St-60644/home/13253988,MRED as Distributed by MLS Grid,12165785,N,Y,41.8782985,-87.7508108
MLS Listing,,Condo/Co-op,720 W Sheridan Rd Unit 1S,Chicago,IL,60613,289000,1,1.0,CHI - Lake View,,,,1,,487,Active,,,https://www.redfin.com/IL/Chicago/720-W-Sheridan-Rd-60613/unit-1S/home/12700029,MRED as Distributed by MLS Grid,12161768,N,Y,41.9531479,-87.6488384
MLS Listing,,Condo/Co-op,1907 N Lincoln Park West St #0,Chicago,IL,60614,3195000,6,6.0,CHI - Lincoln Park,5900,3000,2010,1,542,,Active,,,https://www.redfin.com/IL/Chicago/1907-N-Lincoln-Park-W-60614/home/18914751,MRED as Distributed by MLS Grid,12165745,N,Y,41.9168256,-87.6362245
MLS Listing,,Condo/Co-op,2424 W Farragut Ave W Unit 2B,Chicago,IL,60625,139900,2,1.0,CHI - Lincoln Square,1050,,1949,1,133,394,Active,,,https://www.redfin.com/IL/Chicago/2424-W-Farragut-Ave-60625/unit-2B/home/21686838,MRED as Distributed by MLS Grid,12163704,N,Y,41.9769957,-87.6903728
MLS Listing,,Single Family Residential,3031 S Millard Ave,Chicago,IL,60623,274777,3,3.0,Little Village,714,3125,1904,1,385,,Active,,,https://www.redfin.com/IL/Chicago/3031-S-Millard-Ave-60623/home/14148243,MRED as Distributed by MLS Grid,12165674,N,Y,41.8379194,-87.7153952
MLS Listing,,Single Family Residential,3820 S Honore St,Chicago,IL,60609,439000,4,4.0,CHI - McKinley Park,2000,2953,1893,1,220,,Active,,,https://www.redfin.com/IL/Chicago/3820-S-Honore-St-60609/home/14076975,MRED as Distributed by MLS Grid,12166788,N,Y,41.8242736,-87.6717338
MLS Listing,,Condo/Co-op,440 N Wabash Ave #2602,Chicago,IL,60611,199900,0,1.0,CHI - Near North Side,525,,1989,1,381,357,Active,,,https://www.redfin.com/IL/Chicago/440-N-Wabash-Ave-60611/unit-2602/home/12597971,MRED as Distributed by MLS Grid,12165769,N,Y,41.8903711,-87.6269739
MLS Listing,,Single Family Residential,2027 N Kedvale Ave,Chicago,IL,60639,349000,4,3.0,CHI - Hermosa,1500,3125,1911,1,233,,Active,,,https://www.redfin.com/IL/Chicago/2027-N-Kedvale-Ave-60639/home/13422176,MRED as Distributed by MLS Grid,12162378,N,Y,41.9179688,-87.7299917
MLS Listing,,Multi-Family (2-4 Unit),1732 N Sawyer Ave,Chicago,IL,60647,509900,7,3.0,CHI - Humboldt Park,,4425,1883,1,,,Active,September-21-2024 11:00 AM,September-21-2024 02:00 PM,https://www.redfin.com/IL/Chicago/1732-N-Sawyer-Ave-60647/home/13418046,MRED as Distributed by MLS Grid,12166758,N,Y,41.912901,-87.7088702
MLS Listing,,Condo/Co-op,6425 N Damen Ave Unit 1E,Chicago,IL,60645,205000,2,2.0,CHI - West Ridge,958,,,1,214,295,Active,,,https://www.redfin.com/IL/Chicago/6425-N-Damen-Ave-60645/unit-1E/home/18926262,MRED as Distributed by MLS Grid,12164597,N,Y,41.998783,-87.6798437
MLS Listing,,Multi-Family (2-4 Unit),1651 S Trumbull Ave,Chicago,IL,60623,229900,7,3.0,CHI - North Lawndale,,10890,,1,,,Active,,,https://www.redfin.com/IL/Chicago/1651-S-Trumbull-Ave-60623/home/13233138,MRED as Distributed by MLS Grid,12166777,N,Y,41.8575163,-87.711289
MLS Listing,,Single Family Residential,9817 S Calumet Ave,Chicago,IL,60628,349000,5,3.0,CHI - Roseland,2700,3125,1940,1,129,,Active,,,https://www.redfin.com/IL/Chicago/9817-S-Calumet-Ave-60628/home/13090335,MRED as Distributed by MLS Grid,12166741,N,Y,41.7158687,-87.6149298
MLS Listing,,Single Family Residential,1102 S Austin Blvd,Oak Park,IL,60304,374900,3,1.0,Oak Park,1386,4613,1917,1,270,,Active,,,https://www.redfin.com/IL/Oak-Park/1102-S-Austin-Blvd-60304/home/13251610,MRED as Distributed by MLS Grid,12166763,N,Y,41.8667137,-87.7744598
MLS Listing,,Single Family Residential,1704 W 102nd St,Chicago,IL,60643,375000,4,2.0,CHI - Beverly,1837,9757,1913,1,204,,Active,September-22-2024 11:00 AM,September-22-2024 01:00 PM,https://www.redfin.com/IL/Chicago/1704-W-102nd-St-60643/home/13095666,MRED as Distributed by MLS Grid,12165459,N,Y,41.70861,-87.664793
MLS Listing,,Condo/Co-op,1211 S Prairie Ave #1604,Chicago,IL,60605,1095000,3,3.0,Museum Park,2218,,2007,1,494,1437,Active,,,https://www.redfin.com/IL/Chicago/1211-S-Prairie-Ave-60605/unit-1604/home/39570965,MRED as Distributed by MLS Grid,12166701,N,Y,41.865053,-87.620159
MLS Listing,,Single Family Residential,2330 121st St,Blue Island,IL,60406,249900,3,1.0,Blue Island,1400,,1921,1,179,,Active,September-22-2024 01:00 PM,September-22-2024 03:00 PM,https://www.redfin.com/IL/Blue-Island/2330-121st-St-60406/home/13051817,MRED as Distributed by MLS Grid,12162269,N,Y,41.6738462,-87.6793689
MLS Listing,,Multi-Family (2-4 Unit),6601 S Rhodes Ave,Chicago,IL,60637,402700,6,2.0,CHI - Woodlawn,,500,1898,1,,,Active,,,https://www.redfin.com/IL/Chicago/6601-S-Rhodes-Ave-60637/home/183696894,MRED as Distributed by MLS Grid,12166675,N,Y,41.7747212,-87.6116603
MLS Listing,,Condo/Co-op,161 E Chicago Ave Unit 54B,Chicago,IL,60611,850000,2,2.5,Olympia Centre,2154,,1985,1,395,1985,Active,,,https://www.redfin.com/IL/Chicago/161-E-Chicago-Ave-60611/unit-54B/home/14096795,MRED as Distributed by MLS Grid,12164974,N,Y,41.8964162,-87.6233837
MLS Listing,,Multi-Family (2-4 Unit),1216 S Avers Ave,Chicago,IL,60623,409900,9,6.0,Lawndale,,3125,2008,1,,,Active,,,https://www.redfin.com/IL/Chicago/1216-S-Avers-Ave-60623/home/183787420,MRED as Distributed by MLS Grid,12166650,N,Y,41.8656259,-87.7217832
MLS Listing,,Single Family Residential,5432 N Winthrop Ave,Chicago,IL,60640,999500,4,2.5,Edgewater Beach,,3750,1895,1,,,Active,,,https://www.redfin.com/IL/Chicago/5432-N-Winthrop-Ave-60640/home/13400488,MRED as Distributed by MLS Grid,12166611,N,Y,41.9809553,-87.6582479
MLS Listing,,Single Family Residential,7606 W School St,Chicago,IL,60634,327400,3,1.5,Belmont Heights,1374,5375,1941,1,238,,Active,,,https://www.redfin.com/IL/Chicago/7606-W-School-St-60634/home/13540793,MRED as Distributed by MLS Grid,12165207,N,Y,41.9397926,-87.8168237
MLS Listing,,Single Family Residential,12233 S Morgan St,Chicago,IL,60643,219900,4,2.0,CHI - West Pullman,1175,,1950,1,187,,Active,,,https://www.redfin.com/IL/Chicago/12233-S-Morgan-St-60643/home/12583237,MRED as Distributed by MLS Grid,12038368,N,Y,41.6712815,-87.6463168
MLS Listing,,Condo/Co-op,3612 S Prairie Ave #1,Chicago,IL,60653,335000,3,2.5,CHI - Douglas,1500,3968,1892,1,223,365,Active,,,https://www.redfin.com/IL/Chicago/3612-S-Prairie-Ave-60653/unit-1/home/14071626,MRED as Distributed by MLS Grid,12166032,N,Y,41.8286513,-87.6207819
MLS Listing,,Single Family Residential,8858 S Calumet Ave,Chicago,IL,60619,89000,3,1.5,CHI - Chatham,1059,4800,1958,1,84,,Active,,,https://www.redfin.com/IL/Chicago/8858-S-Calumet-Ave-60619/home/13111113,MRED as Distributed by MLS Grid,12166678,N,Y,41.7329646,-87.6164167
MLS Listing,,Multi-Family (2-4 Unit),5307 S Emerald Ave,Chicago,IL,60609,100000,4,1.0,CHI - New City,,,1893,1,,,Active,,,https://www.redfin.com/IL/Chicago/5307-S-Emerald-Ave-60609/home/192528027,MRED as Distributed by MLS Grid,12165640,N,Y,41.7976139,-87.643805
MLS Listing,,Condo/Co-op,1555 N Astor St Unit 36E,Chicago,IL,60610,1599000,3,3.5,CHI - Near North Side,3050,,1972,1,524,3273,Active,September-21-2024 11:00 AM,September-21-2024 01:00 PM,https://www.redfin.com/IL/Chicago/1555-N-Astor-St-60610/unit-36E/home/14125742,MRED as Distributed by MLS Grid,12166551,N,Y,41.911067,-87.6274442
MLS Listing,,Condo/Co-op,1249 W Melrose St Unit 2W,Chicago,IL,60657,749000,3,2.0,CHI - Lake View,1650,,2004,1,454,352,Active,,,https://www.redfin.com/IL/Chicago/1249-W-Melrose-St-60657/unit-2W/home/12651937,MRED as Distributed by MLS Grid,12156705,N,Y,41.940463354,-87.66097426
MLS Listing,,Condo/Co-op,200 N Dearborn St #3405,Chicago,IL,60601,250000,1,1.0,CHI - Loop,,,1989,1,,584,Active,,,https://www.redfin.com/IL/Chicago/200-N-Dearborn-St-60601/unit-3405/home/144508583,MRED as Distributed by MLS Grid,12166566,N,Y,41.8860876,-87.6300102
MLS Listing,,Vacant Land,6218 S Paulina St,Chicago,IL,60636,20000,,,CHI - West Englewood,,30927,,1,,,Active,,,https://www.redfin.com/IL/Chicago/6218-S-Paulina-St-60636/home/13937046,MRED as Distributed by MLS Grid,12166619,N,Y,41.7806438,-87.66703
MLS Listing,,Vacant Land,6232 S Bishop St,Chicago,IL,60636,20000,,,CHI - West Englewood,,31363,,1,,,Active,,,https://www.redfin.com/IL/Chicago/6232-S-Bishop-St-60636/home/13939954,MRED as Distributed by MLS Grid,12166595,N,Y,41.7803418,-87.6608681
MLS Listing,,Single Family Residential,3727 N Monticello Ave,Chicago,IL,60618,1175000,5,3.5,CHI - Irving Park,3900,4125,2019,1,301,,Active,September-22-2024 12:00 PM,September-22-2024 02:00 PM,https://www.redfin.com/IL/Chicago/3727-N-Monticello-Ave-60618/home/13457562,MRED as Distributed by MLS Grid,12159637,N,Y,41.9491641,-87.7186077
MLS Listing,,Condo/Co-op,757 N Orleans St #2107,Chicago,IL,60654,689995,2,2.0,CHI - Near North Side,1279,,2008,1,539,958,Active,,,https://www.redfin.com/IL/Chicago/757-N-Orleans-St-60654/unit-2107/home/52634670,MRED as Distributed by MLS Grid,12144517,N,Y,41.8963014,-87.6365635
MLS Listing,,Condo/Co-op,2455 W Harrison St #3,Chicago,IL,60612,295000,2,2.0,CHI - Near West Side,122,,2004,1,2418,250,Active,September-21-2024 12:00 PM,September-21-2024 02:00 PM,https://www.redfin.com/IL/Chicago/2455-W-Harrison-St-60612/unit-3/home/12650581,MRED as Distributed by MLS Grid,12165520,N,Y,41.8736535,-87.6883956
MLS Listing,,Single Family Residential,6522 S Evans Ave,Chicago,IL,60637,605000,4,3.5,CHI - Woodlawn,2900,2927,1898,1,209,,Active,September-21-2024 11:00 AM,September-21-2024 01:00 PM,https://www.redfin.com/IL/Chicago/6522-S-Evans-Ave-60637/home/192598136,MRED as Distributed by MLS Grid,12165004,N,Y,41.7760556,-87.6073532
MLS Listing,,Single Family Residential,726 E 90th Pl,Chicago,IL,60619,225000,4,2.0,CHI - Chatham,1400,,1908,1,161,,Active,,,https://www.redfin.com/IL/Chicago/726-E-90th-Pl-60619/home/13110493,MRED as Distributed by MLS Grid,12166086,N,Y,41.7304533,-87.6059579
MLS Listing,,Single Family Residential,4325 S Wells St,Chicago,IL,60609,324900,4,2.0,CHI - Fuller Park,2300,1829,1934,1,141,,Active,September-21-2024 01:00 PM,September-21-2024 04:00 PM,https://www.redfin.com/IL/Chicago/4325-S-Wells-St-60609/home/52644813,MRED as Distributed by MLS Grid,12166545,N,Y,41.8156247,-87.6321048
MLS Listing,,Multi-Family (2-4 Unit),4111 W Nelson St,Chicago,IL,60641,550000,6,3.0,CHI - Avondale,,3750,1918,1,,,Active,September-22-2024 11:00 AM,September-22-2024 01:00 PM,https://www.redfin.com/IL/Chicago/4111-W-Nelson-St-60641/home/13444844,MRED as Distributed by MLS Grid,12165455,N,Y,41.9360962,-87.7300668
MLS Listing,,Condo/Co-op,6615 S Woodlawn Ave Unit 2N,Chicago,IL,60637,310000,3,2.0,CHI - Woodlawn,1700,,1907,1,182,401,Active,September-21-2024 11:00 AM,September-21-2024 02:00 PM,https://www.redfin.com/IL/Chicago/6615-S-Woodlawn-Ave-60637/unit-2N/home/18934136,MRED as Distributed by MLS Grid,12166137,N,Y,41.7745364,-87.5958201
MLS Listing,,Condo/Co-op,3600 N Pine Grove Ave Unit 3A,Chicago,IL,60613,374700,2,1.5,Pine Grove Court,1200,,1926,1,312,585,Active,September-18-2024 04:00 PM,September-18-2024 06:00 PM,https://www.redfin.com/IL/Chicago/3600-N-Pine-Grove-Ave-60613/unit-3A/home/13378769,MRED as Distributed by MLS Grid,12154857,N,Y,41.947918,-87.646028
MLS Listing,,Multi-Family (2-4 Unit),3614 N Oketo Ave,Chicago,IL,60634,460000,5,2.0,CHI - Dunning,,3920,1923,1,,,Active,,,https://www.redfin.com/IL/Chicago/3614-N-Oketo-Ave-60634/home/192597668,MRED as Distributed by MLS Grid,12154245,N,Y,41.9456946,-87.8120426
MLS Listing,,Single Family Residential,3337 N Claremont Ave,Chicago,IL,60618,1999900,6,5.0,CHI - North Center,4200,3125,2024,1,476,,Active,,,https://www.redfin.com/IL/Chicago/3337-N-Claremont-Ave-60618/home/13386567,MRED as Distributed by MLS Grid,12166194,N,Y,41.9423917,-87.686677
MLS Listing,,Single Family Residential,3905 W 85th St,Chicago,IL,60652,319900,3,2.0,CHI - Ashburn,1028,,1950,1,311,,Active,,,https://www.redfin.com/IL/Chicago/3905-W-85th-St-60652/home/13966380,MRED as Distributed by MLS Grid,12166525,N,Y,41.7383602,-87.7194809
MLS Listing,,Single Family Residential,5632 S Natoma Ave,Chicago,IL,60638,289000,3,2.0,CHI - Garfield Ridge,1720,,1941,1,168,,Active,,,https://www.redfin.com/IL/Chicago/5632-S-Natoma-Ave-60638/home/13999510,MRED as Distributed by MLS Grid,12140425,N,Y,41.7893799,-87.7880966
MLS Listing,,Condo/Co-op,2016 W Webster Ave #2,Chicago,IL,60647,549000,2,2.0,CHI - Logan Square,,,2021,1,,200,Active,September-21-2024 11:00 AM,September-21-2024 01:00 PM,https://www.redfin.com/IL/Chicago/2016-W-Webster-Ave-60647/unit-2/home/192597626,MRED as Distributed by MLS Grid,12165783,N,Y,41.9215659,-87.6784559
MLS Listing,,Condo/Co-op,1250 S Michigan Ave #2502,Chicago,IL,60605,735000,3,2.5,CHI - Near South Side,2200,,2005,1,334,1304,Active,September-22-2024 12:00 AM,September-22-2024 02:00 PM,https://www.redfin.com/IL/Chicago/1250-S-Michigan-Ave-60605/unit-2502/home/18947881,MRED as Distributed by MLS Grid,12166011,N,Y,41.8659707,-87.6243229
MLS Listing,,Condo/Co-op,2921 S Michigan Ave #204,Chicago,IL,60616,112800,1,1.0,South Commons,680,,1978,1,166,413,Active,September-19-2024 05:00 PM,September-19-2024 06:00 PM,https://www.redfin.com/IL/Chicago/2921-S-Michigan-Ave-60616/unit-204/home/12734943,MRED as Distributed by MLS Grid,12166329,N,Y,41.8413828,-87.62288
MLS Listing,,Multi-Family (2-4 Unit),4626 W Ohio St,Chicago,IL,60644,350000,4,2.0,CHI - Austin,,,1895,1,,,Active,,,https://www.redfin.com/IL/Chicago/4626-W-Ohio-St-60644/home/13262998,MRED as Distributed by MLS Grid,12166495,N,Y,41.8916272,-87.7421245
MLS Listing,,Condo/Co-op,5676 N Ridge Ave Unit 2N,Chicago,IL,60660,499000,3,2.0,CHI - Edgewater,,,1925,1,,395,Active,,,https://www.redfin.com/IL/Chicago/5676-N-Ridge-Ave-60660/unit-2N/home/13410023,MRED as Distributed by MLS Grid,12163357,N,Y,41.984929,-87.662754
MLS Listing,,Condo/Co-op,1550 N Clark St #902,Chicago,IL,60610,2000000,2,2.5,CHI - Near North Side,2477,,2020,1,807,2791,Active,,,https://www.redfin.com/IL/Chicago/1550-N-Clark-St-60610/unit-902/home/174754564,MRED as Distributed by MLS Grid,12165300,N,Y,41.9109282,-87.6319169
MLS Listing,,Single Family Residential,9944 S Sangamon St,Chicago,IL,60643,289900,5,2.0,CHI - Washington Heights,2052,,1928,1,141,,Active,,,https://www.redfin.com/IL/Chicago/9944-S-Sangamon-St-60643/home/13093922,MRED as Distributed by MLS Grid,12166487,N,Y,41.7128306,-87.6468994
MLS Listing,,Single Family Residential,7219 S Ellis Ave,Chicago,IL,60620,244900,4,2.0,CHI - Greater Grand Crossing,1888,3750,,1,130,,Active,,,https://www.redfin.com/IL/Chicago/7219-S-Ellis-Ave-60619/home/13921787,MRED as Distributed by MLS Grid,12166479,N,Y,41.7634771,-87.6003476
MLS Listing,,Condo/Co-op,1515 S Prairie Ave #1118,Chicago,IL,60605,295000,1,1.5,Prairie House,900,,2003,1,328,754,Active,,,https://www.redfin.com/IL/Chicago/1515-S-Prairie-Ave-60605/unit-1118/home/12678615,MRED as Distributed by MLS Grid,12166410,N,Y,41.8613679,-87.6201527
MLS Listing,,Vacant Land,2500 W 36th St,Chicago,IL,60632,975000,,,CHI - Brighton Park,,18530,,1,,,Active,,,https://www.redfin.com/IL/Chicago/2500-W-36th-St-60632/home/192096829,MRED as Distributed by MLS Grid,12166388,N,Y,41.8285687,-87.6877767
MLS Listing,,Condo/Co-op,1209 E 46th St Unit 2E,Chicago,IL,60653,424800,3,2.0,CHI - Kenwood,1500,,2018,1,283,220,Active,September-21-2024 01:00 PM,September-21-2024 03:00 PM,https://www.redfin.com/IL/Chicago/1209-E-46th-St-60653/unit-2E/home/185198102,MRED as Distributed by MLS Grid,12166260,N,Y,41.8105045,-87.596426
MLS Listing,,Condo/Co-op,201 N Westshore Dr #1301,Chicago,IL,60601,810000,3,2.5,CHI - Loop,1786,,2005,1,454,1314,Active,,,https://www.redfin.com/IL/Chicago/201-N-Westshore-Dr-60601/unit-1301/home/12635691,MRED as Distributed by MLS Grid,12165985,N,Y,41.8862442,-87.6160306
MLS Listing,,Condo/Co-op,5701 N Sheridan Rd Unit 16J,Chicago,IL,60660,300000,2,2.0,CHI - Edgewater,,,1962,1,,695,Active,,,https://www.redfin.com/IL/Chicago/5701-N-Sheridan-Rd-60660/unit-16J/home/13408526,MRED as Distributed by MLS Grid,12134649,N,Y,41.9860059,-87.6544907
MLS Listing,,Multi-Family (2-4 Unit),1218 W Winona Ave,Chicago,IL,60640,950000,4,2.0,CHI - Uptown,,5490,1900,1,,,Active,,,https://www.redfin.com/IL/Chicago/1218-W-Winona-St-60640/home/187377970,MRED as Distributed by MLS Grid,12157223,N,Y,41.975665,-87.6607139
MLS Listing,,Condo/Co-op,10535 S Hale Ave Unit 3W,Chicago,IL,60643,98500,1,1.0,CHI - Beverly,1300,,1930,1,76,252,Active,,,https://www.redfin.com/IL/Chicago/10535-S-Hale-Ave-60643/unit-3W/home/12607026,MRED as Distributed by MLS Grid,12166418,N,Y,41.7018929,-87.6687057
MLS Listing,,Condo/Co-op,457 W Melrose St #2,Chicago,IL,60657,1495000,4,3.5,CHI - Lake View,2700,,2016,1,554,488,Active,,,https://www.redfin.com/IL/Chicago/457-W-Melrose-St-60657/unit-2/home/169037572,MRED as Distributed by MLS Grid,12166377,N,Y,41.9408857,-87.6417657
MLS Listing,,Single Family Residential,5836 W 54th Pl,Chicago,IL,60638,339900,3,2.0,CHI - Garfield Ridge,1600,7930,1982,1,212,,Active,,,https://www.redfin.com/IL/Chicago/5836-W-54th-Pl-60638/home/14026638,MRED as Distributed by MLS Grid,12166420,N,Y,41.7933122,-87.7687811
MLS Listing,,Condo/Co-op,3930 N Janssen Ave Unit 3N,Chicago,IL,60613,1350000,4,2.5,CHI - Lake View,2230,11284,2024,1,605,250,Active,,,https://www.redfin.com/IL/Chicago/3930-N-Janssen-Ave-60613/unit-3N/home/192596084,MRED as Distributed by MLS Grid,12150033,N,Y,41.9534569,-87.6661074
MLS Listing,,Condo/Co-op,1629 S Prairie Ave #1404,Chicago,IL,60616,460000,2,2.0,CHI - Near South Side,,,2005,1,,787,Active,,,https://www.redfin.com/IL/Chicago/1629-S-Prairie-Ave-60616/unit-1404/home/39572842,MRED as Distributed by MLS Grid,12159304,N,Y,41.8595181,-87.6204887
MLS Listing,,Condo/Co-op,6836 N Lakewood Ave Unit G,Chicago,IL,60626,139900,2,1.0,CHI - Rogers Park,800,,1952,1,175,297,Active,,,https://www.redfin.com/IL/Chicago/6836-N-Lakewood-Ave-60626/unit-G/home/21682389,MRED as Distributed by MLS Grid,12166351,N,Y,42.0065543,-87.6638951
MLS Listing,,Single Family Residential,7927 S Ridgeland Ave,Chicago,IL,60617,199900,5,2.5,CHI - South Chicago,2942,,1926,1,68,,Active,,,https://www.redfin.com/IL/Chicago/7927-S-Ridgeland-Ave-60617/home/13221051,MRED as Distributed by MLS Grid,12165363,N,Y,41.7506922,-87.5814148
MLS Listing,,Condo/Co-op,3930 N Janssen Ave Unit 1N,Chicago,IL,60613,1750000,4,4.0,CHI - Lake View,4400,11438,2024,1,398,250,Active,,,https://www.redfin.com/IL/Chicago/3930-N-Janssen-Ave-60613/unit-1N/home/192596034,MRED as Distributed by MLS Grid,12149969,N,Y,41.9534569,-87.6661074
MLS Listing,,Condo/Co-op,400 E Randolph St #2225,Chicago,IL,60601,270000,1,1.0,CHI - Loop,850,,1963,1,318,720,Active,,,https://www.redfin.com/IL/Chicago/400-E-Randolph-St-60601/unit-2225/home/14095048,MRED as Distributed by MLS Grid,12153635,N,Y,41.8847693,-87.6164831
MLS Listing,,Single Family Residential,7554 S Perry Ave,Chicago,IL,60620,135000,2,1.0,CHI - Greater Grand Crossing,1200,3875,1923,1,113,,Active,,,https://www.redfin.com/IL/Chicago/7554-S-Perry-Ave-60620/home/13916403,MRED as Distributed by MLS Grid,12166333,N,Y,41.756585,-87.6283133
MLS Listing,,Condo/Co-op,2442 N Clybourn Ave Unit 5N,Chicago,IL,60614,725000,3,2.0,CHI - Lincoln Park,1690,,2016,1,429,415,Active,September-21-2024 12:00 PM,September-21-2024 02:00 PM,https://www.redfin.com/IL/Chicago/2442-N-Clybourn-Ave-60614/unit-5N/home/167583547,MRED as Distributed by MLS Grid,12166237,N,Y,41.925917,-87.670946
MLS Listing,,Condo/Co-op,3930 N Janssen Ave Unit 2N,Chicago,IL,60613,1200000,4,2.5,CHI - Lake View,2203,11406,2024,1,545,250,Active,,,https://www.redfin.com/IL/Chicago/3930-N-Janssen-Ave-60613/unit-2N/home/192595567,MRED as Distributed by MLS Grid,12150006,N,Y,41.9534569,-87.6661074
MLS Listing,,Condo/Co-op,161 E Chicago Ave Unit 50A,Chicago,IL,60611,1875000,2,2.5,CHI - Near North Side,2575,,1985,1,728,2231,Active,,,https://www.redfin.com/IL/Chicago/161-E-Chicago-Ave-60611/unit-50A/home/14097293,MRED as Distributed by MLS Grid,12165021,N,Y,41.8964162,-87.6233837
MLS Listing,,Condo/Co-op,2411 W Walton St Unit 1C,Chicago,IL,60622,450000,2,2.0,CHI - West Town,1382,,2008,1,326,308,Active,September-21-2024 11:00 AM,September-21-2024 12:30 PM,https://www.redfin.com/IL/Chicago/2411-W-Walton-St-60622/unit-1C/home/21807923,MRED as Distributed by MLS Grid,12164272,N,Y,41.8982987,-87.6873921
MLS Listing,,Condo/Co-op,474 N Lake Shore Dr #3001,Chicago,IL,60611,189000,0,1.0,CHI - Near North Side,640,,1991,1,295,506,Active,,,https://www.redfin.com/IL/Chicago/474-N-Lake-Shore-Dr-60611/unit-3001/home/12603152,MRED as Distributed by MLS Grid,12166364,N,Y,41.8908367,-87.6145904
MLS Listing,,Condo/Co-op,4451 S Indiana Ave Unit 2N,Chicago,IL,60653,225000,2,1.5,CHI - Grand Boulevard,1100,,1896,1,205,240,Active,,,https://www.redfin.com/IL/Chicago/4451-S-Indiana-Ave-60653/unit-2N/home/12707593,MRED as Distributed by MLS Grid,12163414,N,Y,41.8132915,-87.6209592
MLS Listing,,Single Family Residential,3140 101st St,Evergreen Park,IL,60805,319900,3,1.5,Evergreen Park,1394,5000,1956,1,229,,Active,,,https://www.redfin.com/IL/Evergreen-Park/3140-W-101st-St-60805/home/13159251,MRED as Distributed by MLS Grid,12166360,N,Y,41.7095606,-87.7002574
MLS Listing,,Condo/Co-op,758 N Larrabee St #620,Chicago,IL,60654,470000,2,2.0,CHI - Near North Side,1250,,2002,1,376,701,Active,September-22-2024 11:00 AM,September-22-2024 01:00 PM,https://www.redfin.com/IL/Chicago/758-N-Larrabee-St-60654/unit-620/home/12706571,MRED as Distributed by MLS Grid,12108087,N,Y,41.895943,-87.6436993
MLS Listing,,Multi-Family (2-4 Unit),5044 W Hutchinson St,Chicago,IL,60641,650000,6,3.0,CHI - Portage Park,,3484,1911,1,,,Active,,,https://www.redfin.com/IL/Chicago/5044-W-Hutchinson-St-60641/home/13478192,MRED as Distributed by MLS Grid,12166337,N,Y,41.9581305,-87.7538857
MLS Listing,,Single Family Residential,7926 W Cortland St,Elmwood Park,IL,60707,424900,4,2.0,Elmwood Park,2100,5450,1954,1,202,,Active,,,https://www.redfin.com/IL/Elmwood-Park/7926-W-Cortland-St-60707/home/192596641,MRED as Distributed by MLS Grid,12165020,N,Y,41.923374,-87.806824
MLS Listing,,Condo/Co-op,10002 S Pulaski Rd #203,Oak Lawn,IL,60453,124900,1,1.0,Crawford Terrace,700,,1975,1,178,267,Active,,,https://www.redfin.com/IL/Oak-Lawn/10002-S-Pulaski-Rd-60453/unit-203/home/13165500,MRED as Distributed by MLS Grid,12166239,N,Y,41.710992,-87.7213407
MLS Listing,,Condo/Co-op,3541 N Fremont St #3,Chicago,IL,60613,1474000,4,3.5,CHI - Lake View,,,2024,1,,300,Active,,,https://www.redfin.com/IL/Chicago/3541-N-Fremont-St-60657/unit-3/home/191218596,MRED as Distributed by MLS Grid,12166317,N,Y,41.9466575,-87.6516224
MLS Listing,,Condo/Co-op,524 N Armour St Unit 1W,Chicago,IL,60642,280000,2,1.0,CHI - West Town,,,1896,1,,145,Active,,,https://www.redfin.com/IL/Chicago/524-N-Armour-St-60642/unit-1W/home/18939044,MRED as Distributed by MLS Grid,12166299,N,Y,41.8918012,-87.665787
MLS Listing,,Condo/Co-op,1227 N Paulina St Unit 1N,Chicago,IL,60622,825000,4,3.0,CHI - West Town,3000,,2004,1,275,264,Active,September-21-2024 11:00 AM,September-21-2024 01:00 PM,https://www.redfin.com/IL/Chicago/1227-N-Paulina-St-60622/unit-1N/home/12635375,MRED as Distributed by MLS Grid,12166281,N,Y,41.9040351,-87.6699436
MLS Listing,,Multi-Family (2-4 Unit),4438 S Knox Ave,Chicago,IL,60632,350000,4,2.0,CHI - Garfield Ridge,,16125,,1,,,Active,,,https://www.redfin.com/IL/Chicago/4438-S-Knox-Ave-60632/home/192594664,MRED as Distributed by MLS Grid,12139479,N,Y,41.8120021,-87.7398937
MLS Listing,,Condo/Co-op,2904 W Cullom Ave #2,Chicago,IL,60618,300000,2,1.0,Horner Park,,,1919,1,,327,Active,September-21-2024 12:00 PM,September-21-2024 02:00 PM,https://www.redfin.com/IL/Chicago/2904-W-Cullom-Ave-60618/unit-2/home/12597313,MRED as Distributed by MLS Grid,12162228,N,Y,41.9595525,-87.7012199
MLS Listing,,Condo/Co-op,617 W Fulton St #2,Chicago,IL,60661,1599000,3,3.5,CHI - Near West Side,3000,,1872,1,533,500,Active,,,https://www.redfin.com/IL/Chicago/617-W-Fulton-St-60661/unit-2/home/180673619,MRED as Distributed by MLS Grid,12166303,N,Y,41.8866358,-87.6436676
MLS Listing,,Condo/Co-op,4838 W Henderson St Unit 1B,Chicago,IL,60641,169000,2,1.0,CHI - Portage Park,,,1930,1,,253,Active,,,https://www.redfin.com/IL/Chicago/4838-W-Henderson-St-60641/unit-1B/home/26805676,MRED as Distributed by MLS Grid,12087062,N,Y,41.9417831,-87.7486348
MLS Listing,,Condo/Co-op,420 E Waterside Dr #2903,Chicago,IL,60601,559000,2,2.0,Regatta,1182,,2006,1,473,913,Active,,,https://www.redfin.com/IL/Chicago/420-E-Waterside-Dr-60601/unit-2903/home/18913629,MRED as Distributed by MLS Grid,12165477,N,Y,41.8870911,-87.6163031
MLS Listing,,Condo/Co-op,124 W Polk St #105,Chicago,IL,60605,359000,3,2.0,CHI - Loop,1550,,1910,1,232,639,Active,September-21-2024 01:00 PM,September-21-2024 03:00 PM,https://www.redfin.com/IL/Chicago/124-W-Polk-St-60605/unit-105/home/14092436,MRED as Distributed by MLS Grid,12166067,N,Y,41.8723996,-87.6313335
MLS Listing,,Single Family Residential,6056 S Wolcott Ave,Chicago,IL,60636,195000,5,2.0,CHI - West Englewood,2274,,1915,1,86,,Active,,,https://www.redfin.com/IL/Chicago/6056-S-Wolcott-Ave-60636/home/13937184,MRED as Distributed by MLS Grid,12166013,N,Y,41.7832098,-87.6718673
MLS Listing,,Condo/Co-op,1035 N Hermitage Ave Unit 3PH,Chicago,IL,60622,1095000,3,2.5,CHI - West Town,,,,1,,200,Active,,,https://www.redfin.com/IL/Chicago/1035-N-Hermitage-Ave-60622/unit-3/home/12715027,MRED as Distributed by MLS Grid,12166196,N,Y,41.9007092,-87.6707983
MLS Listing,,Single Family Residential,915 N Howe St,Chicago,IL,60610,625000,2,2.5,CHI - Near North Side,1790,,2004,1,349,547,Active,September-21-2024 12:00 PM,September-21-2024 01:00 PM,https://www.redfin.com/IL/Chicago/915-N-Howe-St-60610/home/12612718,MRED as Distributed by MLS Grid,12166184,N,Y,41.8990193,-87.6438392
MLS Listing,,Single Family Residential,5043 N Octavia Ave,Harwood Heights,IL,60706,459000,3,2.0,Harwood Heights,1200,5662,1955,1,383,,Active,,,https://www.redfin.com/IL/Harwood-Heights/5043-N-Octavia-Ave-60706/home/13555205,MRED as Distributed by MLS Grid,12166189,N,Y,41.9720531,-87.8092172
MLS Listing,,Condo/Co-op,5108 S Woodlawn Ave Unit 3G,Chicago,IL,60615,259555,2,1.0,CHI - Hyde Park,1323,,1917,1,196,414,Active,September-21-2024 12:00 PM,September-21-2024 02:00 PM,https://www.redfin.com/IL/Chicago/5108-S-Woodlawn-Ave-60615/unit-3G/home/13949533,MRED as Distributed by MLS Grid,12160980,N,Y,41.8019712,-87.596835
MLS Listing,,Condo/Co-op,1645 W Sherwin Ave Unit 3B,Chicago,IL,60626,245000,2,1.5,CHI - Rogers Park,940,,1969,1,261,398,Active,,,https://www.redfin.com/IL/Chicago/1645-W-Sherwin-Ave-60626/unit-3B/home/12756412,MRED as Distributed by MLS Grid,12156816,N,Y,42.0145933,-87.6720478
MLS Listing,,Condo/Co-op,2441 N Sawyer Ave Unit 1N,Chicago,IL,60647,499000,2,2.0,Logan Square,1325,,1914,1,377,300,Active,,,https://www.redfin.com/IL/Chicago/2441-N-Sawyer-Ave-60647/unit-1N/home/26806209,MRED as Distributed by MLS Grid,12166142,N,Y,41.9259498,-87.7091716
MLS Listing,,Multi-Family (2-4 Unit),225 S Kilpatrick Ave,Chicago,IL,60644,240000,5,3.5,CHI - Austin,,3125,1920,1,,,Active,,,https://www.redfin.com/IL/Chicago/225-S-Kilpatrick-Ave-60644/home/13256057,MRED as Distributed by MLS Grid,12116162,N,Y,41.8772493,-87.7424707
MLS Listing,,Single Family Residential,5224 N Monitor Ave,Chicago,IL,60630,449900,4,2.0,CHI - Jefferson Park,1693,3720,1918,1,266,,Active,September-21-2024 12:00 PM,September-21-2024 02:00 PM,https://www.redfin.com/IL/Chicago/5224-N-Monitor-Ave-60630/home/13501450,MRED as Distributed by MLS Grid,12166180,N,Y,41.9764454,-87.7748283
MLS Listing,,Condo/Co-op,555 W Cornelia Ave #1606,Chicago,IL,60657,225000,1,1.0,555 Cornelia Condos,,,1961,1,,776,Active,,,https://www.redfin.com/IL/Chicago/555-W-Cornelia-Ave-60657/unit-1606/home/13376469,MRED as Distributed by MLS Grid,12166173,N,Y,41.9456908,-87.6441618
MLS Listing,,Condo/Co-op,3743 N Pine Grove Ave #3,Chicago,IL,60613,405000,2,2.0,CHI - Lake View,1100,,,1,368,620,Active,September-21-2024 11:00 AM,September-21-2024 01:00 PM,https://www.redfin.com/IL/Chicago/3743-N-Pine-Grove-Ave-60613/unit-3/home/13379474,MRED as Distributed by MLS Grid,12161349,N,Y,41.9509571,-87.6472315
MLS Listing,,Single Family Residential,7224 S Green St,Chicago,IL,60621,269000,5,3.0,CHI - Englewood,1500,3123,1889,1,179,,Active,,,https://www.redfin.com/IL/Chicago/7224-S-Green-St-60621/home/13915375,MRED as Distributed by MLS Grid,12166147,N,Y,41.7626236,-87.6458678
MLS Listing,,Multi-Family (2-4 Unit),663 E 50th St,Chicago,IL,60615,699000,9,3.0,CHI - Grand Boulevard,,,1893,1,,,Active,,,https://www.redfin.com/IL/Chicago/663-E-50th-St-60615/home/192592611,MRED as Distributed by MLS Grid,12166090,N,Y,41.8038549,-87.6088602
MLS Listing,,Multi-Family (2-4 Unit),831 N Kolin Ave,Chicago,IL,60651,175000,7,2.0,CHI - Humboldt Park,,3125,1913,1,,,Active,,,https://www.redfin.com/IL/Chicago/831-N-Kolin-Ave-60651/home/192592445,MRED as Distributed by MLS Grid,12166059,N,Y,41.8962051,-87.7344401
MLS Listing,,Condo/Co-op,165 N Canal St #1525,Chicago,IL,60606,449000,2,1.5,CHI - Near West Side,1433,57682,1922,1,313,648,Active,,,https://www.redfin.com/IL/Chicago/165-N-Canal-St-60606/unit-1525/home/12765701,MRED as Distributed by MLS Grid,12165601,N,Y,41.8850778,-87.6394117
MLS Listing,,Townhouse,9803 S Yates Blvd,Chicago,IL,60617,189900,3,2.0,CHI - South Deering,956,,1947,1,199,,Active,September-21-2024 02:00 PM,September-21-2024 04:00 PM,https://www.redfin.com/IL/Chicago/9803-S-Yates-Blvd-60617/home/13041541,MRED as Distributed by MLS Grid,12163821,N,Y,41.7170355,-87.5643366
MLS Listing,,Single Family Residential,7154 N Odell Ave,Chicago,IL,60631,674000,4,2.5,CHI - Edison Park,2700,5000,1923,1,250,,Active,,,https://www.redfin.com/IL/Chicago/7154-N-Odell-Ave-60631/home/13637454,MRED as Distributed by MLS Grid,12166115,N,Y,42.0113716,-87.8112278
MLS Listing,,Multi-Family (2-4 Unit),1607 S Sawyer Ave,Chicago,IL,60623,487500,9,3.0,CHI - North Lawndale,,3125,,1,,,Active,,,https://www.redfin.com/IL/Chicago/1607-S-Sawyer-Ave-60623/home/192591922,MRED as Distributed by MLS Grid,12166021,N,Y,41.8588194,-87.7063102
MLS Listing,,Single Family Residential,7151 N Ottawa Ave,Chicago,IL,60631,639999,4,2.5,CHI - Edison Park,1700,6345,1948,1,376,,Active,September-22-2024 01:00 AM,September-22-2024 03:00 PM,https://www.redfin.com/IL/Chicago/7151-N-Ottawa-Ave-60631/home/13638474,MRED as Distributed by MLS Grid,12149806,N,Y,42.0109429,-87.8172547
MLS Listing,,Single Family Residential,3033 W Howard St,Chicago,IL,60645,399000,5,2.0,CHI - West Ridge,1500,3844,1954,1,266,,Active,,,https://www.redfin.com/IL/Chicago/3033-W-Howard-St-60645/home/13604592,MRED as Distributed by MLS Grid,12164843,N,Y,42.0189738,-87.7056849
MLS Listing,,Condo/Co-op,1550 N Clark St #704,Chicago,IL,60610,2000000,3,3.5,CHI - Near North Side,3310,,2020,1,604,2603,Active,,,https://www.redfin.com/IL/Chicago/1550-N-Clark-St-60610/unit-704/home/177289530,MRED as Distributed by MLS Grid,12165100,N,Y,41.9109282,-87.6319169
MLS Listing,,Condo/Co-op,1457 W Roscoe St #2,Chicago,IL,60657,874999,3,2.0,CHI - Lake View,1550,,2024,1,565,,Active,,,https://www.redfin.com/IL/Chicago/1457-W-Roscoe-St-60657/unit-2/home/192591883,MRED as Distributed by MLS Grid,12154921,N,Y,41.9431652,-87.6661
MLS Listing,,Condo/Co-op,1457 W Roscoe St #1,Chicago,IL,60657,1549999,4,3.5,CHI - Lake View,3100,,2024,1,500,,Active,,,https://www.redfin.com/IL/Chicago/1457-W-Roscoe-St-60657/unit-1/home/192591882,MRED as Distributed by MLS Grid,12156590,N,Y,41.9431652,-87.6661
MLS Listing,,Multi-Family (2-4 Unit),1742 W Foster Ave,Chicago,IL,60640,1225000,11,7.0,Andersonville,,3484,1997,1,,,Active,,,https://www.redfin.com/IL/Chicago/1742-W-Foster-Ave-60640/home/13403763,MRED as Distributed by MLS Grid,12166104,N,Y,41.9763173,-87.6738126
MLS Listing,,Condo/Co-op,6451 N Bell Ave Unit 3N,Chicago,IL,60645,190000,2,1.0,CHI - West Ridge,900,,1928,1,211,372,Active,,,https://www.redfin.com/IL/Chicago/6451-N-Bell-Ave-60645/unit-3N/home/172810720,MRED as Distributed by MLS Grid,12166099,N,Y,41.9992259,-87.6861341
MLS Listing,,Condo/Co-op,659 W Randolph St #1416,Chicago,IL,60661,489000,2,2.0,CHI - Near West Side,1230,,2008,1,398,1014,Active,,,https://www.redfin.com/IL/Chicago/659-W-Randolph-St-60661/unit-1416/home/39549305,MRED as Distributed by MLS Grid,12166087,N,Y,41.8840036,-87.6447407
MLS Listing,,Condo/Co-op,1901 S Calumet Ave #1910,Chicago,IL,60616,265000,1,1.0,CHI - Near South Side,830,,2007,1,319,519,Active,,,https://www.redfin.com/IL/Chicago/1901-S-Calumet-Ave-60616/unit-1910/home/45507983,MRED as Distributed by MLS Grid,12163429,N,Y,41.8562269,-87.6185993
MLS Listing,,Condo/Co-op,5415 N Sheridan Rd #2911,Chicago,IL,60640,279900,2,2.0,CHI - Edgewater,1200,,1973,1,233,1072,Active,,,https://www.redfin.com/IL/Chicago/5415-N-Sheridan-Rd-60640/unit-2911/home/13401094,MRED as Distributed by MLS Grid,12165900,N,Y,41.9801211,-87.6543366
MLS Listing,,Single Family Residential,2736 W Wilcox St,Chicago,IL,60612,499000,3,3.0,CHI - East Garfield Park,2755,,1898,1,181,,Active,,,https://www.redfin.com/IL/Chicago/2736-W-Wilcox-St-60612/home/13259020,MRED as Distributed by MLS Grid,12159054,N,Y,41.8794938,-87.6953302
MLS Listing,,Townhouse,641 W Willow St #124,Chicago,IL,60614,799999,3,3.0,CHI - Lincoln Park,,,1986,1,,966,Active,September-21-2024 02:00 PM,September-21-2024 03:30 PM,https://www.redfin.com/IL/Chicago/641-W-Willow-St-60614/unit-124/home/13346907,MRED as Distributed by MLS Grid,12163776,N,Y,41.9137364,-87.6452049
MLS Listing,,Condo/Co-op,2707 W Glenlake Ave #3,Chicago,IL,60659,225000,2,2.0,CHI - West Ridge,1050,,1930,1,214,260,Active,,,https://www.redfin.com/IL/Chicago/2707-W-Glenlake-Ave-60659/unit-3/home/18918700,MRED as Distributed by MLS Grid,12165973,N,Y,41.992039,-87.6974962
MLS Listing,,Condo/Co-op,6118 N Damen Ave Unit 2B,Chicago,IL,60659,167777,3,1.0,CHI - West Ridge,1200,,1960,1,140,344,Active,,,https://www.redfin.com/IL/Chicago/6118-N-Damen-Ave-60659/unit-2B/home/13405977,MRED as Distributed by MLS Grid,12160788,N,Y,41.9924985,-87.6802123
MLS Listing,,Condo/Co-op,1014 N Larrabee St Unit 1S,Chicago,IL,60610,825000,4,3.0,CHI - Near North Side,2400,,2015,1,344,360,Active,,,https://www.redfin.com/IL/Chicago/1014-N-Larrabee-St-60610/unit-1S/home/69369810,MRED as Distributed by MLS Grid,12166022,N,Y,41.9009215,-87.6434153
MLS Listing,,Condo/Co-op,421 W Huron St #1508,Chicago,IL,60654,279999,1,1.0,CHI - Near North Side,750,,2001,1,373,569,Active,,,https://www.redfin.com/IL/Chicago/421-W-Huron-St-60654/unit-1508/home/12713881,MRED as Distributed by MLS Grid,12166028,N,Y,41.8944434,-87.6395533
MLS Listing,,Multi-Family (2-4 Unit),5648 N Talman Ave,Chicago,IL,60659,789000,6,3.0,CHI - West Ridge,,3720,1927,1,,,Active,September-21-2024 12:00 PM,September-21-2024 02:00 PM,https://www.redfin.com/IL/Chicago/5648-N-Talman-Ave-60659/home/13519465,MRED as Distributed by MLS Grid,12164632,N,Y,41.9845652,-87.6958675
MLS Listing,,Single Family Residential,3035 N Luna Ave,Chicago,IL,60641,449000,6,3.0,CHI - Belmont Cragin,1600,3789,1926,1,281,,Active,,,https://www.redfin.com/IL/Chicago/3035-N-Luna-Ave-60641/home/13442394,MRED as Distributed by MLS Grid,12165845,N,Y,41.9359827,-87.7649252
MLS Listing,,Condo/Co-op,617 W Addison St #3,Chicago,IL,60613,482500,2,1.5,CHI - Lake View,1400,,1916,1,345,842,Active,,,https://www.redfin.com/IL/Chicago/617-W-Addison-St-60657/unit-3/home/178671581,MRED as Distributed by MLS Grid,12165913,N,Y,41.94733,-87.6462444
MLS Listing,,Multi-Family (2-4 Unit),1609 S Sawyer Ave,Chicago,IL,60623,487500,9,3.0,CHI - North Lawndale,,3125,,1,,,Active,,,https://www.redfin.com/IL/Chicago/1609-S-Sawyer-Ave-60623/home/183721338,MRED as Distributed by MLS Grid,12161956,N,Y,41.8587514,-87.7063072
MLS Listing,,Condo/Co-op,2821 N Damen Ave #2,Chicago,IL,60618,424900,2,2.0,CHI - North Center,,,2006,1,,189,Active,,,https://www.redfin.com/IL/Chicago/2821-N-Damen-Ave-60618/unit-2/home/12593238,MRED as Distributed by MLS Grid,12165999,N,Y,41.9329361,-87.6778229
MLS Listing,,Single Family Residential,6210 W 64th St,Chicago,IL,60638,335000,4,2.0,CHI - Clearing,1200,3600,1963,1,279,,Active,,,https://www.redfin.com/IL/Chicago/6210-W-64th-St-60638/home/13995105,MRED as Distributed by MLS Grid,12165923,N,Y,41.7761593,-87.7768276
MLS Listing,,Condo/Co-op,1022 W Irving Park Rd #1,Chicago,IL,60613,445000,2,2.5,CHI - Uptown,1850,,1905,1,241,358,Active,,,https://www.redfin.com/IL/Chicago/1022-W-Irving-Park-Rd-60613/unit-1/home/13393380,MRED as Distributed by MLS Grid,12165986,N,Y,41.954714,-87.655742
MLS Listing,,Condo/Co-op,6433 N Damen Ave Unit 3E,Chicago,IL,60645,220000,2,2.0,CHI - West Ridge,986,,1954,1,223,319,Active,,,https://www.redfin.com/IL/Chicago/6433-N-Damen-Ave-60645/unit-3E/home/18943902,MRED as Distributed by MLS Grid,12165751,N,Y,41.9986705,-87.6795667
MLS Listing,,Condo/Co-op,3023 N Damen Ave #1,Chicago,IL,60618,729500,3,2.5,CHI - North Center,,,2008,1,,194,Active,,,https://www.redfin.com/IL/Chicago/3023-N-Damen-Ave-60618/unit-1/home/26809412,MRED as Distributed by MLS Grid,12165921,N,Y,41.9366152,-87.677966
MLS Listing,,Condo/Co-op,853 N Wood St #3,Chicago,IL,60622,849900,3,2.5,CHI - West Town,,,2002,1,,217,Active,,,https://www.redfin.com/IL/Chicago/853-N-Wood-St-60622/unit-3/home/12714735,MRED as Distributed by MLS Grid,12165979,N,Y,41.8975593,-87.6719104
MLS Listing,,Single Family Residential,5932 W 64th Pl,Chicago,IL,60638,435000,4,2.0,CHI - Clearing,1500,3750,1959,1,290,,Active,,,https://www.redfin.com/IL/Chicago/5932-W-64th-Pl-60638/home/13994951,MRED as Distributed by MLS Grid,12165787,N,Y,41.7753749,-87.7702648
MLS Listing,,Condo/Co-op,253 E Delaware Pl Unit 17A,Chicago,IL,60611,199000,1,1.0,CHI - Near North Side,850,,1958,1,234,688,Active,,,https://www.redfin.com/IL/Chicago/253-E-Delaware-Pl-60611/unit-17A/home/14117600,MRED as Distributed by MLS Grid,12165748,N,Y,41.8991543,-87.619966
MLS Listing,,Multi-Family (2-4 Unit),5806 W Dakin St,Chicago,IL,60634,625000,5,3.0,CHI - Portage Park,,3049,1910,1,,,Active,,,https://www.redfin.com/IL/Chicago/5806-W-Dakin-St-60634/home/13465946,MRED as Distributed by MLS Grid,12164873,N,Y,41.9523854,-87.7722021
MLS Listing,,Single Family Residential,9846 S Hamilton Ave,Chicago,IL,60643,465000,5,2.0,CHI - Beverly,2307,6185,1935,1,202,,Active,,,https://www.redfin.com/IL/Chicago/9846-S-Hamilton-Ave-60643/home/13099900,MRED as Distributed by MLS Grid,12165963,N,Y,41.7141915,-87.6760852
MLS Listing,,Vacant Land,5815 W Chicago Ave,Chicago,IL,60651,90000,,,CHI - Austin,,4892,,1,,,Active,,,https://www.redfin.com/IL/Chicago/5815-W-Chicago-Ave-60651/home/103635484,MRED as Distributed by MLS Grid,12165931,N,Y,41.8945409,-87.770769
MLS Listing,,Single Family Residential,12100 S Perry Ave,Chicago,IL,60628,299900,5,2.5,CHI - West Pullman,2537,,1959,1,118,,Active,,,https://www.redfin.com/IL/Chicago/12100-S-Perry-Ave-60628/home/13058236,MRED as Distributed by MLS Grid,12165954,N,Y,41.6741748,-87.6253112
MLS Listing,,Multi-Family (5+ Unit),1843 W Thomas St,Chicago,IL,60622,1775000,37,24.0,CHI - West Town,,3004,1889,1,,,Active,,,https://www.redfin.com/IL/Chicago/1843-W-Thomas-St-60622/home/14106536,MRED as Distributed by MLS Grid,12162877,N,Y,41.901327,-87.6740682
MLS Listing,,Condo/Co-op,1835 N Halsted St #8,Chicago,IL,60614,865000,2,2.5,CHI - Lincoln Park,,,1988,1,,467,Active,September-21-2024 12:00 PM,September-21-2024 02:00 PM,https://www.redfin.com/IL/Chicago/1835-N-Halsted-St-60614/unit-8/home/13347809,MRED as Distributed by MLS Grid,12136040,N,Y,41.9147886,-87.6482401
MLS Listing,,Multi-Family (2-4 Unit),1041 S Oakley Blvd,Chicago,IL,60612,975000,6,4.5,CHI - Near West Side,,2325,1901,1,,,Active,,,https://www.redfin.com/IL/Chicago/1041-S-Oakley-Blvd-60612/home/14087985,MRED as Distributed by MLS Grid,12130205,N,Y,41.8677973,-87.6833292
MLS Listing,,Single Family Residential,1907 W Wolfram St,Chicago,IL,60657,625000,3,2.0,CHI - North Center,,3125,,1,,,Active,September-21-2024 10:00 AM,September-21-2024 12:00 PM,https://www.redfin.com/IL/Chicago/1907-W-Wolfram-St-60657/home/13358656,MRED as Distributed by MLS Grid,12164943,N,Y,41.9330014,-87.6760852
MLS Listing,,Single Family Residential,10221 S Emerald Ave,Chicago,IL,60628,139900,4,3.0,CHI - Washington Heights,1500,6250,1885,1,93,,Active,,,https://www.redfin.com/IL/Chicago/10221-S-Emerald-Ave-60628/home/13091537,MRED as Distributed by MLS Grid,12165891,N,Y,41.7080816,-87.6414058
MLS Listing,,Condo/Co-op,800 N Michigan Ave Unit 63PH,Chicago,IL,60611,8995000,5,5.0,CHI - Near North Side,8400,,2000,1,1071,,Active,,,https://www.redfin.com/IL/Chicago/800-N-Michigan-Ave-60611/unit-63PH/home/180603587,MRED as Distributed by MLS Grid,12114621,N,Y,41.8971181,-87.6255019
MLS Listing,,Vacant Land,5616 W Ohio St,Chicago,IL,60644,21000,,,CHI - Austin,,,,1,,,Active,,,https://www.redfin.com/IL/Chicago/5616-W-Ohio-St-60644/home/13267205,MRED as Distributed by MLS Grid,12165876,N,Y,41.8912959,-87.766031
MLS Listing,,Single Family Residential,825 E 88th Pl,Chicago,IL,60619,295000,6,3.0,CHI - Chatham,2900,,1893,1,102,,Active,,,https://www.redfin.com/IL/Chicago/825-E-88th-Pl-60619/home/13115091,MRED as Distributed by MLS Grid,12165793,N,Y,41.7337263,-87.6036925
MLS Listing,,Condo/Co-op,2662 W Montrose Ave #3,Chicago,IL,60618,539000,3,2.0,CHI - Albany Park,1800,,2000,1,299,360,Active,September-21-2024 12:00 PM,September-21-2024 02:00 PM,https://www.redfin.com/IL/Chicago/2662-W-Montrose-Ave-60618/unit-3/home/12775186,MRED as Distributed by MLS Grid,12159208,N,Y,41.9614949,-87.6960525
MLS Listing,,Single Family Residential,1121 N Elmwood Ave,Oak Park,IL,60302,800000,4,3.0,Oak Park,,6279,1930,1,,,Active,September-19-2024 04:00 PM,September-19-2024 06:00 PM,https://www.redfin.com/IL/Oak-Park/1121-N-Elmwood-Ave-60302/home/13274966,MRED as Distributed by MLS Grid,12146796,N,Y,41.9064785,-87.7875652
MLS Listing,,Single Family Residential,2545 N Wayne Ave,Chicago,IL,60614,2799000,5,6.0,CHI - Lincoln Park,5300,3125,2016,1,528,,Active,,,https://www.redfin.com/IL/Chicago/2545-N-Wayne-Ave-60614/home/183808692,MRED as Distributed by MLS Grid,12165852,N,Y,41.9283575,-87.6619337
MLS Listing,,Single Family Residential,2443 W Berenice Ave,Chicago,IL,60618,785000,4,1.0,CHI - North Center,,3125,1926,1,,,Active,,,https://www.redfin.com/IL/Chicago/2443-W-Berenice-Ave-60618/home/13453140,MRED as Distributed by MLS Grid,12165841,N,Y,41.9510557,-87.6900592
MLS Listing,,Condo/Co-op,728 W Jackson Blvd #712,Chicago,IL,60661,449000,2,2.0,CHI - Near West Side,1491,,1927,1,301,806,Active,,,https://www.redfin.com/IL/Chicago/728-W-Jackson-Blvd-60661/unit-712/home/12814282,MRED as Distributed by MLS Grid,12165025,N,Y,41.8784211,-87.6449756
MLS Listing,,Multi-Family (2-4 Unit),7233 S Sangamon St,Chicago,IL,60621,139000,7,2.0,CHI - Englewood,,3125,,1,,,Active,,,https://www.redfin.com/IL/Chicago/7233-S-Sangamon-St-60621/home/192590167,MRED as Distributed by MLS Grid,12161196,N,Y,41.7623193,-87.6477409
MLS Listing,,Single Family Residential,10324 S Eberhart Ave,Chicago,IL,60628,102000,2,1.0,Rosemoor,3750,,1925,1,27,,Active,,,https://www.redfin.com/IL/Chicago/10324-S-Eberhart-Ave-60628/home/13083215,MRED as Distributed by MLS Grid,12163829,N,Y,41.7065782,-87.6118304
MLS Listing,,Single Family Residential,4422 N La Crosse Ave,Chicago,IL,60630,474900,4,2.0,CHI - Portage Park,1760,3630,1915,1,270,,Active,,,https://www.redfin.com/IL/Chicago/4422-N-La-Crosse-Ave-60630/home/13480283,MRED as Distributed by MLS Grid,12160777,N,Y,41.9614477,-87.7490752
MLS Listing,,Vacant Land,2236 W 23rd Pl,Chicago,IL,60608,144000,,,CHI - Lower West Side,,30927,,1,,,Active,,,https://www.redfin.com/IL/Chicago/2236-W-23rd-Pl-60608/home/45516661,MRED as Distributed by MLS Grid,12165796,N,Y,41.8496241,-87.6821833
MLS Listing,,Condo/Co-op,421 W Melrose St Unit 1D,Chicago,IL,60657,365000,3,2.0,CHI - Lake View,1500,,1928,1,243,1553,Active,,,https://www.redfin.com/IL/Chicago/421-W-Melrose-St-60657/unit-1D/home/13374038,MRED as Distributed by MLS Grid,12165805,N,Y,41.9409512,-87.6404769
MLS Listing,,Single Family Residential,3105 N Oconto Ave,Chicago,IL,60707,454900,4,2.0,CHI - Dunning,1837,3750,,1,248,,Active,,,https://www.redfin.com/IL/Chicago/3105-N-Oconto-Ave-60707/home/13539535,MRED as Distributed by MLS Grid,12152828,N,Y,41.9365444,-87.8076407
MLS Listing,,Condo/Co-op,111 S Morgan St #607,Chicago,IL,60607,450000,2,2.0,CHI - Near West Side,1200,,2002,1,375,727,Active,,,https://www.redfin.com/IL/Chicago/111-S-Morgan-St-60607/unit-607/home/12666463,MRED as Distributed by MLS Grid,12158772,N,Y,41.8793577,-87.6515619
MLS Listing,,Multi-Family (2-4 Unit),639-643 N Homan Ave,Chicago,IL,60624,565000,12,3.0,CHI - Humboldt Park,,6098,1926,1,,,Active,,,https://www.redfin.com/IL/Chicago/639-N-Homan-Ave-60624/home/13261618,MRED as Distributed by MLS Grid,12165631,N,Y,41.8930611,-87.7111225
MLS Listing,,Condo/Co-op,60 E Monroe St #2505,Chicago,IL,60603,375000,1,1.0,The Legacy at Millennium Park,875,,2007,1,429,608,Active,,,https://www.redfin.com/IL/Chicago/60-E-Monroe-St-60603/unit-2505/home/45511729,MRED as Distributed by MLS Grid,12162291,N,Y,41.8809978,-87.6256565
MLS Listing,,Single Family Residential,133 E 119th PL E 119th Pl,Chicago,IL,60628,220000,5,2.0,CHI - West Pullman,998,4125,1954,1,220,,Active,,,https://www.redfin.com/IL/Chicago/133-E-119th-Pl-60628/home/39908516,MRED as Distributed by MLS Grid,12164841,N,Y,41.6769676,-87.6191306
MLS Listing,,Condo/Co-op,2700 N Hampden Ct Unit 19A,Chicago,IL,60614,315000,1,1.0,CHI - Lincoln Park,785,,1969,2,401,671,Active,,,https://www.redfin.com/IL/Chicago/2700-N-Hampden-Ct-60614/unit-19A/home/13368205,MRED as Distributed by MLS Grid,12165765,N,Y,41.9308327,-87.6419459
MLS Listing,,Multi-Family (2-4 Unit),3219 W 64th St,Chicago,IL,60629,299000,5,2.0,CHI - Chicago Lawn,,3125,1913,2,,,Active,,,https://www.redfin.com/IL/Chicago/3219-W-64th-St-60629/home/13991929,MRED as Distributed by MLS Grid,12164735,N,Y,41.7769163,-87.703906
MLS Listing,,Condo/Co-op,2340 W Adams St #41,Chicago,IL,60612,489000,3,3.0,CHI - Near West Side,,,2017,2,,341,Active,,,https://www.redfin.com/IL/Chicago/2340-W-Adams-St-60612/unit-41/home/143851315,MRED as Distributed by MLS Grid,12165726,N,Y,41.8787546,-87.6854189
MLS Listing,,Single Family Residential,7211 W Ibsen St,Chicago,IL,60631,869000,6,4.0,CHI - Edison Park,3800,5183,1931,2,229,,Active,,,https://www.redfin.com/IL/Chicago/7211-W-Ibsen-St-60631/home/13637054,MRED as Distributed by MLS Grid,12165366,N,Y,42.0060825,-87.8071737
MLS Listing,,Multi-Family (2-4 Unit),2649 W Adams St,Chicago,IL,60612,435000,4,2.0,CHI - East Garfield Park,,3000,1898,2,,,Active,,,https://www.redfin.com/IL/Chicago/2649-W-Adams-St-60612/home/13259384,MRED as Distributed by MLS Grid,12161920,N,Y,41.8781735,-87.693263
MLS Listing,,Condo/Co-op,600 S Dearborn St #614,Chicago,IL,60605,289890,1,1.0,CHI - Loop,983,,1910,2,295,465,Active,,,https://www.redfin.com/IL/Chicago/600-S-Dearborn-St-60605/unit-614/home/14092243,MRED as Distributed by MLS Grid,12165704,N,Y,41.8741541,-87.6293591
MLS Listing,,Condo/Co-op,1500 N Lake Shore Dr Unit 22A,Chicago,IL,60610,3900000,4,5.5,CHI - Near North Side,6450,,1927,2,605,9938,Active,,,https://www.redfin.com/IL/Chicago/1500-N-Lake-Shore-Dr-60610/unit-22A/home/25671456,MRED as Distributed by MLS Grid,12159376,N,Y,41.909737,-87.626699
MLS Listing,,Townhouse,3383 S Archer Ave,Chicago,IL,60608,435000,3,2.5,CHI - McKinley Park,1480,,2004,2,294,95,Active,,,https://www.redfin.com/IL/Chicago/3383-S-Archer-Ave-60608/home/18923685,MRED as Distributed by MLS Grid,12165738,N,Y,41.8323172,-87.6741243
MLS Listing,,Single Family Residential,5437 S Lotus Ave,Chicago,IL,60638,269900,4,2.0,CHI - Garfield Ridge,1032,3125,1957,2,262,,Active,,,https://www.redfin.com/IL/Chicago/5437-S-Lotus-Ave-60638/home/14023048,MRED as Distributed by MLS Grid,12163421,N,Y,41.7934424,-87.7583991
MLS Listing,,Condo/Co-op,104 E 41st St Unit 2E,Chicago,IL,60653,330000,3,2.5,CHI - Grand Boulevard,2000,,2007,2,165,483,Active,,,https://www.redfin.com/IL/Chicago/104-E-41st-St-60653/unit-2E/home/26796256,MRED as Distributed by MLS Grid,12024128,N,Y,41.8203387,-87.6227337
MLS Listing,,Single Family Residential,5127 W Argyle St,Chicago,IL,60630,495000,3,2.0,CHI - Jefferson Park,2395,4000,1915,2,207,,Active,September-21-2024 11:00 AM,September-21-2024 01:00 PM,https://www.redfin.com/IL/Chicago/5127-W-Argyle-St-60630/home/13495605,MRED as Distributed by MLS Grid,12163885,N,Y,41.9713747,-87.7562677
MLS Listing,,Condo/Co-op,5218 S Dorchester Ave #3,Chicago,IL,60615,390000,3,2.0,CHI - Hyde Park,1800,,1896,2,217,600,Active,,,https://www.redfin.com/IL/Chicago/5218-S-Dorchester-Ave-60615/unit-3/home/13949866,MRED as Distributed by MLS Grid,12165334,N,Y,41.8004065,-87.5920036
MLS Listing,,Multi-Family (2-4 Unit),2244 W Taylor St,Chicago,IL,60612,840000,8,4.0,CHI - Near West Side,,2400,1991,2,,,Active,,,https://www.redfin.com/IL/Chicago/2244-W-Taylor-St-60612/home/192582515,MRED as Distributed by MLS Grid,12164661,N,Y,41.8692217,-87.6829755
MLS Listing,,Single Family Residential,10155 S Wood St,Chicago,IL,60643,590000,4,2.5,CHI - Beverly,,11136,1885,2,,,Active,,,https://www.redfin.com/IL/Chicago/10155-S-Wood-St-60643/home/13096473,MRED as Distributed by MLS Grid,12165683,N,Y,41.708388,-87.6666397
MLS Listing,,Multi-Family (5+ Unit),7048 S Western Ave,Chicago,IL,60636,164700,13,13.0,CHI - Chicago Lawn,,5376,1900,2,,,Active,,,https://www.redfin.com/IL/Chicago/7048-S-Western-Ave-60636/home/188091232,MRED as Distributed by MLS Grid,12165681,N,Y,41.7650365,-87.683636
MLS Listing,,Condo/Co-op,6200 S Evans Ave #2,Chicago,IL,60637,259900,3,2.0,CHI - Woodlawn,,,1925,2,,369,Active,September-21-2024 11:00 AM,September-21-2024 12:30 PM,https://www.redfin.com/IL/Chicago/6200-S-Evans-Ave-60637/unit-2/home/12624040,MRED as Distributed by MLS Grid,12164969,N,Y,41.782076,-87.6074927
MLS Listing,,Single Family Residential,414 W 96th Pl,Chicago,IL,60628,229000,4,2.0,CHI - Washington Heights,1366,,1957,2,168,,Active,,,https://www.redfin.com/IL/Chicago/414-W-96th-Pl-60628/home/13093182,MRED as Distributed by MLS Grid,12165629,N,Y,41.7191127,-87.6346218
MLS Listing,,Condo/Co-op,1537 W Augusta Blvd Unit 3F,Chicago,IL,60642,310000,2,1.0,CHI - West Town,,,,2,,144,Active,September-21-2024 11:00 AM,September-21-2024 01:00 PM,https://www.redfin.com/IL/Chicago/1537-W-Augusta-Blvd-60642/unit-3F/home/18923454,MRED as Distributed by MLS Grid,12165623,N,Y,41.8995044,-87.6663947
MLS Listing,,Single Family Residential,5244 S Knox Ave,Chicago,IL,60638,349900,4,2.0,CHI - Garfield Ridge,1700,7500,,2,206,,Active,,,https://www.redfin.com/IL/Chicago/5244-S-Knox-Ave-60632/home/14021130,MRED as Distributed by MLS Grid,12165505,N,Y,41.7974911,-87.7397347
MLS Listing,,Condo/Co-op,363 E Wacker Dr #2503,Chicago,IL,60601,3178000,4,4.5,CHI - Loop,3547,,2020,2,896,2138,Active,,,https://www.redfin.com/IL/Chicago/363-E-Wacker-Dr-60601/unit-2503/home/191010687,MRED as Distributed by MLS Grid,12149891,N,Y,41.8874416,-87.6174589
MLS Listing,,Single Family Residential,3352 N Narragansett Ave,Chicago,IL,60634,349900,4,2.0,CHI - Dunning,1134,4340,1923,2,309,,Active,,,https://www.redfin.com/IL/Chicago/3352-N-Narragansett-Ave-60634/home/13467000,MRED as Distributed by MLS Grid,12165144,N,Y,41.9416423,-87.7864208
MLS Listing,,Single Family Residential,4022 N Kimball Ave,Chicago,IL,60618,665000,5,3.0,CHI - Irving Park,2500,3125,1903,2,266,,Active,,,https://www.redfin.com/IL/Chicago/4022-N-Kimball-Ave-60618/home/13482697,MRED as Distributed by MLS Grid,12165386,N,Y,41.9546066,-87.7131919
MLS Listing,,Condo/Co-op,3452 N Harlem Ave W #1,Chicago,IL,60634,212500,2,2.0,CHI - Dunning,980,,1974,2,217,180,Active,,,https://www.redfin.com/IL/Chicago/3452-N-Harlem-Ave-60634/unit-1W/home/183779199,MRED as Distributed by MLS Grid,12158741,N,Y,41.9430783,-87.8072625
MLS Listing,,Multi-Family (2-4 Unit),5079 W Jackson Blvd,Chicago,IL,60644,360000,7,2.0,CHI - Austin,,3000,1912,2,,,Active,,,https://www.redfin.com/IL/Chicago/5079-W-Jackson-Blvd-60644/home/13251756,MRED as Distributed by MLS Grid,12165353,N,Y,41.8764644,-87.7525059
MLS Listing,,Condo/Co-op,1 E Schiller St Unit 16B,Chicago,IL,60610,399000,2,1.0,CHI - Near North Side,,,1964,2,,915,Active,,,https://www.redfin.com/IL/Chicago/1-E-Schiller-St-60610/unit-16B/home/190052866,MRED as Distributed by MLS Grid,12165571,N,Y,41.907619,-87.6281771
MLS Listing,,Condo/Co-op,7721 N Marshfield Ave #3,Chicago,IL,60626,370000,3,2.0,CHI - Rogers Park,1500,,1919,2,247,318,Active,,,https://www.redfin.com/IL/Chicago/7721-N-Marshfield-Ave-60626/unit-3/home/18940437,MRED as Distributed by MLS Grid,12159672,N,Y,42.0217776,-87.6717099
MLS Listing,,Condo/Co-op,400 N Clinton St #608,Chicago,IL,60654,950000,3,3.0,Kinzie Park,2202,,2000,2,431,1693,Active,September-22-2024 02:00 PM,September-22-2024 04:00 PM,https://www.redfin.com/IL/Chicago/400-N-Clinton-St-60654/unit-608/home/12766373,MRED as Distributed by MLS Grid,12165580,N,Y,41.8893482,-87.6407545
MLS Listing,,Condo/Co-op,5415 N Sheridan Rd #4912,Chicago,IL,60640,168500,0,1.0,CHI - Edgewater,600,,,2,281,561,Active,,,https://www.redfin.com/IL/Chicago/5415-N-Sheridan-Rd-60640/unit-4912/home/13401358,MRED as Distributed by MLS Grid,12165137,N,Y,41.9801211,-87.6543366
MLS Listing,,Single Family Residential,4608 S Marshfield Ave,Chicago,IL,60609,315000,4,2.0,Back of the Yards,1300,3005,1900,2,242,,Active,September-22-2024 11:00 AM,September-22-2024 02:00 PM,https://www.redfin.com/IL/Chicago/4608-S-Marshfield-Ave-60609/home/13957396,MRED as Distributed by MLS Grid,12161794,N,Y,41.8100732,-87.6664836
MLS Listing,,Multi-Family (2-4 Unit),11245 S Ewing Ave,Chicago,IL,60617,349000,7,3.0,CHI - East Side,,5000,1964,2,,,Active,,,https://www.redfin.com/IL/Chicago/11245-S-Ewing-Ave-60617/home/12563686,MRED as Distributed by MLS Grid,12165210,N,Y,41.6905303,-87.5350072
MLS Listing,,Single Family Residential,1222 W Lill Ave,Chicago,IL,60614,1050000,2,2.5,CHI - Lincoln Park,1700,2345,1960,2,618,,Active,,,https://www.redfin.com/IL/Chicago/1222-W-Lill-Ave-60614/home/13360965,MRED as Distributed by MLS Grid,12157132,N,Y,41.9278892,-87.6595447
MLS Listing,,Single Family Residential,6534 W 64th Pl,Chicago,IL,60638,397000,5,2.0,CHI - Clearing,1044,,1957,2,380,,Active,,,https://www.redfin.com/IL/Chicago/6534-W-64th-Pl-60638/home/13997077,MRED as Distributed by MLS Grid,12165512,N,Y,41.7751042,-87.7849965
MLS Listing,,Vacant Land,3040 E 79th Pl,Chicago,IL,60617,25000,,,CHI - South Chicago,,,,2,,,Active,,,https://www.redfin.com/IL/Chicago/3040-E-79th-Pl-60617/home/18504945,MRED as Distributed by MLS Grid,12164154,N,Y,41.751302,-87.550145
MLS Listing,,Single Family Residential,5407 S Justine St,Chicago,IL,60609,94900,3,2.0,CHI - New City,1058,3123,1923,2,90,,Active,,,https://www.redfin.com/IL/Chicago/5407-S-Justine-St-60609/home/13953067,MRED as Distributed by MLS Grid,12165469,N,Y,41.7956152,-87.6631388
MLS Listing,,Condo/Co-op,5415 N Sheridan Rd #915,Chicago,IL,60640,159900,1,1.0,CHI - Edgewater,680,,1974,2,235,680,Active,,,https://www.redfin.com/IL/Chicago/5415-N-Sheridan-Rd-60640/unit-915/home/13400067,MRED as Distributed by MLS Grid,12158882,N,Y,41.9801211,-87.6543366
MLS Listing,,Single Family Residential,2136 N Spaulding Ave,Chicago,IL,60647,750000,4,2.0,CHI - Logan Square,,7573,1899,2,,,Active,,,https://www.redfin.com/IL/Chicago/2136-N-Spaulding-Ave-60647/home/13419594,MRED as Distributed by MLS Grid,12165533,N,Y,41.9203289,-87.7106228
MLS Listing,,Single Family Residential,5639 N Major Ave,Chicago,IL,60646,469000,3,2.5,CHI - Jefferson Park,1200,3049,1970,2,391,,Active,,,https://www.redfin.com/IL/Chicago/5639-N-Major-Ave-60646/home/13509383,MRED as Distributed by MLS Grid,12165228,N,Y,41.9841596,-87.7704478
MLS Listing,,Single Family Residential,8227 S Wentworth Ave,Chicago,IL,60620,140000,3,2.0,CHI - Chatham,1000,2300,1965,2,140,,Active,,,https://www.redfin.com/IL/Chicago/8227-S-Wentworth-Ave-60620/home/13226682,MRED as Distributed by MLS Grid,12165481,N,Y,41.7445902,-87.6289016
MLS Listing,,Condo/Co-op,780 S Federal St #401,Chicago,IL,60605,339900,2,2.0,Printers Square,1260,,1913,2,270,939,Active,,,https://www.redfin.com/IL/Chicago/780-S-Federal-St-60605/unit-401/home/18938494,MRED as Distributed by MLS Grid,12165082,N,Y,41.8725505,-87.6297181
MLS Listing,,Condo/Co-op,1347 W Eddy St #308,Chicago,IL,60657,259000,1,1.0,CHI - Lake View,,,,2,,260,Active,,,https://www.redfin.com/IL/Chicago/1347-W-Eddy-St-60657/unit-308/home/18936046,MRED as Distributed by MLS Grid,12163673,N,Y,41.9459742,-87.6635729
MLS Listing,,Condo/Co-op,41 E 8th St #1406,Chicago,IL,60605,389000,2,2.0,CHI - Loop,1300,,2002,2,299,694,Active,,,https://www.redfin.com/IL/Chicago/41-E-8th-St-60605/unit-1406/home/12665088,MRED as Distributed by MLS Grid,12159599,N,Y,41.8717102,-87.6263215
MLS Listing,,Condo/Co-op,732 S Financial Pl #415,Chicago,IL,60605,315000,1,1.0,Printers Row Lofts,1034,,1908,2,305,431,Active,September-21-2024 11:00 AM,September-21-2024 12:30 PM,https://www.redfin.com/IL/Chicago/732-S-Financial-Pl-60605/unit-415/home/12640421,MRED as Distributed by MLS Grid,12152770,N,Y,41.8725019,-87.6329472
MLS Listing,,Single Family Residential,2245 S Homan Ave,Chicago,IL,60623,259000,3,1.0,CHI - South Lawndale,1650,3123,1900,2,157,,Active,,,https://www.redfin.com/IL/Chicago/2245-S-Homan-Ave-60623/home/14150874,MRED as Distributed by MLS Grid,12164006,N,Y,41.8503903,-87.7098405
MLS Listing,,Multi-Family (2-4 Unit),7939 S Champlain Ave,Chicago,IL,60619,339900,5,3.0,CHI - Chatham,,3484,1920,2,,,Active,,,https://www.redfin.com/IL/Chicago/7939-S-Champlain-Ave-60619/home/13226252,MRED as Distributed by MLS Grid,12165450,N,Y,41.750057,-87.6085449
MLS Listing,,Townhouse,2725 N Janssen Ave,Chicago,IL,60614,1100000,4,3.0,CHI - Lincoln Park,2700,,1989,2,407,409,Active,,,https://www.redfin.com/IL/Chicago/2725-N-Janssen-Ave-60614/home/13363064,MRED as Distributed by MLS Grid,12165479,N,Y,41.9313614,-87.6644704
MLS Listing,,Condo/Co-op,5000 S Cornell Ave Unit 5B,Chicago,IL,60615,409000,2,2.0,CHI - Kenwood,1800,,1920,2,227,1345,Active,,,https://www.redfin.com/IL/Chicago/5000-S-Cornell-Ave-60615/unit-5B/home/13948943,MRED as Distributed by MLS Grid,12163949,N,Y,41.8043335,-87.586659
MLS Listing,,Condo/Co-op,415 W Aldine Ave Unit 9D,Chicago,IL,60657,430000,2,2.0,CHI - Lake View,1811,,1927,2,237,1254,Active,,,https://www.redfin.com/IL/Chicago/415-W-Aldine-Ave-60657/unit-9D/home/13374526,MRED as Distributed by MLS Grid,12165433,N,Y,41.941994,-87.640778
MLS Listing,,Single Family Residential,8155 S Kilpatrick Ave,Chicago,IL,60652,199900,3,1.5,CHI - Ashburn,998,5039,1953,2,200,,Active,,,https://www.redfin.com/IL/Chicago/8155-S-Kilpatrick-Ave-60652/home/13972156,MRED as Distributed by MLS Grid,12165458,N,Y,41.7441737,-87.738232
MLS Listing,,Multi-Family (2-4 Unit),4133 W Melrose St,Chicago,IL,60641,549000,6,4.0,CHI - Irving Park,,5000,1924,2,,,Active,September-22-2024 01:00 PM,September-22-2024 03:00 PM,https://www.redfin.com/IL/Chicago/4133-W-Melrose-St-60641/home/13457617,MRED as Distributed by MLS Grid,12165478,N,Y,41.9397573,-87.7309571
MLS Listing,,Multi-Family (2-4 Unit),4724 S Racine Ave,Chicago,IL,60609,315000,4,2.0,CHI - New City,,2613,1903,2,,,Active,,,https://www.redfin.com/IL/Chicago/4724-S-Racine-Ave-60609/home/183978243,MRED as Distributed by MLS Grid,12165262,N,Y,41.807945,-87.6554387
MLS Listing,,Condo/Co-op,25 E Superior St #4401,Chicago,IL,60611,1699000,3,3.5,Fordham,4800,,2003,2,354,4605,Active,,,https://www.redfin.com/IL/Chicago/25-E-Superior-St-60611/unit-4401/home/12695195,MRED as Distributed by MLS Grid,12148808,N,Y,41.8954074,-87.6272288
MLS Listing,,Multi-Family (2-4 Unit),7738 S Merrill Ave,Chicago,IL,60649,350000,5,3.0,CHI - South Shore,,3125,1920,2,,,Active,,,https://www.redfin.com/IL/Chicago/7738-S-Merrill-Ave-60649/home/13923368,MRED as Distributed by MLS Grid,12164672,N,Y,41.7541147,-87.5726972
MLS Listing,,Single Family Residential,4138 N Osceola Ave,Norridge,IL,60706,359900,2,1.5,Norridge,2323,3750,1953,2,155,,Active,,,https://www.redfin.com/IL/Norridge/4138-N-Osceola-Ave-60706/home/13553171,MRED as Distributed by MLS Grid,12165444,N,Y,41.9559571,-87.8136682
MLS Listing,,Single Family Residential,851 W Webster Ave,Chicago,IL,60614,2495000,5,5.0,CHI - Lincoln Park,4850,3000,1881,2,514,,Active,September-21-2024 11:00 AM,September-21-2024 01:00 PM,https://www.redfin.com/IL/Chicago/851-W-Webster-Ave-60614/home/13352945,MRED as Distributed by MLS Grid,12165006,N,Y,41.9215856,-87.6505655
MLS Listing,,Multi-Family (2-4 Unit),848 N Ashland Ave,Chicago,IL,60622,749000,3,2.0,CHI - West Town,,2613,1904,2,,,Active,,,https://www.redfin.com/IL/Chicago/848-N-Ashland-Ave-60622/home/14105200,MRED as Distributed by MLS Grid,12165440,N,Y,41.8974956,-87.6676284
MLS Listing,,Condo/Co-op,6103 W Higgins Ave Unit 2-C,Chicago,IL,60630,146103,1,1.0,CHI - Jefferson Park,700,,1971,2,209,297,Active,,,https://www.redfin.com/IL/Chicago/6103-W-Higgins-Ave-60630/unit-2C/home/12683637,MRED as Distributed by MLS Grid,12159417,N,Y,41.9736727,-87.7810411
MLS Listing,,Single Family Residential,4252 Newland Ave,Norridge,IL,60706,479900,3,2.0,Norridge,,4688,1961,2,,,Active,,,https://www.redfin.com/IL/Norridge/4252-N-Newland-Ave-60706/home/13472751,MRED as Distributed by MLS Grid,12165452,N,Y,41.9590051,-87.8016909
MLS Listing,,Condo/Co-op,125 S Jefferson St #1208,Chicago,IL,60661,284900,1,1.0,CHI - Near West Side,850,,2003,2,335,554,Active,,,https://www.redfin.com/IL/Chicago/125-S-Jefferson-St-60661/unit-1208/home/12689187,MRED as Distributed by MLS Grid,12155288,N,Y,41.879941,-87.6421575
MLS Listing,,Multi-Family (2-4 Unit),1936 S Spaulding Ave,Chicago,IL,60623,435000,5,3.0,CHI - North Lawndale,,,1885,2,,,Active,,,https://www.redfin.com/IL/Chicago/1936-S-Spaulding-Ave-60623/home/13233450,MRED as Distributed by MLS Grid,12165216,N,Y,41.8543225,-87.7080377
