SALE TYPE,SOLD DATE,PROPERTY TYPE,ADDRESS,CITY,STATE OR PROVINCE,ZIP OR POSTAL CODE,PRICE,BEDS,BATHS,LOCATION,SQUARE FEET,LOT SIZE,YEAR BUILT,DAYS ON MARKET,$/SQUARE FEET,HOA/MONTH,STATUS,NEXT OPEN HOUSE START TIME,NEXT OPEN HOUSE END TIME,URL (SEE https://www.redfin.com/buy-a-home/comparative-market-analysis FOR INFO ON PRICING),SOURCE,MLS#,FAVORITE,INTERESTED,LATITUDE,LONGITUDE
MLS Listing,,Condo/Co-op,5042 N Western Ave #2,Chicago,IL,60625,649999,3,2.0,CHI - Lincoln Square,1800,,2022,1,361,117,Active,,,https://www.redfin.com/IL/Chicago/5042-N-Western-Ave-60625/unit-2/home/178282564,MRED as Distributed by MLS Grid,12163791,N,Y,41.9735131,-87.6893554
MLS Listing,,Condo/Co-op,65 E Monroe St #4521,Chicago,IL,60603,794900,2,2.0,CHI - Loop,1630,,2008,4,488,1383,Active,,,https://www.redfin.com/IL/Chicago/65-E-Monroe-St-60603/unit-4521/home/39567709,MRED as Distributed by MLS Grid,12163318,N,Y,41.8806386,-87.6255308
MLS Listing,,Condo/Co-op,1255 N State Pkwy Unit 2AC,Chicago,IL,60610,750000,2,2.0,Churchill,2000,,1924,4,375,3145,Active,,,https://www.redfin.com/IL/Chicago/1255-N-State-Pkwy-60610/unit-2AC/home/14124162,MRED as Distributed by MLS Grid,12163422,N,Y,41.9056616,-87.6284312
MLS Listing,,Condo/Co-op,6248 S Gullikson Rd Unit 4B,Chicago,IL,60638,235000,2,2.0,CHI - Clearing,1100,,2005,4,214,308,Active,,,https://www.redfin.com/IL/Chicago/6248-S-Gullikson-Rd-60638/unit-4B/home/12732794,MRED as Distributed by MLS Grid,12160061,N,Y,41.7778298,-87.7980166
MLS Listing,,Condo/Co-op,4619 S Prairie Ave Unit GDN,Chicago,IL,60653,225000,3,3.0,CHI - Grand Boulevard,2500,,1902,4,90,228,Active,,,https://www.redfin.com/IL/Chicago/4619-S-Prairie-Ave-60653/unit-GDN/home/12707122,MRED as Distributed by MLS Grid,12153793,N,Y,41.8106269,-87.6191882
MLS Listing,,Condo/Co-op,5140 N Albany Ave #2,Chicago,IL,60625,294900,2,2.0,CHI - North Park,1400,,1924,5,211,359,Active,,,https://www.redfin.com/IL/Chicago/5140-N-Albany-Ave-60625/unit-2/home/12622088,MRED as Distributed by MLS Grid,12158848,N,Y,41.9751609,-87.7065229
MLS Listing,,Single Family Residential,3535 N Neva Ave,Chicago,IL,60634,334900,3,2.0,CHI - Dunning,1176,4064,1951,5,285,,Active,,,https://www.redfin.com/IL/Chicago/3535-N-Neva-Ave-60634/home/13468960,MRED as Distributed by MLS Grid,12152144,N,Y,41.9445311,-87.8054747
MLS Listing,,Condo/Co-op,5625 N Wayne Ave Unit G1,Chicago,IL,60660,265000,2,1.0,CHI - Edgewater,906,,1917,5,292,199,Active,,,https://www.redfin.com/IL/Chicago/5625-N-Wayne-Ave-60660/unit-G1/home/39562307,MRED as Distributed by MLS Grid,12161738,N,Y,41.9843817,-87.6632698
MLS Listing,,Condo/Co-op,2012 W Erie St Unit 3E,Chicago,IL,60612,560000,3,2.0,CHI - West Town,,,2013,5,,261,Active,,,https://www.redfin.com/IL/Chicago/2012-W-Erie-St-60612/unit-3E/home/44648843,MRED as Distributed by MLS Grid,12162701,N,Y,41.893361,-87.6776181
MLS Listing,,Condo/Co-op,212 E Cullerton St #812,Chicago,IL,60616,265000,1,1.0,CHI - Near South Side,907,,2003,5,292,378,Active,,,https://www.redfin.com/IL/Chicago/212-E-Cullerton-St-60616/unit-812/home/12677868,MRED as Distributed by MLS Grid,12162663,N,Y,41.8557482,-87.6217636
MLS Listing,,Single Family Residential,3859 W 55th St,Chicago,IL,60632,320000,5,2.0,CHI - West Elsdon,1755,3484,1950,5,182,,Active,,,https://www.redfin.com/IL/Chicago/3859-W-55th-St-60632/home/14012049,MRED as Distributed by MLS Grid,12151970,N,Y,41.7929699,-87.7205158
MLS Listing,,Condo/Co-op,3763 N Wilton Ave Unit 1S,Chicago,IL,60613,755000,3,3.0,CHI - Lake View,1800,,2008,5,419,275,Active,,,https://www.redfin.com/IL/Chicago/3763-N-Wilton-Ave-60613/unit-1S/home/17457988,MRED as Distributed by MLS Grid,12162578,N,Y,41.9509465,-87.6530437
MLS Listing,,Condo/Co-op,2706 W Chicago Ave #3,Chicago,IL,60622,474900,3,2.0,CHI - West Town,1700,,2007,5,279,128,Active,,,https://www.redfin.com/IL/Chicago/2706-W-Chicago-Ave-60622/unit-3/home/26810505,MRED as Distributed by MLS Grid,12162559,N,Y,41.8958821,-87.6946251
MLS Listing,,Condo/Co-op,4343 N Clarendon Ave #2409,Chicago,IL,60613,145000,0,1.0,CHI - Uptown,600,,1974,5,242,630,Active,,,https://www.redfin.com/IL/Chicago/4343-N-Clarendon-Ave-60613/unit-2409/home/13397846,MRED as Distributed by MLS Grid,12162502,N,Y,41.9612878,-87.6494037
MLS Listing,,Condo/Co-op,111 W Maple St #2407,Chicago,IL,60610,205000,1,1.0,CHI - Near North Side,550,,1991,5,373,394,Active,,,https://www.redfin.com/IL/Chicago/111-W-Maple-St-60610/unit-2407/home/12791793,MRED as Distributed by MLS Grid,12162442,N,Y,41.9016475,-87.6318546
MLS Listing,,Condo/Co-op,850 N Damen Ave Unit 2F,Chicago,IL,60622,249999,2,1.0,CHI - West Town,750,,1915,5,333,200,Active,,,https://www.redfin.com/IL/Chicago/850-N-Damen-Ave-60622/unit-2F/home/40378664,MRED as Distributed by MLS Grid,12159042,N,Y,41.8974111,-87.6773467
MLS Listing,,Condo/Co-op,2306 W Touhy Ave #204,Chicago,IL,60645,377000,2,2.0,CHI - West Ridge,1300,,2007,5,290,270,Active,,,https://www.redfin.com/IL/Chicago/2306-W-Touhy-Ave-60645/unit-204/home/18940881,MRED as Distributed by MLS Grid,12162322,N,Y,42.0125611,-87.6879637
MLS Listing,,Single Family Residential,5930 S Narragansett Ave,Chicago,IL,60638,390000,3,3.0,CHI - Clearing,1732,4356,1998,5,225,,Active,,,https://www.redfin.com/IL/Chicago/5930-S-Narragansett-Ave-60638/home/13997055,MRED as Distributed by MLS Grid,12141748,N,Y,41.7840789,-87.7818045
MLS Listing,,Condo/Co-op,701 S Wells St #1605,Chicago,IL,60607,354900,2,2.0,CHI - Loop,1263,,2002,6,281,945,Active,,,https://www.redfin.com/IL/Chicago/701-S-Wells-St-60607/unit-1605/home/12693469,MRED as Distributed by MLS Grid,12161834,N,Y,41.8731482,-87.6332396
MLS Listing,,Single Family Residential,32 W 109th Pl,Chicago,IL,60628,210000,3,2.5,CHI - Roseland,1717,6098,1912,6,122,,Active,,,https://www.redfin.com/IL/Chicago/32-W-109th-Pl-60628/home/13075513,MRED as Distributed by MLS Grid,12157808,N,Y,41.6954886,-87.6244211
MLS Listing,,Single Family Residential,21 W 114th Pl,Chicago,IL,60628,195000,5,2.0,CHI - Roseland,1573,6098,1888,6,124,,Active,,,https://www.redfin.com/IL/Chicago/21-W-114th-Pl-60628/home/13062008,MRED as Distributed by MLS Grid,12156061,N,Y,41.6860225,-87.6238466
MLS Listing,,Condo/Co-op,7714 N Paulina St Unit 1S,Chicago,IL,60626,359000,3,2.5,CHI - Rogers Park,1809,,1923,6,198,458,Active,September-21-2024 12:00 PM,September-21-2024 02:00 PM,https://www.redfin.com/IL/Chicago/7714-N-Paulina-St-60626/unit-1S/home/192496990,MRED as Distributed by MLS Grid,12160754,N,Y,42.0217224,-87.6733902
MLS Listing,,Condo/Co-op,444 W Fullerton Pkwy #1909,Chicago,IL,60614,425000,2,2.0,CHI - Lincoln Park,,,1972,6,,1145,Active,,,https://www.redfin.com/IL/Chicago/444-W-Fullerton-Pkwy-60614/unit-1909/home/22924476,MRED as Distributed by MLS Grid,12161430,N,Y,41.9258338,-87.6408832
MLS Listing,,Condo/Co-op,4355 S Lake Park Ave Unit 2N,Chicago,IL,60653,625000,3,3.0,CHI - Kenwood,2000,,2012,6,313,,Active,,,https://www.redfin.com/IL/Chicago/4355-S-Lake-Park-Ave-60653/unit-2N/home/64226846,MRED as Distributed by MLS Grid,12150936,N,Y,41.8156405,-87.5973525
MLS Listing,,Condo/Co-op,2238 W Walton St #2,Chicago,IL,60622,665000,3,2.0,CHI - West Town,,,1914,6,,195,Active,September-21-2024 11:00 AM,September-21-2024 01:00 PM,https://www.redfin.com/IL/Chicago/2238-W-Walton-St-60622/unit-2/home/190720788,MRED as Distributed by MLS Grid,12159247,N,Y,41.8987532,-87.6835627
MLS Listing,,Multi-Family (2-4 Unit),3342 S Aberdeen St,Chicago,IL,60608,595000,7,4.0,CHI - Bridgeport,,3125,1900,6,,,Active,,,https://www.redfin.com/IL/Chicago/3342-S-Aberdeen-St-60608/home/190326005,MRED as Distributed by MLS Grid,12161031,N,Y,41.833034,-87.6537778
MLS Listing,,Condo/Co-op,808 N Greenview Ave Unit 3E,Chicago,IL,60642,450000,2,2.0,CHI - West Town,1254,,2003,6,359,298,Active,,,https://www.redfin.com/IL/Chicago/808-N-Greenview-Ave-60642/unit-3E/home/21866184,MRED as Distributed by MLS Grid,12161108,N,Y,41.896367,-87.665085
MLS Listing,,Condo/Co-op,3110 W Berteau Ave #1,Chicago,IL,60618,349000,3,2.0,CHI - Irving Park,1350,,1926,7,259,405,Active,,,https://www.redfin.com/IL/Chicago/3110-W-Berteau-Ave-60618/unit-1/home/18929282,MRED as Distributed by MLS Grid,12160023,N,Y,41.9577349,-87.7060619
MLS Listing,,Condo/Co-op,2809 W Washington Blvd #101,Chicago,IL,60612,159000,1,1.0,CHI - East Garfield Park,,,1922,7,,279,Active,,,https://www.redfin.com/IL/Chicago/2809-W-Washington-Blvd-60612/unit-101/home/18941089,MRED as Distributed by MLS Grid,12159977,N,Y,41.8825983,-87.6967544
MLS Listing,,Condo/Co-op,1440 S Michigan Ave #420,Chicago,IL,60605,250000,1,1.0,CHI - Near South Side,775,,2001,7,323,366,Active,,,https://www.redfin.com/IL/Chicago/1440-S-Michigan-Ave-60605/unit-420/home/12734088,MRED as Distributed by MLS Grid,12159929,N,Y,41.8629784,-87.6243933
MLS Listing,,Single Family Residential,4543 W Schubert Ave,Chicago,IL,60639,395000,3,2.0,CHI - Hermosa,2252,3720,1927,8,175,,Active,,,https://www.redfin.com/IL/Chicago/4543-W-Schubert-Ave-60639/home/13443451,MRED as Distributed by MLS Grid,12159236,N,Y,41.929338,-87.7409552
MLS Listing,,Condo/Co-op,737 W Washington Blvd #3004,Chicago,IL,60661,569000,2,2.0,CHI - Near West Side,1300,,2003,11,438,1111,Active,,,https://www.redfin.com/IL/Chicago/737-W-Washington-Blvd-60661/unit-3004/home/12681021,MRED as Distributed by MLS Grid,12157517,N,Y,41.8821306,-87.6468599
MLS Listing,,Multi-Family (2-4 Unit),3445 N Oakley Ave,Chicago,IL,60618,875000,6,4.0,CHI - North Center,,,1894,11,,,Active,,,https://www.redfin.com/IL/Chicago/3445-N-Oakley-Ave-60618/home/13387188,MRED as Distributed by MLS Grid,12144296,N,Y,41.9444903,-87.6855308
MLS Listing,,Condo/Co-op,1816 W Belmont Ave #2,Chicago,IL,60657,499000,2,2.0,CHI - North Center,1300,,2005,11,384,125,Active,,,https://www.redfin.com/IL/Chicago/1816-W-Belmont-Ave-60657/unit-2/home/183900525,MRED as Distributed by MLS Grid,12149707,N,Y,41.9398174,-87.674629
MLS Listing,,Condo/Co-op,550 N Saint Clair St #2103,Chicago,IL,60611,515000,2,2.0,CHI - Near North Side,1250,,,11,412,868,Active,,,https://www.redfin.com/IL/Chicago/550-N-Saint-Clair-St-60611/unit-2103/home/39565642,MRED as Distributed by MLS Grid,12157191,N,Y,41.8922991,-87.6229169
MLS Listing,,Multi-Family (2-4 Unit),4304 N Central Park Ave,Chicago,IL,60618,799900,6,4.0,CHI - Irving Park,,3750,1914,12,,,Active,,,https://www.redfin.com/IL/Chicago/4304-N-Central-Park-Ave-60618/home/13484048,MRED as Distributed by MLS Grid,12150112,N,Y,41.9594891,-87.7182697
MLS Listing,,Condo/Co-op,70 W Burton Pl Unit 706F,Chicago,IL,60610,199900,1,1.0,Sandburg Village,,,1965,12,,556,Active,,,https://www.redfin.com/IL/Chicago/70-W-Burton-Pl-60610/unit-706F/home/14113916,MRED as Distributed by MLS Grid,12156754,N,Y,41.9096718,-87.6312396
MLS Listing,,Condo/Co-op,5318 N Ravenswood Ave #107,Chicago,IL,60640,435000,2,2.0,CHI - Lincoln Square,,,2003,12,,252,Active,,,https://www.redfin.com/IL/Chicago/5318-N-Ravenswood-Ave-60640/unit-107/home/12668922,MRED as Distributed by MLS Grid,12156686,N,Y,41.9785654,-87.6754118
MLS Listing,,Condo/Co-op,3815 S Langley Ave #301,Chicago,IL,60653,225000,2,1.5,CHI - Oakland,1200,,2007,12,188,173,Active,,,https://www.redfin.com/IL/Chicago/3815-S-Langley-Ave-60653/unit-301/home/26822528,MRED as Distributed by MLS Grid,12156513,N,Y,41.8252518,-87.6095026
MLS Listing,,Condo/Co-op,3950 N Lake Shore Dr #1506,Chicago,IL,60613,249900,2,1.0,CHI - Lake View,1100,,1957,12,227,894,Active,,,https://www.redfin.com/IL/Chicago/3950-N-Lake-Shore-Dr-60613/unit-1506/home/13380943,MRED as Distributed by MLS Grid,12151885,N,Y,41.954247,-87.6458578
MLS Listing,,Condo/Co-op,1117 W Fry St Unit G,Chicago,IL,60642,342000,2,2.0,CHI - West Town,1600,,1890,12,214,319,Active,,,https://www.redfin.com/IL/Chicago/1117-W-Fry-St-60642/unit-G/home/12789303,MRED as Distributed by MLS Grid,12156573,N,Y,41.8971566,-87.6559008
MLS Listing,,Condo/Co-op,2817 N Oakley Ave Unit 3E,Chicago,IL,60618,549000,2,2.0,CHI - Logan Square,1300,,2018,12,422,250,Active,,,https://www.redfin.com/IL/Chicago/2817-N-Oakley-Ave-60618/unit-3E/home/147586616,MRED as Distributed by MLS Grid,12146545,N,Y,41.9328,-87.6851772
MLS Listing,,Single Family Residential,530 N Paulina St,Chicago,IL,60622,1289000,3,3.5,CHI - West Town,2586,,2000,12,498,,Active,,,https://www.redfin.com/IL/Chicago/530-N-Paulina-St-60622/home/14104361,MRED as Distributed by MLS Grid,12153934,N,Y,41.8918439,-87.6698834
MLS Listing,,Condo/Co-op,2642 N Troy St #3,Chicago,IL,60647,495000,3,1.0,CHI - Logan Square,1300,,1906,12,381,227,Active,,,https://www.redfin.com/IL/Chicago/2642-N-Troy-St-60647/unit-3/home/26806389,MRED as Distributed by MLS Grid,12153939,N,Y,41.9298873,-87.7064901
MLS Listing,,Condo/Co-op,125 E 13th St #1114,Chicago,IL,60605,279900,1,1.0,Museum Park Lofts,800,,2004,12,350,293,Active,,,https://www.redfin.com/IL/Chicago/125-E-13th-St-60605/unit-1114/home/12637700,MRED as Distributed by MLS Grid,12156469,N,Y,41.8656294,-87.6231209
MLS Listing,,Condo/Co-op,4039 N Elston Ave #3,Chicago,IL,60618,524900,3,2.0,CHI - Irving Park,1850,,2020,12,284,202,Active,,,https://www.redfin.com/IL/Chicago/4039-N-Elston-Ave-60618/unit-3/home/171055658,MRED as Distributed by MLS Grid,12148474,N,Y,41.9548287,-87.7202578
MLS Listing,,Multi-Family (2-4 Unit),7910 S Greenwood Ave,Chicago,IL,60619,350000,11,5.0,CHI - Chatham,,3049,2008,13,,,Active,,,https://www.redfin.com/IL/Chicago/7910-S-Greenwood-Ave-60619/home/192022630,MRED as Distributed by MLS Grid,12155518,N,Y,41.7509282,-87.5982382
MLS Listing,,Single Family Residential,5750 S Merrimac Ave,Chicago,IL,60638,550000,4,3.0,CHI - Garfield Ridge,1827,4356,1955,13,301,,Active,,,https://www.redfin.com/IL/Chicago/5750-S-Merrimac-Ave-60638/home/14002900,MRED as Distributed by MLS Grid,12150795,N,Y,41.7872939,-87.7782258
MLS Listing,,Single Family Residential,10563 S Central Park Ave,Chicago,IL,60655,330000,3,2.0,CHI - Mount Greenwood,1200,5043,1938,13,275,,Active,,,https://www.redfin.com/IL/Chicago/10563-S-Central-Park-Ave-60655/home/183860915,MRED as Distributed by MLS Grid,12145481,N,Y,41.7005408,-87.710646
MLS Listing,,Condo/Co-op,1428 W Lunt Ave Unit 2N,Chicago,IL,60626,259900,2,2.0,CHI - Rogers Park,1100,,1913,14,236,328,Active,,,https://www.redfin.com/IL/Chicago/1428-W-Lunt-Ave-60626/unit-2N/home/18918988,MRED as Distributed by MLS Grid,12150736,N,Y,42.0094036,-87.6673133
MLS Listing,,Townhouse,5210 S King Dr Unit F,Chicago,IL,60615,449000,4,2.5,CHI - Washington Park,2340,10000,2010,14,192,,Active,September-21-2024 12:00 PM,September-21-2024 02:00 PM,https://www.redfin.com/IL/Chicago/5210-S-King-Dr-60615/unit-F/home/185198433,MRED as Distributed by MLS Grid,12153803,N,Y,41.800008188,-87.61638378
MLS Listing,,Condo/Co-op,2 E Erie St #3609,Chicago,IL,60611,515000,2,2.0,CHI - Near North Side,1175,,2002,14,438,791,Active,,,https://www.redfin.com/IL/Chicago/2-E-Erie-St-60611/unit-3609/home/12593252,MRED as Distributed by MLS Grid,12149023,N,Y,41.8943685,-87.6275053
MLS Listing,,Condo/Co-op,1715 W Beach Ave #1,Chicago,IL,60622,579000,3,2.5,CHI - West Town,2000,,1882,14,290,250,Active,,,https://www.redfin.com/IL/Chicago/1715-W-Beach-Ave-60622/unit-1/home/14108550,MRED as Distributed by MLS Grid,12150934,N,Y,41.907363,-87.6707028
MLS Listing,,Condo/Co-op,1740 W Foster Ave Unit 3R,Chicago,IL,60640,269900,1,1.5,CHI - Edgewater,,,1929,18,,352,Active,,,https://www.redfin.com/IL/Chicago/1740-W-Foster-Ave-60640/unit-3R/home/18932424,MRED as Distributed by MLS Grid,12151781,N,Y,41.9763951,-87.6737143
MLS Listing,,Condo/Co-op,2495 N Milwaukee Ave Unit 3N,Chicago,IL,60647,649900,3,2.0,CHI - Logan Square,1283,,2016,18,507,370,Active,,,https://www.redfin.com/IL/Chicago/2495-N-Milwaukee-Ave-60647/unit-3N/home/167530518,MRED as Distributed by MLS Grid,12148639,N,Y,41.9267802,-87.7033832
MLS Listing,,Single Family Residential,1329 W 71st St,Chicago,IL,60636,269900,6,2.5,CHI - Englewood,2051,3484,1916,18,132,,Active,,,https://www.redfin.com/IL/Chicago/1329-W-71st-St-60636/home/13915054,MRED as Distributed by MLS Grid,12147444,N,Y,41.7647741,-87.6585444
MLS Listing,,Single Family Residential,3327 W Glenlake Ave,Chicago,IL,60659,899900,6,4.5,CHI - North Park,4230,8276,1946,19,213,,Active,,,https://www.redfin.com/IL/Chicago/3327-W-Glenlake-Ave-60659/home/13516913,MRED as Distributed by MLS Grid,12151110,N,Y,41.9918784,-87.7124855
MLS Listing,,Condo/Co-op,3862 S Lake Park Ave Unit 3N,Chicago,IL,60653,390000,3,2.0,CHI - Oakland,1850,,2007,19,211,389,Active,,,https://www.redfin.com/IL/Chicago/3862-S-Lake-Park-Ave-60653/unit-3N/home/26822858,MRED as Distributed by MLS Grid,12147456,N,Y,41.8252772,-87.6044618
MLS Listing,,Condo/Co-op,6970 N Wolcott Ave Unit G,Chicago,IL,60626,124900,2,1.0,CHI - Rogers Park,900,,1927,20,139,286,Active,,,https://www.redfin.com/IL/Chicago/6970-N-Wolcott-Ave-60626/unit-G/home/12806663,MRED as Distributed by MLS Grid,12149789,N,Y,42.0085572,-87.6782711
MLS Listing,,Condo/Co-op,1101 S State St #1300,Chicago,IL,60605,399000,3,2.0,State Place Tower,1480,,2004,21,270,1276,Active,,,https://www.redfin.com/IL/Chicago/1101-S-State-St-60605/unit-1300/home/183742461,MRED as Distributed by MLS Grid,12148697,N,Y,41.8689674,-87.6270061
MLS Listing,,Condo/Co-op,1715 W Ohio St Unit 2N,Chicago,IL,60622,600000,2,2.0,CHI - West Town,,,1889,21,,505,Active,,,https://www.redfin.com/IL/Chicago/1715-W-Ohio-St-60622/unit-2N/home/12616789,MRED as Distributed by MLS Grid,12145872,N,Y,41.8920115,-87.6703405
MLS Listing,,Single Family Residential,701 W 92nd St,Chicago,IL,60620,215000,3,1.0,CHI - Washington Heights,1036,4443,1950,22,208,,Active,,,https://www.redfin.com/IL/Chicago/701-W-92nd-St-60620/home/13106627,MRED as Distributed by MLS Grid,12143027,N,Y,41.7266484,-87.6411244
MLS Listing,,Single Family Residential,1307 W Schubert Ave,Chicago,IL,60614,1525000,5,3.5,CHI - Lincoln Park,3500,3000,1992,22,436,,Active,,,https://www.redfin.com/IL/Chicago/1307-W-Schubert-Ave-60614/home/13362782,MRED as Distributed by MLS Grid,12147726,N,Y,41.9304999,-87.6614089
MLS Listing,,Condo/Co-op,1334 W Greenleaf Ave Unit 3D,Chicago,IL,60626,285000,2,2.0,CHI - Rogers Park,919,,1925,25,310,323,Active,,,https://www.redfin.com/IL/Chicago/1334-W-Greenleaf-Ave-60626/unit-3D/home/18940023,MRED as Distributed by MLS Grid,12142154,N,Y,42.010693,-87.663991
MLS Listing,,Condo/Co-op,655 W Irving Park Rd #5306,Chicago,IL,60613,235000,1,1.0,CHI - Lake View,816,,1973,25,288,970,Active,,,https://www.redfin.com/IL/Chicago/655-W-Irving-Park-Rd-60613/unit-5306/home/12604285,MRED as Distributed by MLS Grid,12141859,N,Y,41.9543534,-87.6469849
MLS Listing,,Single Family Residential,949 N Central Park Ave,Chicago,IL,60651,287000,5,2.0,CHI - Humboldt Park,1201,3125,1913,26,239,,Active,,,https://www.redfin.com/IL/Chicago/949-N-Central-Park-Ave-60651/home/13284893,MRED as Distributed by MLS Grid,12145208,N,Y,41.898772,-87.7161373
MLS Listing,,Condo/Co-op,4534 N Cumberland Ave #301,Chicago,IL,60656,240000,1,1.0,CHI - O'Hare,,,2002,28,,300,Active,,,https://www.redfin.com/IL/Chicago/4534-N-Cumberland-Ave-60656/unit-301/home/12701627,MRED as Distributed by MLS Grid,12143249,N,Y,41.9620305,-87.8371479
MLS Listing,,Single Family Residential,6666 W Imlay St,Chicago,IL,60631,417900,5,3.0,CHI - Norwood Park,2525,3750,1924,28,166,,Active,,,https://www.redfin.com/IL/Chicago/6666-W-Imlay-St-60631/home/13593792,MRED as Distributed by MLS Grid,12143257,N,Y,41.9993366,-87.7949283
MLS Listing,,Multi-Family (2-4 Unit),3541 N Paulina St,Chicago,IL,60657,799000,6,3.0,CHI - Lake View,,3125,1909,29,,,Active,,,https://www.redfin.com/IL/Chicago/3541-N-Paulina-St-60657/home/13384977,MRED as Distributed by MLS Grid,12139920,N,Y,41.9463741,-87.6709841
MLS Listing,,Single Family Residential,4855 W Montrose Ave,Chicago,IL,60641,479000,3,2.0,CHI - Portage Park,1421,3484,1955,29,337,,Active,,,https://www.redfin.com/IL/Chicago/4855-W-Montrose-Ave-60641/home/13476385,MRED as Distributed by MLS Grid,12137199,N,Y,41.9604971,-87.7497652
MLS Listing,,Condo/Co-op,330 N Jefferson St #1002,Chicago,IL,60661,385000,1,1.0,CHI - Near West Side,864,,2000,29,446,677,Active,,,https://www.redfin.com/IL/Chicago/330-N-Jefferson-St-60661/unit-1002/home/12599519,MRED as Distributed by MLS Grid,12141636,N,Y,41.8876953,-87.6437642
MLS Listing,,Condo/Co-op,728 W Jackson Blvd #525,Chicago,IL,60661,269000,1,1.0,CHI - Near West Side,1000,,1925,32,269,580,Active,,,https://www.redfin.com/IL/Chicago/728-W-Jackson-Blvd-60661/unit-525/home/12814495,MRED as Distributed by MLS Grid,12138238,N,Y,41.8784211,-87.6449756
MLS Listing,,Townhouse,11217 S Avenue L Ave,Chicago,IL,60617,164900,2,1.0,CHI - South Chicago,947,3250,1949,33,174,,Active,,,https://www.redfin.com/IL/Chicago/11217-S-Avenue-L-60617/home/13035074,MRED as Distributed by MLS Grid,12134886,N,Y,41.6912724,-87.5361926
MLS Listing,,Condo/Co-op,5652 W 63rd St Unit 3E,Chicago,IL,60638,249000,2,2.0,CHI - Clearing,1100,,2006,33,226,190,Active,,,https://www.redfin.com/IL/Chicago/5652-W-63rd-St-60638/unit-3E/home/39517861,MRED as Distributed by MLS Grid,12132570,N,Y,41.7782489,-87.7638408
MLS Listing,,Single Family Residential,11079 S Bell Ave,Chicago,IL,60643,595000,4,2.5,CHI - Morgan Park,5126,14505,1916,33,116,,Active,,,https://www.redfin.com/IL/Chicago/11079-S-Bell-Ave-60643/home/13070844,MRED as Distributed by MLS Grid,12133381,N,Y,41.6922307,-87.6772104
MLS Listing,,Single Family Residential,1423 N California Ave,Chicago,IL,60622,875000,4,3.5,CHI - West Town,4000,,2018,33,219,,Active,,,https://www.redfin.com/IL/Chicago/1423-N-California-Ave-60622/home/17557497,MRED as Distributed by MLS Grid,12139295,N,Y,41.9073107,-87.6967204
MLS Listing,,Condo/Co-op,2827 N Woodard St Unit 1S,Chicago,IL,60618,338000,2,1.0,CHI - Avondale,1200,,1920,33,282,294,Active,,,https://www.redfin.com/IL/Chicago/2827-N-Woodard-St-60618/unit-1S/home/12702072,MRED as Distributed by MLS Grid,12136477,N,Y,41.9328942,-87.7118188
MLS Listing,,Condo/Co-op,3900 N Pine Grove Ave #302,Chicago,IL,60613,325000,2,2.0,CHI - Lake View,900,,1976,33,361,675,Active,,,https://www.redfin.com/IL/Chicago/3900-N-Pine-Grove-Ave-60613/unit-302/home/12613600,MRED as Distributed by MLS Grid,12125292,N,Y,41.9531382,-87.6481721
MLS Listing,,Condo/Co-op,3150 N Lake Shore Dr Unit 8E,Chicago,IL,60657,429000,3,2.0,CHI - Lake View,1650,,1963,34,260,1193,Active,,,https://www.redfin.com/IL/Chicago/3150-N-Lake-Shore-Dr-60657/unit-8E/home/13371357,MRED as Distributed by MLS Grid,12137916,N,Y,41.9390365,-87.6385457
MLS Listing,,Multi-Family (2-4 Unit),7408 S Eberhart Ave,Chicago,IL,60619,420000,6,4.0,CHI - Greater Grand Crossing,,3049,1921,36,,,Active,,,https://www.redfin.com/IL/Chicago/7408-S-Eberhart-Ave-60619/home/13918408,MRED as Distributed by MLS Grid,12131084,N,Y,41.7599364,-87.6129876
MLS Listing,,Condo/Co-op,2101 W Rice St #101,Chicago,IL,60622,479900,2,2.0,CHI - West Town,1500,,2001,39,320,362,Active,,,https://www.redfin.com/IL/Chicago/2101-W-Rice-St-60622/unit-101/home/12739819,MRED as Distributed by MLS Grid,12125382,N,Y,41.8966715,-87.6800721
MLS Listing,,Condo/Co-op,2423 W Fullerton Ave Unit 3E,Chicago,IL,60647,499900,2,2.0,CHI - Logan Square,1000,,2021,39,500,202,Active,,,https://www.redfin.com/IL/Chicago/2423-W-Fullerton-Ave-60647/unit-3E/home/177004017,MRED as Distributed by MLS Grid,12134339,N,Y,41.9247277,-87.6884714
MLS Listing,,Townhouse,860 W Lakeside Pl Unit A,Chicago,IL,60640,515000,3,2.5,CHI - Uptown,1800,,1988,40,286,295,Active,,,https://www.redfin.com/IL/Chicago/860-W-Lakeside-Pl-60640/unit-A/home/13394120,MRED as Distributed by MLS Grid,12096036,N,Y,41.9685109,-87.6524483
MLS Listing,,Condo/Co-op,400 W Huron St #1002,Chicago,IL,60654,1424900,3,2.5,CHI - Near North Side,2200,,2017,40,648,2359,Active,,,https://www.redfin.com/IL/Chicago/400-W-Huron-St-60654/unit-1002/home/113165022,MRED as Distributed by MLS Grid,12130278,N,Y,41.8949755,-87.6387316
MLS Listing,,Condo/Co-op,5900 S King Dr Unit C-3,Chicago,IL,60637,240000,3,2.0,CHI - Washington Park,1220,,1900,41,197,257,Active,,,https://www.redfin.com/IL/Chicago/5900-S-King-Dr-60637/unit-C-3/home/183808041,MRED as Distributed by MLS Grid,12129355,N,Y,41.787336,-87.6168859
MLS Listing,,Condo/Co-op,3440 N Lake Shore Dr Unit 14B,Chicago,IL,60657,364900,2,1.0,CHI - Lake View,,,1959,41,,921,Active,,,https://www.redfin.com/IL/Chicago/3440-N-Lake-Shore-Dr-60657/unit-14B/home/13376484,MRED as Distributed by MLS Grid,12132136,N,Y,41.9444587,-87.641485
MLS Listing,,Condo/Co-op,1806 W Belmont Ave #1,Chicago,IL,60657,869900,3,3.5,CHI - North Center,2200,,2017,41,395,278,Active,,,https://www.redfin.com/IL/Chicago/1806-W-Belmont-Ave-60657/unit-1/home/171312782,MRED as Distributed by MLS Grid,12132057,N,Y,41.9398309,-87.6742495
MLS Listing,,Condo/Co-op,4454 S Vincennes Ave Unit 3S,Chicago,IL,60653,255000,3,2.0,CHI - Grand Boulevard,1700,,2005,41,150,454,Active,,,https://www.redfin.com/IL/Chicago/4454-S-Vincennes-Ave-60653/unit-3S/home/172779265,MRED as Distributed by MLS Grid,12111830,N,Y,41.813291,-87.6142577
MLS Listing,,Multi-Family (2-4 Unit),6937 S Laflin St,Chicago,IL,60636,300000,4,2.0,CHI - West Englewood,,,1928,41,,,Active,,,https://www.redfin.com/IL/Chicago/6937-S-Laflin-St-60636/home/192043684,MRED as Distributed by MLS Grid,12119584,N,Y,41.7674693,-87.6611861
MLS Listing,,Condo/Co-op,2800 N Lake Shore Dr #1710,Chicago,IL,60657,525000,2,1.0,CHI - Lake View,,,1969,43,,823,Active,,,https://www.redfin.com/IL/Chicago/2800-N-Lake-Shore-Dr-60657/unit-1710/home/13369326,MRED as Distributed by MLS Grid,12129812,N,Y,41.933219,-87.6371314
MLS Listing,,Townhouse,4412 S Oakenwald Ave,Chicago,IL,60653,549000,4,2.5,CHI - Kenwood,2995,,1879,47,183,,Active,,,https://www.redfin.com/IL/Chicago/4412-S-Oakenwald-Ave-60653/home/13961558,MRED as Distributed by MLS Grid,12127183,N,Y,41.8147834,-87.5963121
MLS Listing,,Condo/Co-op,1838 N Western Ave #303,Chicago,IL,60647,750000,3,2.0,CHI - Logan Square,,,2022,47,,273,Active,,,https://www.redfin.com/IL/Chicago/1838-N-Western-Ave-60647/unit-303/home/176556040,MRED as Distributed by MLS Grid,12121649,N,Y,41.9151548,-87.6876683
MLS Listing,,Condo/Co-op,8629 1/2 W Foster Ave Unit 1A,Chicago,IL,60656,289000,3,3.0,CHI - O'Hare,2000,,1955,49,145,310,Active,,,https://www.redfin.com/IL/Chicago/8629-W-Foster-Ave-60656/unit-1A/home/191875854,MRED as Distributed by MLS Grid,12122397,N,Y,41.9723935,-87.8423318
MLS Listing,,Condo/Co-op,240 E Illinois St #2603,Chicago,IL,60611,399900,1,1.0,CHI - Near North Side,,,2008,50,,745,Active,,,https://www.redfin.com/IL/Chicago/240-E-Illinois-St-60611/unit-2603/home/13150347,MRED as Distributed by MLS Grid,12123907,N,Y,41.8911546,-87.6210377
MLS Listing,,Condo/Co-op,4343 N Clarendon Ave #1102,Chicago,IL,60613,279000,2,2.0,CHI - Uptown,1150,,1974,50,243,1090,Active,,,https://www.redfin.com/IL/Chicago/4343-N-Clarendon-Ave-60613/unit-1102/home/13398328,MRED as Distributed by MLS Grid,12123788,N,Y,41.9612878,-87.6494037
MLS Listing,,Single Family Residential,10821 S Eberhart Ave,Chicago,IL,60628,316000,4,3.0,CHI - Roseland,1212,4791,1941,50,261,,Active,,,https://www.redfin.com/IL/Chicago/10821-S-Eberhart-Ave-60628/home/13079455,MRED as Distributed by MLS Grid,12123555,N,Y,41.6975799,-87.610811
MLS Listing,,Condo/Co-op,1322 S Wabash Ave Ph 6,Chicago,IL,60605,710000,2,2.0,CHI - Near South Side,2221,,1903,52,320,822,Active,,,https://www.redfin.com/IL/Chicago/1322-S-Wabash-Ave-60605/unit-6/home/14083420,MRED as Distributed by MLS Grid,12122885,N,Y,41.8647709,-87.6261181
MLS Listing,,Single Family Residential,9133 S Drexel Ave,Chicago,IL,60619,289900,7,3.0,CHI - Burnside,2097,3049,1927,53,138,,Active,,,https://www.redfin.com/IL/Chicago/9133-S-Drexel-Ave-60619/home/192369314,MRED as Distributed by MLS Grid,12119710,N,Y,41.7284331,-87.6006817
MLS Listing,,Single Family Residential,9145 S Pleasant Ave,Chicago,IL,60643,640000,6,3.0,CHI - Beverly,2545,,1940,54,251,,Active,,,https://www.redfin.com/IL/Chicago/9145-S-Pleasant-Ave-60643/home/13099951,MRED as Distributed by MLS Grid,12118601,N,Y,41.7274679,-87.669786
MLS Listing,,Single Family Residential,2240 N Parkside Ave,Chicago,IL,60639,375000,4,2.0,CHI - Belmont Cragin,1072,3049,1927,54,350,,Active,,,https://www.redfin.com/IL/Chicago/2240-N-Parkside-Ave-60639/home/13427897,MRED as Distributed by MLS Grid,12117726,N,Y,41.92153,-87.767413
MLS Listing,,Condo/Co-op,2413 W Fullerton Ave #3,Chicago,IL,60647,674500,2,2.0,CHI - Logan Square,2000,,2015,54,337,215,Active,,,https://www.redfin.com/IL/Chicago/2413-W-Fullerton-Ave-60647/unit-3/home/144511007,MRED as Distributed by MLS Grid,12119967,N,Y,41.9246247,-87.6883538
MLS Listing,,Single Family Residential,6307 W Berenice Ave,Chicago,IL,60634,644000,5,4.5,CHI - Dunning,2302,6250,,55,280,,Active,,,https://www.redfin.com/IL/Chicago/6307-W-Berenice-Ave-60634/home/13468149,MRED as Distributed by MLS Grid,12118991,N,Y,41.9500323,-87.7843414
MLS Listing,,Multi-Family (2-4 Unit),3125 W Pershing Rd,Chicago,IL,60632,475000,6,3.0,CHI - Brighton Park,,3049,1914,60,,,Active,,,https://www.redfin.com/IL/Chicago/3125-W-Pershing-Rd-60632/home/14039193,MRED as Distributed by MLS Grid,12116101,N,Y,41.8224263,-87.7031539
MLS Listing,,Condo/Co-op,215 N Aberdeen St Unit B401,Chicago,IL,60607,384900,2,2.0,Blue Moon Lofts,,,1918,60,,576,Active,,,https://www.redfin.com/IL/Chicago/215-N-Aberdeen-St-60607/unit-401B/home/12738789,MRED as Distributed by MLS Grid,12116146,N,Y,41.886141,-87.654329
MLS Listing,,Single Family Residential,8214 S Laflin St,Chicago,IL,60620,240000,6,2.0,CHI - Auburn Gresham,1452,3920,1923,60,165,,Active,,,https://www.redfin.com/IL/Chicago/8214-S-Laflin-St-60620/home/13907190,MRED as Distributed by MLS Grid,12106197,N,Y,41.7444049,-87.6611498
MLS Listing,,Condo/Co-op,3130 W Fullerton Ave Unit 2E,Chicago,IL,60647,430000,2,2.0,CHI - Logan Square,1250,,2008,61,344,292,Active,,,https://www.redfin.com/IL/Chicago/3130-W-Fullerton-Ave-60647/unit-2E/home/13450602,MRED as Distributed by MLS Grid,12113627,N,Y,41.9249975,-87.7059012
MLS Listing,,Condo/Co-op,500 W Superior St #802,Chicago,IL,60654,525000,2,2.0,CHI - Near North Side,1154,,2005,64,455,1350,Active,,,https://www.redfin.com/IL/Chicago/500-W-Superior-St-60654/unit-802/home/12621468,MRED as Distributed by MLS Grid,12106008,N,Y,41.895951,-87.642196
MLS Listing,,Condo/Co-op,1355 N Sandburg Ter Unit 2108D,Chicago,IL,60610,308500,1,1.0,CHI - Near North Side,850,,1950,68,363,918,Active,,,https://www.redfin.com/IL/Chicago/1355-N-Sandburg-Ter-60610/unit-2108D/home/14112609,MRED as Distributed by MLS Grid,12101257,N,Y,41.9070365,-87.6319256
MLS Listing,,Condo/Co-op,600 N Dearborn St #1101,Chicago,IL,60654,450000,2,2.0,Farallon,,,2001,69,,1013,Active,,,https://www.redfin.com/IL/Chicago/600-N-Dearborn-St-60654/unit-1101/home/12696137,MRED as Distributed by MLS Grid,12106968,N,Y,41.8926974,-87.6301704
MLS Listing,,Single Family Residential,230 W 109th St,Chicago,IL,60628,80000,3,2.0,CHI - Roseland,1218,3049,1893,70,66,,Active,,,https://www.redfin.com/IL/Chicago/230-W-109th-St-60628/home/13076103,MRED as Distributed by MLS Grid,12101814,N,Y,41.6963379,-87.6292323
MLS Listing,,Condo/Co-op,225 S Sangamon St #811,Chicago,IL,60607,450000,2,2.0,CHI - Near West Side,1000,,2007,71,450,508,Active,,,https://www.redfin.com/IL/Chicago/225-S-Sangamon-St-60607/unit-811/home/52638433,MRED as Distributed by MLS Grid,12101595,N,Y,41.8782525,-87.6504831
MLS Listing,,Single Family Residential,9129 S Marshfield Ave,Chicago,IL,60620,275000,6,2.0,CHI - Washington Heights,1192,3920,1926,72,231,,Active,,,https://www.redfin.com/IL/Chicago/9129-S-Marshfield-Ave-60620/home/13100270,MRED as Distributed by MLS Grid,12097710,N,Y,41.7275371,-87.6637652
MLS Listing,,Condo/Co-op,2440 W Irving Park Rd #3,Chicago,IL,60618,699000,3,2.0,CHI - North Center,1750,,2019,74,399,230,Active,,,https://www.redfin.com/IL/Chicago/2440-W-Irving-Park-Rd-60618/unit-3/home/144322221,MRED as Distributed by MLS Grid,12102881,N,Y,41.9541656,-87.6900815
MLS Listing,,Condo/Co-op,5300 S Shore Dr #35,Chicago,IL,60615,230000,3,2.0,CHI - Hyde Park,1650,,1922,74,139,1366,Active,,,https://www.redfin.com/IL/Chicago/5300-S-Shore-Dr-60615/unit-35/home/188142289,MRED as Distributed by MLS Grid,12098970,N,Y,41.7993832,-87.5829545
MLS Listing,,Condo/Co-op,6812 N Wayne Ave Unit 3C,Chicago,IL,60626,155000,1,1.0,CHI - Rogers Park,600,,1925,76,258,208,Active,,,https://www.redfin.com/IL/Chicago/6812-N-Wayne-Ave-60626/unit-3C/home/12653952,MRED as Distributed by MLS Grid,12097633,N,Y,42.0059745,-87.6651702
MLS Listing,,Condo/Co-op,1720 S Michigan Ave #2004,Chicago,IL,60616,231000,1,1.0,CHI - Near South Side,720,,2007,85,321,334,Active,,,https://www.redfin.com/IL/Chicago/1720-S-Michigan-Ave-60616/unit-2004/home/39571796,MRED as Distributed by MLS Grid,12093012,N,Y,41.8586026,-87.6246153
MLS Listing,,Condo/Co-op,235 W Van Buren St #4508,Chicago,IL,60607,490000,2,2.0,CHI - Loop,1155,,2009,85,424,546,Active,,,https://www.redfin.com/IL/Chicago/235-W-Van-Buren-St-60607/unit-4508/home/113099009,MRED as Distributed by MLS Grid,12085002,N,Y,41.8765303,-87.6347529
MLS Listing,,Condo/Co-op,6431 N Damen Ave Unit 1E,Chicago,IL,60645,300000,3,2.0,Edgemoor Park Condos,1100,,1960,97,273,334,Active,,,https://www.redfin.com/IL/Chicago/6431-N-Damen-Ave-60645/unit-1E/home/18943903,MRED as Distributed by MLS Grid,12082510,N,Y,41.9986704,-87.6795724
MLS Listing,,Condo/Co-op,303 W Ohio St #1604,Chicago,IL,60654,319000,1,1.0,CHI - Near North Side,728,,2009,123,438,601,Active,,,https://www.redfin.com/IL/Chicago/303-W-Ohio-St-60654/unit-1604/home/40369364,MRED as Distributed by MLS Grid,12055404,N,Y,41.8921257,-87.6357066
MLS Listing,,Condo/Co-op,1528 S Wabash Ave #401,Chicago,IL,60605,274999,2,1.0,CHI - Near South Side,1180,,1904,130,233,724,Active,,,https://www.redfin.com/IL/Chicago/1528-S-Wabash-Ave-60605/unit-401/home/12694156,MRED as Distributed by MLS Grid,12043257,N,Y,41.8609592,-87.6260054
MLS Listing,,Single Family Residential,10644 S Wallace St,Chicago,IL,60628,300000,4,3.0,CHI - Roseland,1546,3920,1926,133,194,,Active,,,https://www.redfin.com/IL/Chicago/10644-S-Wallace-St-60628/home/13079229,MRED as Distributed by MLS Grid,12043361,N,Y,41.7002039,-87.6380737
MLS Listing,,Condo/Co-op,505 N Mcclurg Ct #2602,Chicago,IL,60611,824900,2,2.0,Parkview Condominiums,1464,,2008,152,563,1275,Active,,,https://www.redfin.com/IL/Chicago/505-N-McClurg-Ct-60611/unit-2602/home/21815594,MRED as Distributed by MLS Grid,12014941,N,Y,41.8915247,-87.6173266
Redfin Data,,Condo/Co-op,260 E Chestnut St #707,Chicago,IL,60611,209900,1,1.0,Chicago,,,1965,1,,,Pre On-Market,,,https://www.redfin.com/IL/Chicago/260-E-Chestnut-St-60611/unit-707/home/14119192,Coming Soon,101722,N,Y,41.8986419,-87.6196002
Redfin Data,,Single Family Residential,11041 S Emerald Ave,Chicago,IL,60628,269900,6,3.0,Chicago,,4843,1922,1,,,Pre On-Market,,,https://www.redfin.com/IL/Chicago/11041-S-Emerald-Ave-60628/home/13077456,Coming Soon,101717,N,Y,41.6929532,-87.6409001
Redfin Data,,Condo/Co-op,1019 W Monroe St Unit 4E,Chicago,IL,60607,774900,2,2.0,Chicago,1600,,2006,1,484,340,Pre On-Market,,,https://www.redfin.com/IL/Chicago/1019-W-Monroe-St-60607/unit-4E/home/18938476,Coming Soon,101715,N,Y,41.8802007,-87.6529142
Redfin Data,,Multi-Family (2-4 Unit),5028 N Major Ave,Chicago,IL,60630,769900,8,3.0,Chicago,2442,3484,1915,4,315,,Pre On-Market,,,https://www.redfin.com/IL/Chicago/5028-N-Major-Ave-60630/home/13500899,Coming Soon,101687,N,Y,41.9731608,-87.7712875
Redfin Data,,Single Family Residential,6141 S Rockwell St,Chicago,IL,60629,125000,3,1.0,Chicago,1298,3750,1922,4,96,,Pre On-Market,,,https://www.redfin.com/IL/Chicago/6141-S-Rockwell-St-60629/home/14011652,Coming Soon,101683,N,Y,41.7816459,-87.6883309
Redfin Data,,Condo/Co-op,7031 W Touhy Ave #308,Niles,IL,60714,315000,2,1.0,Niles,1363,,1998,8,231,363,Pre On-Market,,,https://www.redfin.com/IL/Niles/7031-W-Touhy-Ave-60714/unit-308/home/192436975,Coming Soon,101562,N,Y,42.0109136,-87.8029301
Redfin Data,,Condo/Co-op,4157 N Bernard St #2,Chicago,IL,60618,245000,2,1.0,Chicago,,,1929,12,,243,Pre On-Market,,,https://www.redfin.com/IL/Chicago/4157-N-Bernard-St-60618/unit-2/home/12687243,Coming Soon,101489,N,Y,41.957332,-87.713889
Redfin Data,,Condo/Co-op,1725 W Division St #201,Chicago,IL,60622,750000,2,2.0,Chicago,,6250,,13,,580,Pre On-Market,,,https://www.redfin.com/IL/Chicago/1725-W-Division-St-60622/unit-201/home/173041437,Coming Soon,101468,N,Y,41.9029869,-87.6709723
Redfin Data,,Condo/Co-op,8 W Monroe St #2100,Chicago,IL,60603,1290000,4,2.5,Chicago,5388,,1912,48,239,2277,Pre On-Market,,,https://www.redfin.com/IL/Chicago/8-W-Monroe-St-60603/unit-2100/home/45513676,Coming Soon,100732,N,Y,41.8808597,-87.6283136
Redfin Data,,Condo/Co-op,50 E 16th St #406,Chicago,IL,60616,375000,2,2.0,Chicago,1000,,2008,69,375,728,Pre On-Market,,,https://www.redfin.com/IL/Chicago/50-E-16th-St-60616/unit-406/home/21814069,Coming Soon,100151,N,Y,41.8603983,-87.6251554
Redfin Data,,Condo/Co-op,2909 N Sheridan Rd #1607,Chicago,IL,60657,215000,1,1.0,North Side,950,,1952,81,226,866,Pre On-Market,,,https://www.redfin.com/IL/Chicago/2909-N-Sheridan-Rd-60657/unit-1607/home/13370724,Coming Soon,99858,N,Y,41.9347019,-87.6391327
MLS Listing,,Single Family Residential,133 E 119th PL E 119th Pl,Chicago,IL,60628,220000,5,2.0,CHI - West Pullman,998,4125,1954,1,220,,Active,,,https://www.redfin.com/IL/Chicago/133-E-119th-Pl-60628/home/39908516,MRED as Distributed by MLS Grid,12164841,N,Y,41.6769676,-87.6191306
MLS Listing,,Condo/Co-op,2700 N Hampden Ct Unit 19A,Chicago,IL,60614,315000,1,1.0,CHI - Lincoln Park,785,,1969,1,401,671,Active,,,https://www.redfin.com/IL/Chicago/2700-N-Hampden-Ct-60614/unit-19A/home/13368205,MRED as Distributed by MLS Grid,12165765,N,Y,41.9308327,-87.6419459
MLS Listing,,Multi-Family (2-4 Unit),3219 W 64th St,Chicago,IL,60629,299000,5,2.0,CHI - Chicago Lawn,,3125,1913,1,,,Active,,,https://www.redfin.com/IL/Chicago/3219-W-64th-St-60629/home/13991929,MRED as Distributed by MLS Grid,12164735,N,Y,41.7769163,-87.703906
MLS Listing,,Condo/Co-op,2340 W Adams St #41,Chicago,IL,60612,489000,3,3.0,CHI - Near West Side,,,2017,1,,341,Active,,,https://www.redfin.com/IL/Chicago/2340-W-Adams-St-60612/unit-41/home/143851315,MRED as Distributed by MLS Grid,12165726,N,Y,41.8787546,-87.6854189
MLS Listing,,Single Family Residential,7211 W Ibsen St,Chicago,IL,60631,869000,6,4.0,CHI - Edison Park,3800,5183,1931,1,229,,Active,,,https://www.redfin.com/IL/Chicago/7211-W-Ibsen-St-60631/home/13637054,MRED as Distributed by MLS Grid,12165366,N,Y,42.0060825,-87.8071737
MLS Listing,,Multi-Family (2-4 Unit),2649 W Adams St,Chicago,IL,60612,435000,4,2.0,CHI - East Garfield Park,,3000,1898,1,,,Active,,,https://www.redfin.com/IL/Chicago/2649-W-Adams-St-60612/home/13259384,MRED as Distributed by MLS Grid,12161920,N,Y,41.8781735,-87.693263
MLS Listing,,Condo/Co-op,600 S Dearborn St #614,Chicago,IL,60605,289890,1,1.0,CHI - Loop,983,,1910,1,295,465,Active,,,https://www.redfin.com/IL/Chicago/600-S-Dearborn-St-60605/unit-614/home/14092243,MRED as Distributed by MLS Grid,12165704,N,Y,41.8741541,-87.6293591
MLS Listing,,Condo/Co-op,1500 N Lake Shore Dr Unit 22A,Chicago,IL,60610,3900000,4,5.5,CHI - Near North Side,6450,,1927,1,605,9938,Active,,,https://www.redfin.com/IL/Chicago/1500-N-Lake-Shore-Dr-60610/unit-22A/home/25671456,MRED as Distributed by MLS Grid,12159376,N,Y,41.909737,-87.626699
MLS Listing,,Townhouse,3383 S Archer Ave,Chicago,IL,60608,435000,3,2.5,CHI - McKinley Park,1480,,2004,1,294,95,Active,,,https://www.redfin.com/IL/Chicago/3383-S-Archer-Ave-60608/home/18923685,MRED as Distributed by MLS Grid,12165738,N,Y,41.8323172,-87.6741243
MLS Listing,,Single Family Residential,5437 S Lotus Ave,Chicago,IL,60638,269900,4,2.0,CHI - Garfield Ridge,1032,3125,1957,1,262,,Active,,,https://www.redfin.com/IL/Chicago/5437-S-Lotus-Ave-60638/home/14023048,MRED as Distributed by MLS Grid,12163421,N,Y,41.7934424,-87.7583991
MLS Listing,,Condo/Co-op,104 E 41st St Unit 2E,Chicago,IL,60653,330000,3,2.5,CHI - Grand Boulevard,2000,,2007,1,165,483,Active,,,https://www.redfin.com/IL/Chicago/104-E-41st-St-60653/unit-2E/home/26796256,MRED as Distributed by MLS Grid,12024128,N,Y,41.8203387,-87.6227337
MLS Listing,,Single Family Residential,5127 W Argyle St,Chicago,IL,60630,495000,3,2.0,CHI - Jefferson Park,2395,4000,1915,1,207,,Active,September-21-2024 11:00 AM,September-21-2024 01:00 PM,https://www.redfin.com/IL/Chicago/5127-W-Argyle-St-60630/home/13495605,MRED as Distributed by MLS Grid,12163885,N,Y,41.9713747,-87.7562677
MLS Listing,,Condo/Co-op,5218 S Dorchester Ave #3,Chicago,IL,60615,390000,3,2.0,CHI - Hyde Park,1800,,1896,1,217,600,Active,,,https://www.redfin.com/IL/Chicago/5218-S-Dorchester-Ave-60615/unit-3/home/13949866,MRED as Distributed by MLS Grid,12165334,N,Y,41.8004065,-87.5920036
MLS Listing,,Multi-Family (2-4 Unit),2244 W Taylor St,Chicago,IL,60612,840000,8,4.0,CHI - Near West Side,,2500,1991,1,,,Active,,,https://www.redfin.com/IL/Chicago/2244-W-Taylor-St-60612/home/192582515,MRED as Distributed by MLS Grid,12164661,N,Y,41.8692217,-87.6829755
MLS Listing,,Single Family Residential,10155 S Wood St,Chicago,IL,60643,590000,4,2.5,CHI - Beverly,,11136,1885,1,,,Active,,,https://www.redfin.com/IL/Chicago/10155-S-Wood-St-60643/home/13096473,MRED as Distributed by MLS Grid,12165683,N,Y,41.708388,-87.6666397
MLS Listing,,Multi-Family (5+ Unit),7048 S Western Ave,Chicago,IL,60636,164700,13,13.0,CHI - Chicago Lawn,,5376,1900,1,,,Active,,,https://www.redfin.com/IL/Chicago/7048-S-Western-Ave-60636/home/188091232,MRED as Distributed by MLS Grid,12165681,N,Y,41.7650365,-87.683636
MLS Listing,,Multi-Family (2-4 Unit),3529 W 79th St,Chicago,IL,60652,429900,8,3.0,,,,1963,1,,,Active,,,https://www.redfin.com/IL/Chicago/Undisclosed-address-60652/home/192582090,MRED as Distributed by MLS Grid,12165184,N,Y,41.7494104,-87.7109307
MLS Listing,,Condo/Co-op,6200 S Evans Ave #2,Chicago,IL,60637,259900,3,2.0,CHI - Woodlawn,,,1925,1,,369,Active,September-21-2024 11:00 AM,September-21-2024 12:30 PM,https://www.redfin.com/IL/Chicago/6200-S-Evans-Ave-60637/unit-2/home/12624040,MRED as Distributed by MLS Grid,12164969,N,Y,41.782076,-87.6074927
MLS Listing,,Single Family Residential,414 W 96th Pl,Chicago,IL,60628,229000,4,2.0,CHI - Washington Heights,1366,,1957,1,168,,Active,,,https://www.redfin.com/IL/Chicago/414-W-96th-Pl-60628/home/13093182,MRED as Distributed by MLS Grid,12165629,N,Y,41.7191127,-87.6346218
MLS Listing,,Condo/Co-op,1537 W Augusta Blvd Unit 3F,Chicago,IL,60642,310000,2,1.0,CHI - West Town,,,,1,,144,Active,September-21-2024 11:00 AM,September-21-2024 01:00 PM,https://www.redfin.com/IL/Chicago/1537-W-Augusta-Blvd-60642/unit-3F/home/18923454,MRED as Distributed by MLS Grid,12165623,N,Y,41.8995044,-87.6663947
MLS Listing,,Single Family Residential,5240 S Knox Ave,Chicago,IL,60638,349900,4,2.0,CHI - Garfield Ridge,1700,7500,1953,1,206,,Active,,,https://www.redfin.com/IL/Chicago/5240-S-Knox-Ave-60632/home/22602602,MRED as Distributed by MLS Grid,12165505,N,Y,41.7975617,-87.7395187
MLS Listing,,Condo/Co-op,363 E Wacker Dr #2503,Chicago,IL,60601,3178000,4,4.5,CHI - Loop,3400,,2020,1,935,2138,Active,,,https://www.redfin.com/IL/Chicago/363-E-Wacker-Dr-60601/unit-2503/home/191010687,MRED as Distributed by MLS Grid,12149891,N,Y,41.8874416,-87.6174589
MLS Listing,,Single Family Residential,3352 N Narragansett Ave,Chicago,IL,60634,349900,4,2.0,CHI - Dunning,1134,4340,1923,1,309,,Active,,,https://www.redfin.com/IL/Chicago/3352-N-Narragansett-Ave-60634/home/13467000,MRED as Distributed by MLS Grid,12165144,N,Y,41.9416423,-87.7864208
MLS Listing,,Single Family Residential,4022 N Kimball Ave,Chicago,IL,60618,665000,5,3.0,CHI - Irving Park,2500,3125,1903,1,266,,Active,,,https://www.redfin.com/IL/Chicago/4022-N-Kimball-Ave-60618/home/13482697,MRED as Distributed by MLS Grid,12165386,N,Y,41.9546066,-87.7131919
MLS Listing,,Condo/Co-op,3452 N Harlem Ave W #1,Chicago,IL,60634,212500,2,2.0,CHI - Dunning,980,,1974,1,217,180,Active,,,https://www.redfin.com/IL/Chicago/3452-N-Harlem-Ave-60634/unit-1W/home/183779199,MRED as Distributed by MLS Grid,12158741,N,Y,41.9430783,-87.8072625
MLS Listing,,Multi-Family (2-4 Unit),5079 W Jackson Blvd,Chicago,IL,60644,360000,7,2.0,CHI - Austin,,3000,1912,1,,,Active,,,https://www.redfin.com/IL/Chicago/5079-W-Jackson-Blvd-60644/home/13251756,MRED as Distributed by MLS Grid,12165353,N,Y,41.8764644,-87.7525059
MLS Listing,,Condo/Co-op,1 E Schiller St Unit 16B,Chicago,IL,60610,399000,2,1.0,CHI - Near North Side,,,1964,1,,915,Active,,,https://www.redfin.com/IL/Chicago/1-E-Schiller-St-60610/unit-16B/home/190052866,MRED as Distributed by MLS Grid,12165571,N,Y,41.907619,-87.6281771
MLS Listing,,Condo/Co-op,7721 N Marshfield Ave #3,Chicago,IL,60626,370000,3,2.0,CHI - Rogers Park,1500,,1919,1,247,318,Active,,,https://www.redfin.com/IL/Chicago/7721-N-Marshfield-Ave-60626/unit-3/home/18940437,MRED as Distributed by MLS Grid,12159672,N,Y,42.0217776,-87.6717099
MLS Listing,,Condo/Co-op,400 N Clinton St #608,Chicago,IL,60654,950000,3,3.0,Kinzie Park,2202,,2000,1,431,1693,Active,September-22-2024 02:00 PM,September-22-2024 04:00 PM,https://www.redfin.com/IL/Chicago/400-N-Clinton-St-60654/unit-608/home/12766373,MRED as Distributed by MLS Grid,12165580,N,Y,41.8893482,-87.6407545
MLS Listing,,Condo/Co-op,5415 N Sheridan Rd #4912,Chicago,IL,60640,168500,0,1.0,CHI - Edgewater,600,,,1,281,561,Active,,,https://www.redfin.com/IL/Chicago/5415-N-Sheridan-Rd-60640/unit-4912/home/13401358,MRED as Distributed by MLS Grid,12165137,N,Y,41.9801211,-87.6543366
MLS Listing,,Single Family Residential,4608 S Marshfield Ave,Chicago,IL,60609,315000,4,2.0,Back of the Yards,1300,3005,1900,1,242,,Active,September-22-2024 11:00 AM,September-22-2024 02:00 PM,https://www.redfin.com/IL/Chicago/4608-S-Marshfield-Ave-60609/home/13957396,MRED as Distributed by MLS Grid,12161794,N,Y,41.8100732,-87.6664836
MLS Listing,,Multi-Family (2-4 Unit),11245 S Ewing Ave,Chicago,IL,60617,349000,7,3.0,CHI - East Side,,5000,1964,1,,,Active,,,https://www.redfin.com/IL/Chicago/11245-S-Ewing-Ave-60617/home/12563686,MRED as Distributed by MLS Grid,12165210,N,Y,41.6905303,-87.5350072
MLS Listing,,Single Family Residential,1222 W Lill Ave,Chicago,IL,60614,1050000,2,2.5,CHI - Lincoln Park,1700,2345,1960,1,618,,Active,,,https://www.redfin.com/IL/Chicago/1222-W-Lill-Ave-60614/home/13360965,MRED as Distributed by MLS Grid,12157132,N,Y,41.9278892,-87.6595447
MLS Listing,,Single Family Residential,6534 W 64th Pl,Chicago,IL,60638,397000,5,2.0,CHI - Clearing,1044,,1957,1,380,,Active,,,https://www.redfin.com/IL/Chicago/6534-W-64th-Pl-60638/home/13997077,MRED as Distributed by MLS Grid,12165512,N,Y,41.7751042,-87.7849965
MLS Listing,,Vacant Land,3040 E 79th Pl,Chicago,IL,60617,25000,,,CHI - South Chicago,,,,1,,,Active,,,https://www.redfin.com/IL/Chicago/3040-E-79th-Pl-60617/home/18504945,MRED as Distributed by MLS Grid,12164154,N,Y,41.751302,-87.550145
MLS Listing,,Single Family Residential,5407 S Justine St,Chicago,IL,60609,94900,3,2.0,CHI - New City,1058,3123,1923,1,90,,Active,,,https://www.redfin.com/IL/Chicago/5407-S-Justine-St-60609/home/13953067,MRED as Distributed by MLS Grid,12165469,N,Y,41.7956152,-87.6631388
MLS Listing,,Condo/Co-op,5415 N Sheridan Rd #915,Chicago,IL,60640,159900,1,1.0,CHI - Edgewater,700,,1974,1,228,680,Active,,,https://www.redfin.com/IL/Chicago/5415-N-Sheridan-Rd-60640/unit-915/home/13400067,MRED as Distributed by MLS Grid,12158882,N,Y,41.9801211,-87.6543366
MLS Listing,,Single Family Residential,2136 N Spaulding Ave,Chicago,IL,60647,750000,4,2.0,CHI - Logan Square,,7573,1899,1,,,Active,,,https://www.redfin.com/IL/Chicago/2136-N-Spaulding-Ave-60647/home/13419594,MRED as Distributed by MLS Grid,12165533,N,Y,41.9203289,-87.7106228
MLS Listing,,Single Family Residential,5639 N Major Ave,Chicago,IL,60646,469000,3,2.5,CHI - Jefferson Park,1200,3049,1970,1,391,,Active,,,https://www.redfin.com/IL/Chicago/5639-N-Major-Ave-60646/home/13509383,MRED as Distributed by MLS Grid,12165228,N,Y,41.9841596,-87.7704478
MLS Listing,,Single Family Residential,8227 S Wentworth Ave,Chicago,IL,60620,140000,3,2.0,CHI - Chatham,1000,2300,1965,1,140,,Active,,,https://www.redfin.com/IL/Chicago/8227-S-Wentworth-Ave-60620/home/13226682,MRED as Distributed by MLS Grid,12165481,N,Y,41.7445902,-87.6289016
MLS Listing,,Condo/Co-op,780 S Federal St #401,Chicago,IL,60605,339900,2,2.0,Printers Square,1260,,1913,1,270,939,Active,,,https://www.redfin.com/IL/Chicago/780-S-Federal-St-60605/unit-401/home/18938494,MRED as Distributed by MLS Grid,12165082,N,Y,41.8725505,-87.6297181
MLS Listing,,Condo/Co-op,1347 W Eddy St #308,Chicago,IL,60657,259000,1,1.0,CHI - Lake View,,,,1,,260,Active,,,https://www.redfin.com/IL/Chicago/1347-W-Eddy-St-60657/unit-308/home/18936046,MRED as Distributed by MLS Grid,12163673,N,Y,41.9459742,-87.6635729
MLS Listing,,Condo/Co-op,41 E 8th St #1406,Chicago,IL,60605,389000,2,2.0,CHI - Loop,1300,,2002,1,299,694,Active,,,https://www.redfin.com/IL/Chicago/41-E-8th-St-60605/unit-1406/home/12665088,MRED as Distributed by MLS Grid,12159599,N,Y,41.8717102,-87.6263215
MLS Listing,,Condo/Co-op,732 S Financial Pl #415,Chicago,IL,60605,315000,1,1.0,Printers Row Lofts,1034,,1908,1,305,431,Active,September-21-2024 11:00 AM,September-21-2024 12:30 PM,https://www.redfin.com/IL/Chicago/732-S-Financial-Pl-60605/unit-415/home/12640421,MRED as Distributed by MLS Grid,12152770,N,Y,41.8725019,-87.6329472
MLS Listing,,Single Family Residential,2245 S Homan Ave,Chicago,IL,60623,259000,3,1.0,CHI - South Lawndale,1650,3123,1900,1,157,,Active,,,https://www.redfin.com/IL/Chicago/2245-S-Homan-Ave-60623/home/14150874,MRED as Distributed by MLS Grid,12164006,N,Y,41.8503903,-87.7098405
MLS Listing,,Multi-Family (2-4 Unit),7939 S Champlain Ave,Chicago,IL,60619,339900,5,3.0,CHI - Chatham,,3484,1920,1,,,Active,,,https://www.redfin.com/IL/Chicago/7939-S-Champlain-Ave-60619/home/13226252,MRED as Distributed by MLS Grid,12165450,N,Y,41.750057,-87.6085449
MLS Listing,,Townhouse,2725 N Janssen Ave,Chicago,IL,60614,1100000,4,3.0,CHI - Lincoln Park,2700,,1989,1,407,409,Active,,,https://www.redfin.com/IL/Chicago/2725-N-Janssen-Ave-60614/home/13363064,MRED as Distributed by MLS Grid,12165479,N,Y,41.9313614,-87.6644704
MLS Listing,,Condo/Co-op,5000 S Cornell Ave Unit 5B,Chicago,IL,60615,409000,2,2.0,CHI - Kenwood,1800,,1920,1,227,1345,Active,,,https://www.redfin.com/IL/Chicago/5000-S-Cornell-Ave-60615/unit-5B/home/13948943,MRED as Distributed by MLS Grid,12163949,N,Y,41.8043335,-87.586659
MLS Listing,,Condo/Co-op,415 W Aldine Ave Unit 9D,Chicago,IL,60657,430000,2,2.0,CHI - Lake View,1811,,1927,1,237,1254,Active,,,https://www.redfin.com/IL/Chicago/415-W-Aldine-Ave-60657/unit-9D/home/13374526,MRED as Distributed by MLS Grid,12165433,N,Y,41.941994,-87.640778
MLS Listing,,Single Family Residential,8155 S Kilpatrick Ave,Chicago,IL,60652,199900,3,1.5,CHI - Ashburn,998,5039,1953,1,200,,Active,,,https://www.redfin.com/IL/Chicago/8155-S-Kilpatrick-Ave-60652/home/13972156,MRED as Distributed by MLS Grid,12165458,N,Y,41.7441737,-87.738232
MLS Listing,,Multi-Family (2-4 Unit),4133 W Melrose St,Chicago,IL,60641,549000,6,4.0,CHI - Irving Park,,5000,1924,1,,,Active,September-22-2024 01:00 PM,September-22-2024 03:00 PM,https://www.redfin.com/IL/Chicago/4133-W-Melrose-St-60641/home/13457617,MRED as Distributed by MLS Grid,12165478,N,Y,41.9397573,-87.7309571
MLS Listing,,Multi-Family (2-4 Unit),4724 S Racine Ave,Chicago,IL,60609,315000,4,2.0,CHI - New City,,2613,1903,1,,,Active,,,https://www.redfin.com/IL/Chicago/4724-S-Racine-Ave-60609/home/183978243,MRED as Distributed by MLS Grid,12165262,N,Y,41.807945,-87.6554387
MLS Listing,,Condo/Co-op,25 E Superior St #4401,Chicago,IL,60611,1699000,3,3.5,Fordham,4800,,2003,1,354,4605,Active,,,https://www.redfin.com/IL/Chicago/25-E-Superior-St-60611/unit-4401/home/12695195,MRED as Distributed by MLS Grid,12148808,N,Y,41.8954074,-87.6272288
MLS Listing,,Multi-Family (2-4 Unit),7738 S Merrill Ave,Chicago,IL,60649,350000,5,3.0,CHI - South Shore,,3125,1920,1,,,Active,,,https://www.redfin.com/IL/Chicago/7738-S-Merrill-Ave-60649/home/13923368,MRED as Distributed by MLS Grid,12164672,N,Y,41.7541147,-87.5726972
MLS Listing,,Single Family Residential,4138 N Osceola Ave,Norridge,IL,60706,359900,2,1.5,Norridge,2323,3750,1953,1,155,,Active,,,https://www.redfin.com/IL/Norridge/4138-N-Osceola-Ave-60706/home/13553171,MRED as Distributed by MLS Grid,12165444,N,Y,41.9559571,-87.8136682
MLS Listing,,Single Family Residential,851 W Webster Ave,Chicago,IL,60614,2495000,5,5.0,CHI - Lincoln Park,4850,3000,1881,1,514,,Active,September-21-2024 11:00 AM,September-21-2024 01:00 PM,https://www.redfin.com/IL/Chicago/851-W-Webster-Ave-60614/home/13352945,MRED as Distributed by MLS Grid,12165006,N,Y,41.9215856,-87.6505655
MLS Listing,,Multi-Family (2-4 Unit),848 N Ashland Ave,Chicago,IL,60622,749000,3,2.0,CHI - West Town,,2613,1904,1,,,Active,,,https://www.redfin.com/IL/Chicago/848-N-Ashland-Ave-60622/home/14105200,MRED as Distributed by MLS Grid,12165440,N,Y,41.8974956,-87.6676284
MLS Listing,,Condo/Co-op,6103 W Higgins Ave Unit 2-C,Chicago,IL,60630,146103,1,1.0,CHI - Jefferson Park,700,,1971,1,209,297,Active,,,https://www.redfin.com/IL/Chicago/6103-W-Higgins-Ave-60630/unit-2C/home/12683637,MRED as Distributed by MLS Grid,12159417,N,Y,41.9736727,-87.7810411
MLS Listing,,Single Family Residential,4252 Newland Ave,Norridge,IL,60706,479900,3,2.0,Norridge,,4688,1961,1,,,Active,,,https://www.redfin.com/IL/Norridge/4252-N-Newland-Ave-60706/home/13472751,MRED as Distributed by MLS Grid,12165452,N,Y,41.9590051,-87.8016909
MLS Listing,,Condo/Co-op,125 S Jefferson St #1208,Chicago,IL,60661,284900,1,1.0,CHI - Near West Side,850,,2003,1,335,554,Active,,,https://www.redfin.com/IL/Chicago/125-S-Jefferson-St-60661/unit-1208/home/12689187,MRED as Distributed by MLS Grid,12155288,N,Y,41.879941,-87.6421575
MLS Listing,,Multi-Family (2-4 Unit),1936 S Spaulding Ave,Chicago,IL,60623,435000,5,3.0,CHI - North Lawndale,,,1885,1,,,Active,,,https://www.redfin.com/IL/Chicago/1936-S-Spaulding-Ave-60623/home/13233450,MRED as Distributed by MLS Grid,12165216,N,Y,41.8543225,-87.7080377
MLS Listing,,Condo/Co-op,850 N Dewitt Pl Unit 17F,Chicago,IL,60611,165000,1,1.0,CHI - Near North Side,850,,1961,1,194,670,Active,,,https://www.redfin.com/IL/Chicago/850-N-Dewitt-Pl-60611/unit-17F/home/14117279,MRED as Distributed by MLS Grid,12163310,N,Y,41.8982232,-87.620759
MLS Listing,,Single Family Residential,4010 N Octavia Ave,Norridge,IL,60706,325000,4,2.0,Norridge,2701,3750,1925,1,120,,Active,September-21-2024 11:00 AM,September-21-2024 01:00 PM,https://www.redfin.com/IL/Norridge/4010-N-Octavia-Ave-60706/home/13551341,MRED as Distributed by MLS Grid,12165199,N,Y,41.9533221,-87.8099688
MLS Listing,,Parking,1040 W Adams St Unit M001,Chicago,IL,60607,7000,,,CHI - Near West Side,,152,,1,,29,Active,,,https://www.redfin.com/IL/Chicago/1040-W-Adams-St-60607/unit-M001/home/192580488,MRED as Distributed by MLS Grid,12165401,N,Y,41.8792338,-87.6536666
MLS Listing,,Multi-Family (2-4 Unit),5125 S Carpenter St,Chicago,IL,60609,399999,8,2.0,CHI - New City,,3125,,1,,,Active,,,https://www.redfin.com/IL/Chicago/5125-S-Carpenter-St-60609/home/13953741,MRED as Distributed by MLS Grid,12165438,N,Y,41.800687,-87.6511572
MLS Listing,,Multi-Family (2-4 Unit),6323 N Wayne Ave,Chicago,IL,60660,849000,6,4.0,CHI - Edgewater,,,1903,1,,,Active,,,https://www.redfin.com/IL/Chicago/6323-N-Wayne-Ave-60660/home/192060334,MRED as Distributed by MLS Grid,12164867,N,Y,41.9970616,-87.6638753
MLS Listing,,Parking,1040 W Adams St Unit M003,Chicago,IL,60607,7000,,,CHI - Near West Side,,152,,1,,24,Active,,,https://www.redfin.com/IL/Chicago/1040-W-Adams-St-60607/unit-M003/home/192580246,MRED as Distributed by MLS Grid,12164808,N,Y,41.8792338,-87.6536666
MLS Listing,,Single Family Residential,6341 N Springfield Ave,Chicago,IL,60659,425000,3,2.0,CHI - North Park,1600,4092,1956,1,266,,Active,,,https://www.redfin.com/IL/Chicago/6341-N-Springfield-Ave-60659/home/13518429,MRED as Distributed by MLS Grid,12165418,N,Y,41.9967276,-87.726162
MLS Listing,,Condo/Co-op,1356 W Chestnut St #405,Chicago,IL,60642,1500000,3,2.5,CHI - West Town,2254,,2024,1,665,694,Active,September-22-2024 02:00 PM,September-22-2024 04:00 PM,https://www.redfin.com/IL/Chicago/1356-W-Chestnut-St-60642/unit-405/home/178367579,MRED as Distributed by MLS Grid,12063232,N,Y,41.8981878,-87.6621952
MLS Listing,,Condo/Co-op,41 E 8th St #2607,Chicago,IL,60605,429990,2,2.0,CHI - Loop,1303,,2003,1,330,993,Active,,,https://www.redfin.com/IL/Chicago/41-E-8th-St-60605/unit-2607/home/12679237,MRED as Distributed by MLS Grid,12162249,N,Y,41.8717102,-87.6263215
MLS Listing,,Condo/Co-op,5318 N Ravenswood Ave #202,Chicago,IL,60640,425000,2,2.0,CHI - Lincoln Square,,,2003,1,,309,Active,,,https://www.redfin.com/IL/Chicago/5318-N-Ravenswood-Ave-60640/unit-202/home/192579835,MRED as Distributed by MLS Grid,12164832,N,Y,41.9785654,-87.6754118
MLS Listing,,Condo/Co-op,3210 W Berwyn Ave Unit 3W,Chicago,IL,60625,268000,2,2.0,CHI - North Park,750,,1928,1,357,278,Active,,,https://www.redfin.com/IL/Chicago/3210-W-Berwyn-Ave-60625/unit-3W/home/45475541,MRED as Distributed by MLS Grid,12164700,N,Y,41.9776888,-87.7092132
MLS Listing,,Condo/Co-op,1755 E 55th St #503,Chicago,IL,60615,139000,2,2.0,CHI - Hyde Park,1750,,1926,1,79,2044,Active,September-22-2024 01:00 PM,September-22-2024 02:30 PM,https://www.redfin.com/IL/Chicago/1755-E-55th-St-60615/unit-503/home/28845959,MRED as Distributed by MLS Grid,12165373,N,Y,41.7949183,-87.5815604
MLS Listing,,Multi-Family (2-4 Unit),7456 N Clark St,Chicago,IL,60626,2600000,11,8.5,CHI - Rogers Park,,,1898,1,,,Active,,,https://www.redfin.com/IL/Chicago/7456-N-Clark-St-60626/home/13572696,MRED as Distributed by MLS Grid,12164262,N,Y,42.0175279,-87.675826
MLS Listing,,Multi-Family (2-4 Unit),4918 N Monticello Ave,Chicago,IL,60625,599900,9,3.0,CHI - Albany Park,,4375,1916,1,,,Active,,,https://www.redfin.com/IL/Chicago/4918-N-Monticello-Ave-60625/home/180627544,MRED as Distributed by MLS Grid,12165350,N,Y,41.9707766,-87.7198723
MLS Listing,,Single Family Residential,4248 W West End Ave,Chicago,IL,60624,385000,3,2.5,CHI - West Garfield Park,3000,3775,1906,1,128,,Active,September-21-2024 12:00 PM,September-21-2024 03:00 PM,https://www.redfin.com/IL/Chicago/4248-W-West-End-Ave-60624/home/13262826,MRED as Distributed by MLS Grid,12156483,N,Y,41.8835838,-87.7325719
MLS Listing,,Condo/Co-op,5455 N Sheridan Rd #2401,Chicago,IL,60640,345000,2,2.0,CHI - Edgewater,1300,,1970,1,265,1254,Active,,,https://www.redfin.com/IL/Chicago/5455-N-Sheridan-Rd-60640/unit-2401/home/13400579,MRED as Distributed by MLS Grid,12157856,N,Y,41.9816886,-87.6547103
MLS Listing,,Multi-Family (2-4 Unit),3028 S Saint Louis Ave,Chicago,IL,60623,359900,7,2.0,Little Village,,3125,,1,,,Active,,,https://www.redfin.com/IL/Chicago/3028-S-Saint-Louis-Ave-60623/home/14149591,MRED as Distributed by MLS Grid,12164825,N,Y,41.8380455,-87.7124606
MLS Listing,,Single Family Residential,2427 S Lawndale St,Chicago,IL,60623,294000,3,2.0,CHI - South Lawndale,1600,5875,,1,184,,Active,,,https://www.redfin.com/IL/Chicago/2427-S-Lawndale-Ave-60623/home/14151263,MRED as Distributed by MLS Grid,12165250,N,Y,41.8471969,-87.7170581
MLS Listing,,Condo/Co-op,1000 W Washington Blvd #513,Chicago,IL,60607,1100000,3,2.5,CHI - Near West Side,2200,,1910,1,500,1251,Active,,,https://www.redfin.com/IL/Chicago/1000-W-Washington-Blvd-60607/unit-513/home/12789777,MRED as Distributed by MLS Grid,12162551,N,Y,41.8834409,-87.6527871
MLS Listing,,Condo/Co-op,159 E Walton Pl Unit 15A,Chicago,IL,60611,2250000,3,3.5,CHI - Near North Side,2832,,1929,1,794,3264,Active,,,https://www.redfin.com/IL/Chicago/159-E-Walton-Pl-60611/unit-15A/home/12606665,MRED as Distributed by MLS Grid,12161494,N,Y,41.8997872,-87.6234987
MLS Listing,,Condo/Co-op,1444 N Orleans St Unit 7A,Chicago,IL,60610,524900,3,2.0,CHI - Near North Side,1500,,2003,1,350,799,Active,September-21-2024 01:30 PM,September-21-2024 03:00 PM,https://www.redfin.com/IL/Chicago/1444-N-Orleans-St-60610/unit-7A/home/12627473,MRED as Distributed by MLS Grid,12165274,N,Y,41.9089531,-87.6378153
MLS Listing,,Single Family Residential,848 N Trumbull Ave,Chicago,IL,60651,260000,4,1.0,CHI - Humboldt Park,1600,3125,,1,163,,Active,,,https://www.redfin.com/IL/Chicago/848-N-Trumbull-Ave-60651/home/13285313,MRED as Distributed by MLS Grid,12164887,N,Y,41.8969811,-87.7129994
MLS Listing,,Multi-Family (2-4 Unit),2322 E 75th St,Chicago,IL,60649,450000,3,1.0,CHI - South Shore,,,1918,1,,,Active,,,https://www.redfin.com/IL/Chicago/2322-E-75th-St-60649/home/13924244,MRED as Distributed by MLS Grid,12115391,N,Y,41.7591294,-87.5678258
MLS Listing,,Single Family Residential,8161 S Tripp Ave,Chicago,IL,60652,355000,4,2.0,CHI - Ashburn,1024,,1953,1,347,,Active,,,https://www.redfin.com/IL/Chicago/8161-S-Tripp-Ave-60652/home/13968913,MRED as Distributed by MLS Grid,12165256,N,Y,41.7440921,-87.7275468
MLS Listing,,Single Family Residential,3532 W Pierce Ave,Chicago,IL,60651,484900,5,2.0,CHI - Humboldt Park,1938,2832,1898,1,250,,Active,,,https://www.redfin.com/IL/Chicago/3532-W-Pierce-Ave-60651/home/13286137,MRED as Distributed by MLS Grid,12165255,N,Y,41.9093007,-87.7157159
MLS Listing,,Condo/Co-op,4734 N Magnolia Ave Unit G,Chicago,IL,60640,345000,2,2.0,CHI - Uptown,1400,,,1,246,300,Active,,,https://www.redfin.com/IL/Chicago/4734-N-Magnolia-Ave-60640/unit-G/home/12801472,MRED as Distributed by MLS Grid,12165244,N,Y,41.9682097,-87.661457
MLS Listing,,Condo/Co-op,4170 N Marine Dr Unit 9E,Chicago,IL,60613,419900,2,2.0,The Waterford,1350,,1973,1,311,938,Active,,,https://www.redfin.com/IL/Chicago/4170-N-Marine-Dr-60613/unit-9E/home/13396573,MRED as Distributed by MLS Grid,12165231,N,Y,41.9576338,-87.647048
MLS Listing,,Single Family Residential,6343 S Washtenaw Ave,Chicago,IL,60629,349500,6,2.0,CHI - Chicago Lawn,1404,3841,1916,1,249,,Active,,,https://www.redfin.com/IL/Chicago/6343-S-Washtenaw-Ave-60629/home/13988329,MRED as Distributed by MLS Grid,12165116,N,Y,41.7777984,-87.6906434
MLS Listing,,Condo/Co-op,4 E Elm St Unit 6S,Chicago,IL,60611,1750000,3,3.5,CHI - Near North Side,3486,,2016,1,502,3891,Active,,,https://www.redfin.com/IL/Chicago/4-E-Elm-St-60611/unit-6S/home/171314651,MRED as Distributed by MLS Grid,12165208,N,Y,41.9034956,-87.6283579
MLS Listing,,Single Family Residential,2622 120th St,Blue Island,IL,60406,249900,3,1.5,Blue Island,1090,5960,1956,1,229,,Active,September-21-2024 01:00 PM,September-21-2024 03:00 PM,https://www.redfin.com/IL/Blue-Island/2622-120th-St-60406/home/13131596,MRED as Distributed by MLS Grid,12165203,N,Y,41.6756167,-87.6865462
MLS Listing,,Multi-Family (5+ Unit),2408 S Blue Island Ave,Chicago,IL,60608,1900000,13,14.0,CHI - Lower West Side,,,1901,1,,,Active,,,https://www.redfin.com/IL/Chicago/2408-S-Blue-Island-Ave-60608/home/192577365,MRED as Distributed by MLS Grid,12165070,N,Y,41.848793,-87.675963
MLS Listing,,Single Family Residential,5811 W 55th St,Chicago,IL,60638,295000,5,2.0,CHI - Garfield Ridge,1071,4625,1956,1,275,,Active,,,https://www.redfin.com/IL/Chicago/5811-W-55th-St-60638/home/14003527,MRED as Distributed by MLS Grid,12165193,N,Y,41.7924334,-87.7676866
MLS Listing,,Condo/Co-op,77 E Walton Pl Unit 24E,Chicago,IL,60611,1075000,2,2.0,CHI - Near North Side,1916,,1989,1,561,2420,Active,,,https://www.redfin.com/IL/Chicago/77-E-Walton-St-60611/unit-24E/home/22833020,MRED as Distributed by MLS Grid,12160457,N,Y,41.8996412,-87.6251219
MLS Listing,,Condo/Co-op,6833 N Oakley Ave Unit 2A,Chicago,IL,60645,145000,1,1.0,CHI - West Ridge,,,,1,,320,Active,,,https://www.redfin.com/IL/Chicago/6833-N-Oakley-Ave-60645/unit-2A/home/12671216,MRED as Distributed by MLS Grid,12164923,N,Y,42.006084,-87.6878519
MLS Listing,,Single Family Residential,3525 N Narragansett Ave,Chicago,IL,60634,409900,3,1.5,CHI - Dunning,1334,4800,1973,1,307,,Active,,,https://www.redfin.com/IL/Chicago/3525-N-Narragansett-Ave-60634/home/13465204,MRED as Distributed by MLS Grid,12164512,N,Y,41.9446167,-87.7860223
MLS Listing,,Condo/Co-op,5601 N Sheridan Rd Unit 19D,Chicago,IL,60660,168000,1,1.5,CHI - Edgewater,800,,1966,1,210,722,Active,,,https://www.redfin.com/IL/Chicago/5601-N-Sheridan-Rd-60660/unit-19D/home/13407784,MRED as Distributed by MLS Grid,12165139,N,Y,41.9840286,-87.6546043
MLS Listing,,Condo/Co-op,1440 N Lake Shore Dr Unit 21H,Chicago,IL,60610,495000,3,2.5,CHI - Near North Side,1700,,1962,1,291,1923,Active,,,https://www.redfin.com/IL/Chicago/1440-N-Lake-Shore-Dr-60610/unit-21H/home/14125015,MRED as Distributed by MLS Grid,12165096,N,Y,41.9089622,-87.6266981
MLS Listing,,Condo/Co-op,6171 N Sheridan Rd #2812,Chicago,IL,60660,275000,2,2.0,CHI - Edgewater,1200,,1969,1,229,990,Active,,,https://www.redfin.com/IL/Chicago/6171-N-Sheridan-Rd-60660/unit-2812/home/13411306,MRED as Distributed by MLS Grid,12164784,N,Y,41.9944051,-87.6549099
MLS Listing,,Single Family Residential,8239 S Kenwood Ave,Chicago,IL,60619,109900,4,2.0,CHI - Avalon Park,1600,3781,1919,1,69,,Active,,,https://www.redfin.com/IL/Chicago/8239-S-Kenwood-Ave-60619/home/13222810,MRED as Distributed by MLS Grid,12165062,N,Y,41.7447712,-87.5914296
MLS Listing,,Condo/Co-op,305 S Racine Ave Unit PHD,Chicago,IL,60607,2425000,4,3.5,CHI - Near West Side,3157,,2023,1,768,863,Active,,,https://www.redfin.com/IL/Chicago/305-S-Racine-Ave-60607/unit-PHD/home/190050318,MRED as Distributed by MLS Grid,12122016,N,Y,41.8775929,-87.6568178
MLS Listing,,Single Family Residential,1633 E 86th St,Chicago,IL,60617,279999,4,2.0,CHI - Avalon Park,1501,,1928,1,187,,Active,,,https://www.redfin.com/IL/Chicago/1633-E-86th-St-60617/home/13217606,MRED as Distributed by MLS Grid,12165098,N,Y,41.7385525,-87.583758
MLS Listing,,Multi-Family (2-4 Unit),2237 N Clifton Ave,Chicago,IL,60614,1695000,7,4.0,CHI - Lincoln Park,,3049,1925,1,,,Active,,,https://www.redfin.com/IL/Chicago/2237-N-Clifton-Ave-60614/home/13352887,MRED as Distributed by MLS Grid,12165089,N,Y,41.9228004,-87.6568728
MLS Listing,,Single Family Residential,3520 N Bell Ave,Chicago,IL,60618,2300000,6,5.0,CHI - North Center,,3720,2024,1,,,Active,September-21-2024 10:00 AM,September-21-2024 11:00 AM,https://www.redfin.com/IL/Chicago/3520-N-Bell-Ave-60618/home/13387537,MRED as Distributed by MLS Grid,12162884,N,Y,41.9455822,-87.684858
MLS Listing,,Condo/Co-op,2650 N Lakeview Ave #1901,Chicago,IL,60614,419000,2,2.0,CHI - Lincoln Park,1240,,1973,1,338,1023,Active,,,https://www.redfin.com/IL/Chicago/2650-N-Lakeview-Ave-60614/unit-1901/home/183746995,MRED as Distributed by MLS Grid,12163288,N,Y,41.9309314,-87.63996
MLS Listing,,Condo/Co-op,161 E Chicago Ave Unit 42A,Chicago,IL,60611,1295000,3,2.5,Olympia Centre,2506,,1985,1,517,2135,Active,,,https://www.redfin.com/IL/Chicago/161-E-Chicago-Ave-60611/unit-42A/home/14098039,MRED as Distributed by MLS Grid,12165073,N,Y,41.8964162,-87.6233837
MLS Listing,,Condo/Co-op,7328 N Winchester Ave Unit 1W,Chicago,IL,60626,259900,2,2.5,CHI - Rogers Park,1300,,1949,1,200,461,Active,,,https://www.redfin.com/IL/Chicago/7328-N-Winchester-Ave-60626/unit-1W/home/21846398,MRED as Distributed by MLS Grid,12164196,N,Y,42.015013,-87.679379
MLS Listing,,Condo/Co-op,1201 W Adams St #409,Chicago,IL,60607,299900,1,1.0,CHI - Near West Side,800,,2002,1,375,362,Active,,,https://www.redfin.com/IL/Chicago/1201-W-Adams-St-60607/unit-409/home/12706469,MRED as Distributed by MLS Grid,12164799,N,Y,41.8789216,-87.6574003
MLS Listing,,Single Family Residential,1735 N Honore St,Chicago,IL,60622,3750000,6,6.5,CHI - West Town,8000,5808,2009,1,469,,Active,,,https://www.redfin.com/IL/Chicago/1735-N-Honore-St-60622/home/13355073,MRED as Distributed by MLS Grid,12165038,N,Y,41.9134654,-87.6735815
MLS Listing,,Single Family Residential,6633 S Mozart St,Chicago,IL,60629,365000,4,2.5,,2588,,1918,1,141,,Active,,,https://www.redfin.com/IL/Chicago/Undisclosed-address-60629/home/13987899,MRED as Distributed by MLS Grid,12165031,N,Y,41.7726689,-87.6941791
MLS Listing,,Single Family Residential,5722 W Wilson Ave,Chicago,IL,60630,575000,4,3.0,CHI - Portage Park,2024,4000,,1,284,,Active,,,https://www.redfin.com/IL/Chicago/5722-W-Wilson-Ave-60630/home/13474908,MRED as Distributed by MLS Grid,12165015,N,Y,41.9643189,-87.7708053
MLS Listing,,Condo/Co-op,3708 W Belmont Ave #1,Chicago,IL,60618,775000,4,3.0,CHI - Avondale,3000,,2024,1,258,327,Active,,,https://www.redfin.com/IL/Chicago/3708-W-Belmont-Ave-60618/unit-1/home/191112277,MRED as Distributed by MLS Grid,12164956,N,Y,41.9394243,-87.7204146
MLS Listing,,Multi-Family (2-4 Unit),5300 W Congress Pkwy,Chicago,IL,60644,475000,8,4.0,CHI - Austin,,6050,1926,1,,,Active,,,https://www.redfin.com/IL/Chicago/5300-W-Congress-Pkwy-60644/home/13254195,MRED as Distributed by MLS Grid,12165013,N,Y,41.8740866,-87.7576446
MLS Listing,,Condo/Co-op,1030 N State St Unit 42B,Chicago,IL,60610,734995,2,2.0,CHI - Near North Side,1005,,1972,1,731,739,Active,,,https://www.redfin.com/IL/Chicago/1030-N-State-St-60610/unit-42B/home/14109996,MRED as Distributed by MLS Grid,12164955,N,Y,41.9015297,-87.6286369
MLS Listing,,Vacant Land,3357 S Morgan St,Chicago,IL,60608,250000,,,CHI - Bridgeport,,3267,,1,,,Active,,,https://www.redfin.com/IL/Chicago/3357-S-Morgan-St-60608/home/14075389,MRED as Distributed by MLS Grid,12164983,N,Y,41.8330891,-87.6507718
MLS Listing,,Single Family Residential,157 N Laramie Ave,Chicago,IL,60644,139000,4,,CHI - Austin,888,,1888,1,157,,Active,,,https://www.redfin.com/IL/Chicago/157-N-Laramie-Ave-60644/home/13263522,MRED as Distributed by MLS Grid,12164753,N,Y,41.8840848,-87.7549883
MLS Listing,,Condo/Co-op,2430 N Linden Pl #202,Chicago,IL,60647,799000,3,2.5,CHI - Logan Square,,,2024,1,,250,Active,,,https://www.redfin.com/IL/Chicago/2430-N-Linden-Pl-60647/unit-202/home/192575283,MRED as Distributed by MLS Grid,12164975,N,Y,41.925436,-87.703624
MLS Listing,,Condo/Co-op,2430 N Linden Pl #201,Chicago,IL,60647,850000,4,2.5,CHI - Logan Square,,,2024,1,,286,Active,,,https://www.redfin.com/IL/Chicago/2430-N-Linden-Pl-60647/unit-201/home/192575152,MRED as Distributed by MLS Grid,12164953,N,Y,41.925436,-87.703624
MLS Listing,,Multi-Family (2-4 Unit),3330 N Drake Ave,Chicago,IL,60618,550000,5,3.0,CHI - Avondale,,3100,1901,1,,,Active,,,https://www.redfin.com/IL/Chicago/3330-N-Drake-Ave-60618/home/192575148,MRED as Distributed by MLS Grid,12120425,N,Y,41.9420054,-87.7165526
MLS Listing,,Condo/Co-op,1150 N Lake Shore Dr Unit 2D,Chicago,IL,60611,249000,1,1.0,CHI - Near North Side,900,,1958,1,277,1003,Active,,,https://www.redfin.com/IL/Chicago/1150-N-Lake-Shore-Dr-60611/unit-2D/home/14123395,MRED as Distributed by MLS Grid,12164970,N,Y,41.9035898,-87.6253846
MLS Listing,,Condo/Co-op,1508 W Huron St Unit 1W,Chicago,IL,60642,875000,4,3.0,CHI - West Town,2800,,2014,1,313,623,Active,September-21-2024 12:00 PM,September-21-2024 02:00 PM,https://www.redfin.com/IL/Chicago/1508-W-Huron-St-60642/unit-1W/home/113098707,MRED as Distributed by MLS Grid,12164965,N,Y,41.8945304,-87.6659552
MLS Listing,,Condo/Co-op,165 N Canal St #514,Chicago,IL,60606,435900,2,2.0,Randolph Place,1600,,1929,1,272,908,Active,September-22-2024 12:30 PM,September-22-2024 02:00 PM,https://www.redfin.com/IL/Chicago/165-N-Canal-St-60606/unit-514/home/23029458,MRED as Distributed by MLS Grid,12164930,N,Y,41.8853115,-87.639382
MLS Listing,,Condo/Co-op,1449 N Ashland Ave Unit 3R,Chicago,IL,60622,285000,2,1.0,CHI - West Town,,,,1,,189,Active,September-22-2024 11:00 AM,September-22-2024 01:00 PM,https://www.redfin.com/IL/Chicago/1449-N-Ashland-Ave-60622/unit-3R/home/18924563,MRED as Distributed by MLS Grid,12154315,N,Y,41.9084401,-87.6672529
MLS Listing,,Parking,680 N Lake Shore Dr #779,Chicago,IL,60611,65000,,,Lake Shore Place,,152,1924,1,,147,Active,,,https://www.redfin.com/IL/Chicago/680-N-Lake-Shore-Dr-60611/unit-779/home/188815607,MRED as Distributed by MLS Grid,12162552,N,Y,41.8947125,-87.6158189
MLS Listing,,Condo/Co-op,873 N Larrabee St #705,Chicago,IL,60610,414999,2,2.0,CHI - Near North Side,,,2006,1,,492,Active,,,https://www.redfin.com/IL/Chicago/873-N-Larrabee-St-60610/unit-705/home/18924752,MRED as Distributed by MLS Grid,12164937,N,Y,41.898713,-87.642902
MLS Listing,,Condo/Co-op,411 W Ontario St #414,Chicago,IL,60654,425000,2,2.0,CHI - Near North Side,,,1910,1,,693,Active,,,https://www.redfin.com/IL/Chicago/411-W-Ontario-St-60654/unit-414/home/14102424,MRED as Distributed by MLS Grid,12164944,N,Y,41.8929314,-87.6398195
MLS Listing,,Condo/Co-op,363 E Wacker Dr #3402,Chicago,IL,60601,1969900,3,2.0,CHI - Loop,2336,,2020,1,843,1575,Active,,,https://www.redfin.com/IL/Chicago/363-E-Wacker-Dr-60601/unit-3402/home/179336648,MRED as Distributed by MLS Grid,12164908,N,Y,41.8878215,-87.6176368
MLS Listing,,Single Family Residential,3352 W 60th St,Chicago,IL,60629,235000,5,2.0,CHI - Chicago Lawn,,4625,,1,,,Active,,,https://www.redfin.com/IL/Chicago/3352-W-60th-St-60629/home/14009638,MRED as Distributed by MLS Grid,12164462,N,Y,41.7845515,-87.7078104
MLS Listing,,Condo/Co-op,1160 S Michigan Ave #1107,Chicago,IL,60605,798000,3,2.5,CHI - Loop,1909,,2005,1,418,911,Active,,,https://www.redfin.com/IL/Chicago/1160-S-Michigan-Ave-60605/unit-1107/home/26816941,MRED as Distributed by MLS Grid,12072229,N,Y,41.8677548,-87.6246153
MLS Listing,,Single Family Residential,5110 N Moreland Ave,Norridge,IL,60706,1060000,4,4.0,Norridge,4200,8500,2008,1,252,,Active,,,https://www.redfin.com/IL/Norridge/5110-N-Moreland-Ave-60706/home/13556515,MRED as Distributed by MLS Grid,12162587,N,Y,41.9712697,-87.8251
MLS Listing,,Condo/Co-op,910 S Michigan Ave #1813,Chicago,IL,60605,375000,2,1.5,CHI - Loop,1200,,1911,1,313,871,Active,,,https://www.redfin.com/IL/Chicago/910-S-Michigan-Ave-60605/unit-1813/home/12633895,MRED as Distributed by MLS Grid,12159150,N,Y,41.8701636,-87.6248468
MLS Listing,,Condo/Co-op,225 N Columbus Dr #5504,Chicago,IL,60601,399000,1,1.0,CHI - Loop,643,,2009,1,621,699,Active,,,https://www.redfin.com/IL/Chicago/225-N-Columbus-Dr-60601/unit-5504/home/21806258,MRED as Distributed by MLS Grid,12164875,N,Y,41.8864623,-87.6201026
MLS Listing,,Condo/Co-op,111 S Peoria St #706,Chicago,IL,60607,999999,2,2.0,CHI - Near West Side,1613,,2018,1,620,866,Active,September-21-2024 11:00 AM,September-21-2024 02:00 PM,https://www.redfin.com/IL/Chicago/111-S-Peoria-St-60607/unit-706/home/175658303,MRED as Distributed by MLS Grid,12161753,N,Y,41.8799277,-87.6490953
MLS Listing,,Condo/Co-op,3600 N Lake Shore Dr #1802,Chicago,IL,60613,235000,1,1.5,CHI - Lake View,925,,1960,1,254,878,Active,,,https://www.redfin.com/IL/Chicago/3600-N-Lake-Shore-Dr-60613/unit-1802/home/13378311,MRED as Distributed by MLS Grid,12047235,N,Y,41.9489835,-87.6442335
MLS Listing,,Condo/Co-op,3937 N Greenview Ave #1,Chicago,IL,60613,739000,4,3.0,CHI - Lake View,2600,,1998,1,284,226,Active,,,https://www.redfin.com/IL/Chicago/3937-N-Greenview-Ave-60613/unit-1/home/12792650,MRED as Distributed by MLS Grid,12164883,N,Y,41.9535826,-87.6671124
MLS Listing,,Condo/Co-op,3218 S Archer Ave #205,Chicago,IL,60608,330000,3,2.0,CHI - McKinley Park,982,,2022,1,336,329,Active,,,https://www.redfin.com/IL/Chicago/3218-S-Archer-Ave-60608/unit-205/home/192574203,MRED as Distributed by MLS Grid,12163333,N,Y,41.8359351,-87.6692643
MLS Listing,,Single Family Residential,4356 N Kostner Ave,Chicago,IL,60641,779000,5,3.0,CHI - Irving Park,2976,4647,,1,262,,Active,,,https://www.redfin.com/IL/Chicago/4356-N-Kostner-Ave-60641/home/13481821,MRED as Distributed by MLS Grid,12164826,N,Y,41.9606833,-87.7387598
MLS Listing,,Condo/Co-op,1550 N Clark St #703,Chicago,IL,60610,2995000,3,3.5,CHI - Near North Side,3809,,2020,1,786,3446,Active,,,https://www.redfin.com/IL/Chicago/1550-N-Clark-St-60610/unit-703/home/176982996,MRED as Distributed by MLS Grid,12148624,N,Y,41.9109282,-87.6319169
MLS Listing,,Townhouse,7558 W Devon Ave,Chicago,IL,60631,359000,2,1.0,CHI - Edison Park,1017,5720,1938,1,353,,Active,,,https://www.redfin.com/IL/Chicago/7558-W-Devon-Ave-60631/home/13635196,MRED as Distributed by MLS Grid,12149019,N,Y,41.9972879,-87.815855
MLS Listing,,Condo/Co-op,2809 W Washington Blvd #303,Chicago,IL,60612,175000,2,2.0,CHI - East Garfield Park,1200,,1926,1,146,320,Active,,,https://www.redfin.com/IL/Chicago/2809-W-Washington-Blvd-60612/unit-303/home/18928532,MRED as Distributed by MLS Grid,12163467,N,Y,41.8825983,-87.6967544
MLS Listing,,Condo/Co-op,1440 N Lake Shore Dr Unit 35A,Chicago,IL,60610,1479000,4,4.5,CHI - Near North Side,3800,,1966,1,389,4288,Active,,,https://www.redfin.com/IL/Chicago/1440-N-Lake-Shore-Dr-60610/unit-35A/home/14125728,MRED as Distributed by MLS Grid,12164865,N,Y,41.9089622,-87.6266981
MLS Listing,,Condo/Co-op,2046 W Rice St #1,Chicago,IL,60622,925000,3,2.5,CHI - West Town,,,2018,1,,237,Active,September-21-2024 10:00 AM,September-21-2024 12:00 PM,https://www.redfin.com/IL/Chicago/2046-W-Rice-St-60622/unit-1/home/171916928,MRED as Distributed by MLS Grid,12152052,N,Y,41.8970703,-87.6788966
MLS Listing,,Multi-Family (2-4 Unit),1520 N Campbell Ave,Chicago,IL,60622,439900,3,2.0,CHI - West Town,,3125,1890,1,,,Active,,,https://www.redfin.com/IL/Chicago/1520-N-Campbell-Ave-60622/home/191715478,MRED as Distributed by MLS Grid,12164807,N,Y,41.9091294,-87.6899138
MLS Listing,,Condo/Co-op,8 E Randolph St #1904,Chicago,IL,60601,424000,2,2.0,CHI - Loop,1400,,,1,303,1296,Active,,,https://www.redfin.com/IL/Chicago/8-E-Randolph-St-60601/unit-1904/home/39566888,MRED as Distributed by MLS Grid,12164844,N,Y,41.8846519,-87.627403
MLS Listing,,Condo/Co-op,6255 N Oakley Ave Unit G,Chicago,IL,60659,179900,2,2.0,CHI - West Ridge,1200,,1925,1,150,230,Active,September-22-2024 01:00 PM,September-22-2024 03:00 PM,https://www.redfin.com/IL/Chicago/6255-N-Oakley-Ave-60659/unit-G/home/12594817,MRED as Distributed by MLS Grid,12164837,N,Y,41.9957091,-87.6870884
MLS Listing,,Condo/Co-op,622 W Willow St Unit 1W,Chicago,IL,60614,1385000,3,2.5,CHI - Lincoln Park,,,2021,1,,518,Active,,,https://www.redfin.com/IL/Chicago/622-W-Willow-St-60614/unit-1W/home/176844869,MRED as Distributed by MLS Grid,12154962,N,Y,41.9140373,-87.644528
MLS Listing,,Vacant Land,4420 W Montana St,Chicago,IL,60639,109000,,,CHI - Hermosa,,3125,,1,,,Active,,,https://www.redfin.com/IL/Chicago/4420-W-Montana-St-60639/home/21875544,MRED as Distributed by MLS Grid,12164821,N,Y,41.9256182,-87.7375363
MLS Listing,,Condo/Co-op,1500 N Lasalle St Unit 6D,Chicago,IL,60610,599999,3,2.0,CHI - Near North Side,1550,,,1,387,598,Active,,,https://www.redfin.com/IL/Chicago/1500-N-La-Salle-Dr-60610/unit-6D/home/14116510,MRED as Distributed by MLS Grid,12132437,N,Y,41.9094875,-87.6334042
MLS Listing,,Condo/Co-op,630 N State St #2301,Chicago,IL,60654,625000,3,2.0,CHI - Near North Side,1900,,2001,1,329,1463,Active,,,https://www.redfin.com/IL/Chicago/630-N-State-St-60654/unit-2301/home/12751085,MRED as Distributed by MLS Grid,12164724,N,Y,41.8937668,-87.6283072
MLS Listing,,Condo/Co-op,55 E Erie St #4204,Chicago,IL,60611,765000,2,2.0,CHI - Near North Side,1588,,2003,1,482,1157,Active,,,https://www.redfin.com/IL/Chicago/55-E-Erie-St-60611/unit-4204/home/12680670,MRED as Distributed by MLS Grid,12164814,N,Y,41.8939101,-87.6259517
MLS Listing,,Single Family Residential,8638 S Kilbourn Ave,Chicago,IL,60652,384900,4,2.5,CHI - Ashburn,1176,5327,1967,1,327,,Active,September-21-2024 02:00 PM,September-21-2024 04:00 PM,https://www.redfin.com/IL/Chicago/8638-S-Kilbourn-Ave-60652/home/13969080,MRED as Distributed by MLS Grid,12161567,N,Y,41.7353394,-87.7338893
MLS Listing,,Condo/Co-op,921 N Noble St #201,Chicago,IL,60642,237000,2,1.0,CHI - West Town,926,,2024,1,256,350,Active,September-22-2024 11:00 AM,September-22-2024 01:00 PM,https://www.redfin.com/IL/Chicago/921-N-Noble-St-60642/unit-201/home/192572710,MRED as Distributed by MLS Grid,12164801,N,Y,41.8985151,-87.6622167
MLS Listing,,Condo/Co-op,4936 N Winthrop Ave Unit GE,Chicago,IL,60640,185000,1,1.0,CHI - Uptown,950,,1927,1,195,229,Active,,,https://www.redfin.com/IL/Chicago/4936-N-Winthrop-Ave-60640/unit-GE/home/192572676,MRED as Distributed by MLS Grid,12155101,N,Y,41.972664,-87.658124
MLS Listing,,Single Family Residential,5412 W Ardmore Ave,Chicago,IL,60646,229900,3,2.0,CHI - Jefferson Park,988,3720,1926,1,233,,Active,,,https://www.redfin.com/IL/Chicago/5412-W-Ardmore-Ave-60646/home/13513595,MRED as Distributed by MLS Grid,12164531,N,Y,41.9860999,-87.7640829
MLS Listing,,Condo/Co-op,1812 N Sawyer Ave #2,Chicago,IL,60647,599000,3,2.5,CHI - Logan Square,1900,,2018,1,315,261,Active,September-22-2024 11:00 AM,September-22-2024 02:00 PM,https://www.redfin.com/IL/Chicago/1812-N-Sawyer-Ave-60647/unit-2/home/175636117,MRED as Distributed by MLS Grid,12164715,N,Y,41.9142118,-87.7088908
MLS Listing,,Multi-Family (2-4 Unit),1832 N Kimball Ave,Chicago,IL,60647,1399500,5,5.5,CHI - Logan Square,,4425,2024,1,,,Active,,,https://www.redfin.com/IL/Chicago/1832-N-Kimball-Ave-60647/home/13418264,MRED as Distributed by MLS Grid,12103893,N,Y,41.9147693,-87.7121188
MLS Listing,,Single Family Residential,12239 S Aberdeen St,Chicago,IL,60643,279900,3,3.0,CHI - West Pullman,2000,,1955,1,140,,Active,,,https://www.redfin.com/IL/Chicago/12239-S-Aberdeen-St-60643/home/13054573,MRED as Distributed by MLS Grid,12164308,N,Y,41.6710665,-87.6487003
MLS Listing,,Condo/Co-op,2100 N Central Park Ave #2,Chicago,IL,60647,239500,3,1.0,CHI - Logan Square,1200,,1928,1,200,557,Active,,,https://www.redfin.com/IL/Chicago/2100-N-Central-Park-Ave-60647/unit-2/home/183696213,MRED as Distributed by MLS Grid,12163264,N,Y,41.919273,-87.7170321
MLS Listing,,Single Family Residential,1305 N Mason Ave,Chicago,IL,60651,465000,4,3.0,CHI - Austin,2344,4092,2024,1,198,,Active,,,https://www.redfin.com/IL/Chicago/1305-N-Mason-Ave-60651/home/13276883,MRED as Distributed by MLS Grid,12164773,N,Y,41.9040621,-87.7739333
MLS Listing,,Condo/Co-op,5701 N Sheridan Rd Unit 29K,Chicago,IL,60660,199900,1,1.0,CHI - Edgewater,864,,1965,1,231,495,Active,September-22-2024 01:00 PM,September-22-2024 03:00 PM,https://www.redfin.com/IL/Chicago/5701-N-Sheridan-Rd-60660/unit-29K/home/13408400,MRED as Distributed by MLS Grid,12141672,N,Y,41.9860059,-87.6544907
MLS Listing,,Condo/Co-op,60 E Monroe St #6202,Chicago,IL,60603,2150000,3,3.5,CHI - Loop,2930,,2009,1,734,3104,Active,,,https://www.redfin.com/IL/Chicago/60-E-Monroe-St-60603/unit-6202/home/21847443,MRED as Distributed by MLS Grid,12081960,N,Y,41.8809978,-87.6256565
MLS Listing,,Single Family Residential,8958 S Phillips Ave,Chicago,IL,60617,295000,4,2.0,CHI - Calumet Heights,1100,,1955,1,268,,Active,September-21-2024 11:00 AM,September-21-2024 01:00 PM,https://www.redfin.com/IL/Chicago/8958-S-Phillips-Ave-60617/home/13044645,MRED as Distributed by MLS Grid,12150520,N,Y,41.7318536,-87.56497
MLS Listing,,Condo/Co-op,2422 W Farragut Ave Unit 1A,Chicago,IL,60625,205000,2,1.0,CHI - Lincoln Square,,,1951,1,,336,Active,,,https://www.redfin.com/IL/Chicago/2422-W-Farragut-Ave-60625/unit-1A/home/13492130,MRED as Distributed by MLS Grid,12155399,N,Y,41.9771127,-87.6902248
MLS Listing,,Multi-Family (2-4 Unit),8434 S Burnham Ave,Chicago,IL,60617,395000,7,3.0,CHI - South Chicago,,,1890,1,,,Active,,,https://www.redfin.com/IL/Chicago/8434-S-Burnham-Ave-60617/home/13213372,MRED as Distributed by MLS Grid,12164758,N,Y,41.7417048,-87.5566454
MLS Listing,,Single Family Residential,12249 S Loomis St,Chicago,IL,60643,143500,2,1.0,CHI - West Pullman,727,5227,1947,2,197,,Active,September-21-2024 02:00 PM,September-21-2024 04:00 PM,https://www.redfin.com/IL/Chicago/12249-S-Loomis-St-60643/home/13053593,MRED as Distributed by MLS Grid,12159835,N,Y,41.6707178,-87.6560335
MLS Listing,,Single Family Residential,3516 N Nottingham Ave,Chicago,IL,60634,435000,3,2.5,CHI - Dunning,1186,,1929,2,367,,Active,,,https://www.redfin.com/IL/Chicago/3516-N-Nottingham-Ave-60634/home/13469098,MRED as Distributed by MLS Grid,12164239,N,Y,41.9440572,-87.8047552
MLS Listing,,Single Family Residential,9608 S Emerald Ave,Chicago,IL,60628,220000,2,1.5,CHI - Washington Heights,1163,,1944,2,189,,Active,,,https://www.redfin.com/IL/Chicago/9608-S-Emerald-Ave-60628/home/13092228,MRED as Distributed by MLS Grid,12164733,N,Y,41.7192943,-87.6422354
MLS Listing,,Condo/Co-op,453 N May St Unit 1N,Chicago,IL,60642,549000,2,2.0,CHI - West Town,,,2005,2,,396,Active,,,https://www.redfin.com/IL/Chicago/453-N-May-St-60642/unit-1N/home/26812904,MRED as Distributed by MLS Grid,12164674,N,Y,41.8905745,-87.6555113
MLS Listing,,Single Family Residential,1509 S Karlov Ave,Chicago,IL,60623,225000,3,2.0,CHI - North Lawndale,1597,,2004,2,141,,Active,,,https://www.redfin.com/IL/Chicago/1509-S-Karlov-Ave-60623/home/12564356,MRED as Distributed by MLS Grid,12164693,N,Y,41.8603245,-87.727151
MLS Listing,,Condo/Co-op,200 E Delaware Pl Unit 11D,Chicago,IL,60611,699000,3,2.0,CHI - Near North Side,1550,,1974,2,451,1624,Active,,,https://www.redfin.com/IL/Chicago/200-E-Delaware-Pl-60611/unit-11D/home/14119895,MRED as Distributed by MLS Grid,12159130,N,Y,41.8995075,-87.6211813
MLS Listing,,Condo/Co-op,300 N State St #5130,Chicago,IL,60654,259000,1,1.0,Marina City,725,,1963,2,357,729,Active,September-21-2024 12:00 PM,September-21-2024 02:00 PM,https://www.redfin.com/IL/Chicago/300-N-State-St-60654/unit-5130/home/14099985,MRED as Distributed by MLS Grid,12164703,N,Y,41.8881116,-87.628363
MLS Listing,,Townhouse,4746 S Kenwood Ave,Chicago,IL,60615,539900,4,3.5,CHI - Kenwood,2400,1240,1967,2,225,150,Active,,,https://www.redfin.com/IL/Chicago/4746-S-Kenwood-Ave-60615/home/13950820,MRED as Distributed by MLS Grid,12164704,N,Y,41.8082953,-87.5939667
MLS Listing,,Condo/Co-op,10765 S Pulaski Rd #4,Chicago,IL,60655,148000,2,1.0,CHI - Mount Greenwood,800,,,2,185,326,Active,,,https://www.redfin.com/IL/Chicago/10765-S-Pulaski-Rd-60655/unit-4/home/12657709,MRED as Distributed by MLS Grid,12160870,N,Y,41.6968164,-87.7196327
MLS Listing,,Single Family Residential,6727 W Imlay St,Chicago,IL,60631,875000,4,3.5,CHI - Norwood Park,3500,3698,2024,2,250,,Active,,,https://www.redfin.com/IL/Chicago/6727-W-Imlay-St-60631/home/13594364,MRED as Distributed by MLS Grid,12164635,N,Y,41.9987364,-87.7966021
MLS Listing,,Condo/Co-op,1546 N Hudson Ave #1,Chicago,IL,60610,627000,3,2.5,CHI - Near North Side,,,,2,,271,Active,,,https://www.redfin.com/IL/Chicago/1546-N-Hudson-Ave-60610/unit-1/home/12687480,MRED as Distributed by MLS Grid,12164524,N,Y,41.9106018,-87.64001
MLS Listing,,Condo/Co-op,5358 N Cumberland Ave #303,Chicago,IL,60656,147900,1,1.0,CHI - O'Hare,844,,1975,2,175,315,Active,,,https://www.redfin.com/IL/Chicago/5358-N-Cumberland-Ave-60656/unit-303/home/189649109,MRED as Distributed by MLS Grid,12164596,N,Y,41.9771672,-87.8373406
MLS Listing,,Single Family Residential,1802 N Mozart St,Chicago,IL,60647,1339000,4,3.5,CHI - Logan Square,3300,2500,2016,2,406,,Active,,,https://www.redfin.com/IL/Chicago/1802-N-Mozart-St-60647/home/13415872,MRED as Distributed by MLS Grid,12118216,N,Y,41.9141094,-87.6984106
MLS Listing,,Condo/Co-op,6301 N Sheridan Rd Unit 22V,Chicago,IL,60660,199000,1,1.0,CHI - Edgewater,800,,1963,2,249,852,Active,September-21-2024 11:00 AM,September-21-2024 02:00 PM,https://www.redfin.com/IL/Chicago/6301-N-Sheridan-Rd-60660/unit-22V/home/13412926,MRED as Distributed by MLS Grid,12153075,N,Y,41.9967345,-87.6550688
MLS Listing,,Single Family Residential,5931 S Troy St,Chicago,IL,60629,125000,2,1.0,CHI - Chicago Lawn,700,,1922,2,179,,Active,,,https://www.redfin.com/IL/Chicago/5931-S-Troy-St-60629/home/14014486,MRED as Distributed by MLS Grid,12157753,N,Y,41.7853508,-87.7015872
MLS Listing,,Condo/Co-op,41 E 8th St #1303,Chicago,IL,60605,395000,2,2.0,CHI - Loop,1270,,2002,2,311,824,Active,,,https://www.redfin.com/IL/Chicago/41-E-8th-St-60605/unit-1303/home/12670047,MRED as Distributed by MLS Grid,12164629,N,Y,41.8717102,-87.6263215
MLS Listing,,Condo/Co-op,1520 N State Blvd #3,Chicago,IL,60610,950000,3,2.5,CHI - Near North Side,3500,,1890,2,271,1871,Active,,,https://www.redfin.com/IL/Chicago/1520-N-State-Pkwy-60610/unit-3/home/192567136,MRED as Distributed by MLS Grid,12164578,N,Y,41.9101978,-87.6292095
MLS Listing,,Multi-Family (2-4 Unit),920 S Bishop St,Chicago,IL,60607,739000,6,3.0,CHI - Near West Side,,,1868,2,,,Active,,,https://www.redfin.com/IL/Chicago/920-S-Bishop-St-60607/home/14090884,MRED as Distributed by MLS Grid,12164589,N,Y,41.8699297,-87.6631708
MLS Listing,,Single Family Residential,8602 S Laflin St,Chicago,IL,60620,365000,5,3.0,,2746,3125,1924,2,133,,Active,September-21-2024 11:00 AM,September-21-2024 01:00 PM,https://www.redfin.com/IL/Chicago/Undisclosed-address-60620/home/13229809,MRED as Distributed by MLS Grid,12164552,N,Y,41.7374196,-87.6609563
MLS Listing,,Multi-Family (2-4 Unit),6221 S Massasoit Ave,Chicago,IL,60638,409900,4,3.0,CHI - Clearing,,3484,1948,2,,,Active,,,https://www.redfin.com/IL/Chicago/6221-S-Massasoit-Ave-60638/home/12584009,MRED as Distributed by MLS Grid,12164570,N,Y,41.7791717,-87.7651459
MLS Listing,,Multi-Family (2-4 Unit),2641 W 69th St,Chicago,IL,60629,234900,6,3.0,CHI - Chicago Lawn,,3125,1919,2,,,Active,,,https://www.redfin.com/IL/Chicago/2641-W-69th-St-60629/home/13987630,MRED as Distributed by MLS Grid,12163241,N,Y,41.7680309,-87.6899111
MLS Listing,,Condo/Co-op,4015 N Milwaukee Ave #202,Chicago,IL,60641,307000,2,2.0,CHI - Portage Park,1032,,,2,297,406,Active,,,https://www.redfin.com/IL/Chicago/4015-N-Milwaukee-Ave-60641/unit-202/home/26805000,MRED as Distributed by MLS Grid,12164563,N,Y,41.9539292,-87.7474635
MLS Listing,,Condo/Co-op,3600 N Lake Shore Dr #2112,Chicago,IL,60613,309000,1,1.0,CHI - Lake View,925,,1960,2,334,839,Active,,,https://www.redfin.com/IL/Chicago/3600-N-Lake-Shore-Dr-60613/unit-2112/home/13378305,MRED as Distributed by MLS Grid,12161593,N,Y,41.9489369,-87.6441842
MLS Listing,,Single Family Residential,3033 W Chase Ave,Chicago,IL,60645,541000,3,2.0,CHI - West Ridge,3300,3968,1958,2,164,,Active,,,https://www.redfin.com/IL/Chicago/3033-W-Chase-Ave-60645/home/13602245,MRED as Distributed by MLS Grid,12164534,N,Y,42.0135066,-87.705768
MLS Listing,,Multi-Family (2-4 Unit),5633 N Meade Ave,Chicago,IL,60646,609000,6,2.0,CHI - Norwood Park,,3484,1925,2,,,Active,,,https://www.redfin.com/IL/Chicago/5633-N-Meade-Ave-60646/home/13509353,MRED as Distributed by MLS Grid,12159452,N,Y,41.9839224,-87.7801755
MLS Listing,,Condo/Co-op,345 E Eastgate Pl #606,Chicago,IL,60616,150000,1,1.0,CHI - Near South Side,600,,1966,2,250,410,Active,,,https://www.redfin.com/IL/Chicago/345-E-Eastgate-Pl-60616/unit-606/home/26821707,MRED as Distributed by MLS Grid,12164547,N,Y,41.8465294,-87.6185981
MLS Listing,,Condo/Co-op,850 N Lake Shore Dr #803,Chicago,IL,60611,639000,1,1.0,CHI - Near North Side,1255,,1927,2,509,849,Active,,,https://www.redfin.com/IL/Chicago/850-N-Lake-Shore-Dr-60611/unit-803/home/192566625,MRED as Distributed by MLS Grid,12164518,N,Y,41.8982543,-87.6186746
MLS Listing,,Condo/Co-op,6000 N Cicero Ave #306,Chicago,IL,60646,389000,2,2.0,CHI - Forest Glen,1216,,2004,2,320,560,Active,,,https://www.redfin.com/IL/Chicago/6000-N-Cicero-Ave-60646/unit-306/home/18918688,MRED as Distributed by MLS Grid,12163849,N,Y,41.9727887,-87.7143059
MLS Listing,,Multi-Family (2-4 Unit),7725 S Phillips Ave,Chicago,IL,60649,275000,9,6.0,CHI - South Shore,,,1926,2,,,Active,,,https://www.redfin.com/IL/Chicago/7725-S-Phillips-Ave-60649/home/13216523,MRED as Distributed by MLS Grid,12164258,N,Y,41.7545762,-87.5647866
MLS Listing,,Single Family Residential,5218 N Natoma Ave,Chicago,IL,60656,609000,4,3.0,Union Ridge,2140,3750,1956,2,285,,Active,,,https://www.redfin.com/IL/Chicago/5218-N-Natoma-Ave-60656/home/13504768,MRED as Distributed by MLS Grid,12164468,N,Y,41.9762503,-87.7929865
MLS Listing,,Condo/Co-op,11036 S Kilpatrick Ave Unit 2SE,Oak Lawn,IL,60453,155000,2,1.0,Oak Lawn,,,1978,2,,190,Active,,,https://www.redfin.com/IL/Oak-Lawn/11036-Kilpatrick-Ave-60453/unit-2SE/home/12817557,MRED as Distributed by MLS Grid,12164436,N,Y,41.6915962,-87.7376396
MLS Listing,,Condo/Co-op,440 N Wabash Ave #908,Chicago,IL,60611,255000,1,1.0,CHI - Near North Side,850,,1992,3,300,505,Active,,,https://www.redfin.com/IL/Chicago/440-N-Wabash-Ave-60611/unit-908/home/12589353,MRED as Distributed by MLS Grid,12164279,N,Y,41.8903711,-87.6269739
MLS Listing,,Multi-Family (2-4 Unit),1759 E 72nd Pl,Chicago,IL,60649,159900,5,3.0,CHI - South Shore,,3075,1905,3,,,Active,,,https://www.redfin.com/IL/Chicago/1759-E-72nd-Pl-60649/home/189678843,MRED as Distributed by MLS Grid,12164416,N,Y,41.7631282,-87.5813456
MLS Listing,,Single Family Residential,8111 S Chappel Ave,Chicago,IL,60617,353000,5,3.0,CHI - South Chicago,2700,3781,1922,3,131,,Active,,,https://www.redfin.com/IL/Chicago/8111-S-Chappel-Ave-60617/home/13220348,MRED as Distributed by MLS Grid,12164438,N,Y,41.7476075,-87.5744315
MLS Listing,,Multi-Family (2-4 Unit),3622 W Franklin Blvd,Chicago,IL,60624,525000,9,3.0,CHI - Humboldt Park,,,1907,3,,,Active,September-21-2024 02:30 PM,September-21-2024 03:30 PM,https://www.redfin.com/IL/Chicago/3622-W-Franklin-Blvd-60624/home/13261505,MRED as Distributed by MLS Grid,12158369,N,Y,41.8906297,-87.7171085
MLS Listing,,Single Family Residential,3830 W 65th Pl,Chicago,IL,60629,346828,5,2.0,CHI - West Lawn,,4500,1957,3,,,Active,,,https://www.redfin.com/IL/Chicago/3830-W-65th-Pl-60629/home/13990306,MRED as Distributed by MLS Grid,12163683,N,Y,41.7743762,-87.71903
MLS Listing,,Condo/Co-op,1524 S Sangamon St #615,Chicago,IL,60608,249999,1,1.0,CHI - Near West Side,870,,2001,3,287,800,Active,,,https://www.redfin.com/IL/Chicago/1524-S-Sangamon-St-60608/unit-615/home/178674188,MRED as Distributed by MLS Grid,12164419,N,Y,41.8607231,-87.6504828
MLS Listing,,Single Family Residential,10401 S Central Park Ave,Chicago,IL,60655,409000,3,2.0,CHI - Mount Greenwood,1500,6000,1953,3,273,,Active,,,https://www.redfin.com/IL/Chicago/10401-S-Central-Park-Ave-60655/home/13156332,MRED as Distributed by MLS Grid,12163405,N,Y,41.7041729,-87.710739
MLS Listing,,Condo/Co-op,7033 N Kedzie Ave #1713,Chicago,IL,60645,199000,2,2.0,Winston Towers,1500,,1967,3,133,1200,Active,,,https://www.redfin.com/IL/Chicago/7033-N-Kedzie-Ave-60645/unit-1713/home/13584599,MRED as Distributed by MLS Grid,12155103,N,Y,42.009044,-87.7084466
MLS Listing,,Multi-Family (2-4 Unit),6431 N Campbell Ave,Chicago,IL,60645,479999,6,3.0,CHI - West Ridge,,3125,1925,3,,,Active,,,https://www.redfin.com/IL/Chicago/6431-N-Campbell-Ave-60645/home/13582078,MRED as Distributed by MLS Grid,12164393,N,Y,41.99862,-87.6920321
MLS Listing,,Condo/Co-op,4749 W School St Unit 1E,Chicago,IL,60641,165000,2,1.0,CHI - Portage Park,753,,,3,219,154,Active,,,https://www.redfin.com/IL/Chicago/4749-W-School-St-60641/unit-1E/home/22203652,MRED as Distributed by MLS Grid,12164369,N,Y,41.9405272,-87.7456732
MLS Listing,,Multi-Family (2-4 Unit),1938 W School St,Chicago,IL,60657,999995,8,6.0,CHI - North Center,,3125,1893,3,,,Active,,,https://www.redfin.com/IL/Chicago/1938-W-School-St-60657/home/192022774,MRED as Distributed by MLS Grid,12164391,N,Y,41.9415977,-87.6775036
MLS Listing,,Multi-Family (2-4 Unit),2855 S Quinn St,Chicago,IL,60608,638000,7,5.0,CHI - Bridgeport,,2424,,3,,,Active,,,https://www.redfin.com/IL/Chicago/2855-S-Quinn-St-60608/home/192562438,MRED as Distributed by MLS Grid,12164388,N,Y,41.8417857,-87.6510416
MLS Listing,,Condo/Co-op,1921 W Hood Ave Unit 3B,Chicago,IL,60660,134995,3,1.0,CHI - West Ridge,,,1950,3,,600,Active,,,https://www.redfin.com/IL/Chicago/1921-W-Hood-Ave-60660/unit-3B/home/21845463,MRED as Distributed by MLS Grid,12164260,N,Y,41.9929443,-87.6780303
MLS Listing,,Single Family Residential,5105 N New England Ave,Chicago,IL,60656,375000,4,2.0,CHI - Norwood Park,1493,3750,1949,3,251,,Active,,,https://www.redfin.com/IL/Chicago/5105-N-New-England-Ave-60656/home/13505650,MRED as Distributed by MLS Grid,12153094,N,Y,41.9739834,-87.7985137
MLS Listing,,Multi-Family (2-4 Unit),6151 S Langley Ave,Chicago,IL,60637,250000,6,2.0,CHI - Woodlawn,,3484,1910,3,,,Active,,,https://www.redfin.com/IL/Chicago/6151-S-Langley-Ave-60637/home/13942961,MRED as Distributed by MLS Grid,12157263,N,Y,41.7825313,-87.6081724
MLS Listing,,Single Family Residential,2604 W Farwell Ave,Chicago,IL,60645,769000,6,3.0,CHI - West Ridge,2450,,1923,3,314,,Active,,,https://www.redfin.com/IL/Chicago/2604-W-Farwell-Ave-60645/home/13584521,MRED as Distributed by MLS Grid,12160249,N,Y,42.006066,-87.6952683
MLS Listing,,Multi-Family (2-4 Unit),1308 S 58th Ave,Cicero,IL,60804,400000,8,3.0,Cicero,,4158,1921,3,,,Active,,,https://www.redfin.com/IL/Cicero/1308-S-58th-Ave-60804/home/13241802,MRED as Distributed by MLS Grid,12164355,N,Y,41.8632096,-87.7694061
MLS Listing,,Single Family Residential,8450 S Paulina St,Chicago,IL,60620,257500,3,1.5,CHI - Auburn Gresham,1131,4007,1950,3,228,,Active,,,https://www.redfin.com/IL/Chicago/8450-S-Paulina-St-60620/home/13908125,MRED as Distributed by MLS Grid,12158201,N,Y,41.73971,-87.6658835
MLS Listing,,Condo/Co-op,4800 S Chicago Beach Dr Unit 2110N,Chicago,IL,60615,110000,0,1.0,CHI - Kenwood,550,,1960,3,200,384,Active,,,https://www.redfin.com/IL/Chicago/4800-S-Chicago-Beach-Dr-60615/unit-2110N/home/192562266,MRED as Distributed by MLS Grid,12164171,N,Y,41.8064982,-87.5866451
MLS Listing,,Single Family Residential,7000 S Paulina Ave,Chicago,IL,60636,74900,3,1.5,CHI - West Englewood,1040,3100,1964,3,72,,Active,,,https://www.redfin.com/IL/Chicago/7000-S-Paulina-St-60636/home/13934136,MRED as Distributed by MLS Grid,12164336,N,Y,41.7665794,-87.6665504
MLS Listing,,Multi-Family (2-4 Unit),6738 S Campbell Ave,Chicago,IL,60629,380000,6,2.0,CHI - Chicago Lawn,,,1924,3,,,Active,,,https://www.redfin.com/IL/Chicago/6738-S-Campbell-Ave-60629/home/13986637,MRED as Distributed by MLS Grid,12164281,N,Y,41.7707818,-87.6861368
MLS Listing,,Condo/Co-op,880 N Lake Shore Dr Unit 5D,Chicago,IL,60611,215000,1,1.0,CHI - Near North Side,800,,1951,3,269,1101,Active,,,https://www.redfin.com/IL/Chicago/880-N-Lake-Shore-Dr-60611/unit-5D/home/21796008,MRED as Distributed by MLS Grid,12164324,N,Y,41.8990893,-87.6189523
