SALE TYPE,SOLD DATE,PROPERTY TYPE,ADDRESS,CITY,STATE OR PROVINCE,ZIP OR POSTAL CODE,PRICE,BEDS,BATHS,LOCATION,SQUARE FEET,LOT SIZE,YEAR BUILT,DAYS ON MARKET,$/SQUARE FEET,HOA/MONTH,STATUS,NEXT OPEN HOUSE START TIME,NEXT OPEN HOUSE END TIME,URL (SEE https://www.redfin.com/buy-a-home/comparative-market-analysis FOR INFO ON PRICING),SOURCE,MLS#,FAVORITE,INTERESTED,LATITUDE,LONGITUDE
MLS Listing,,Single Family Residential,6240 Bona Vista Pl,Cincinnati,OH,45213,240000,2,1.5,Pleasant Ridge,1075,4617,1924,4,223,,Active,,,https://www.redfin.com/OH/Cincinnati/6240-Bona-Vista-Pl-45213/home/100964890,Cincy MLS,1817997,N,Y,39.1869202,-84.4318768
MLS Listing,,Single Family Residential,5745 Sovereign Dr,Sharonville,OH,45241,449500,4,3.5,Sharonville,2655,12327,1985,5,169,37,Active,,,https://www.redfin.com/OH/Cincinnati/5745-Sovereign-Dr-45241/home/78758049,Cincy MLS,1817784,N,Y,39.2923035,-84.3754178
MLS Listing,,Single Family Residential,6412 Coleridge Ave,Cincinnati,OH,45213,239900,2,1.0,Kennedy Hts.,1400,,1941,11,171,,Active,,,https://www.redfin.com/OH/Cincinnati/6412-Coleridge-Ave-45213/home/100966211,Cincy MLS,1816908,N,Y,39.1863715,-84.4102085
MLS Listing,,Multi-Family (2-4 Unit),988 Cleveland Ave,Cincinnati,OH,45229,279000,6,3.0,Avondale,2797,8712,1926,13,100,,Active,,,https://www.redfin.com/OH/Cincinnati/988-Cleveland-Ave-45229/home/78971831,Cincy MLS,1816951,N,Y,39.142385,-84.4850766
MLS Listing,,Single Family Residential,3312 Graydon Ave,Cincinnati,OH,45207,249900,2,1.5,Evanston,1050,3485,1891,20,238,,Active,,,https://www.redfin.com/OH/Cincinnati/3312-Graydon-Ave-45207/home/100955152,Cincy MLS,1816283,N,Y,39.13772,-84.4693665
MLS Listing,,Single Family Residential,5107 Cleves Warsaw Pike,Delhi Twp,OH,45238,230000,4,2.0,Delhi Twp.,1822,7449,1939,25,126,,Active,,,https://www.redfin.com/OH/Cincinnati/5107-Cleves-Warsaw-Pike-45238/home/78853336,Cincy MLS,1815970,N,Y,39.1183967,-84.6076195
MLS Listing,,Single Family Residential,7364 Clovernook Ave,Mt Healthy,OH,45231,210000,3,2.0,Mt. Healthy,1778,9627,1941,1,118,,Active,,,https://www.redfin.com/OH/Cincinnati/7364-Clovernook-Ave-45231/home/76141559,Cincy MLS,1818365,N,Y,39.2287228,-84.5365053
MLS Listing,,Single Family Residential,3565 Paxton Ave,Cincinnati,OH,45208,549900,4,2.0,Hyde Park,2044,7231,1906,1,269,,Active,,,https://www.redfin.com/OH/Cincinnati/3565-Paxton-Ave-45208/home/76095779,Cincy MLS,1813601,N,Y,39.1410559,-84.434071
MLS Listing,,Single Family Residential,5351 Grand Vista Ct,Cincinnati,OH,45227,1165000,5,4.0,Madisonville,4110,7854,2015,1,283,292,Active,,,https://www.redfin.com/OH/Cincinnati/5351-Grand-Vista-Ct-45227/home/110109871,Cincy MLS,1818158,N,Y,39.1652432,-84.386332
MLS Listing,,Single Family Residential,2259 Washington Ave,Norwood,OH,45212,425000,4,2.0,Norwood,,,1912,1,,,Active,,,https://www.redfin.com/OH/Norwood/2259-Washington-Ave-45212/home/78782039,Cincy MLS,1818010,N,Y,39.157364,-84.452081
MLS Listing,,Single Family Residential,6724 Britton Ave,Cincinnati,OH,45227,259900000,3,2.0,Madisonville,932,3833,2002,1,278863,,Active,,,https://www.redfin.com/OH/Cincinnati/6724-Britton-Ave-45227/home/76171316,Cincy MLS,1818269,N,Y,39.152613,-84.3816374
MLS Listing,,Single Family Residential,1429 Waycross Rd,Forest Park,OH,45240,424900,3,2.0,Forest Park,1800,,,1,236,,Active,,,https://www.redfin.com/OH/Cincinnati/1429-Waycross-Rd-45240/home/190535092,Cincy MLS,1818362,N,Y,39.281787,-84.5348126
MLS Listing,,Vacant Land,1713 Frintz St,Cincinnati,OH,45202,55000,,,City,,1176,,1,,,Active,,,https://www.redfin.com/OH/Cincinnati/1713-Frintz-St-45202/home/76121777,Cincy MLS,1818358,N,Y,39.1166318,-84.5156689
MLS Listing,,Single Family Residential,,Indian Hill,OH,45243,2850000,3,2.5,Indian Hill,11283,313371,1958,1,253,,Active,,,https://www.redfin.com/OH/Cincinnati/Undisclosed-address-45243/home/78801340,Cincy MLS,1818272,N,Y,39.213092,-84.352666
MLS Listing,,Multi-Family (2-4 Unit),436 Dayton St,Cincinnati,OH,45214,179900,3,2.0,City,1696,2439,1885,1,106,,Active,,,https://www.redfin.com/OH/Cincinnati/436-Dayton-St-45214/home/78939773,Cincy MLS,1818340,N,Y,39.1183587,-84.5252486
MLS Listing,,Single Family Residential,5860 Blue Rock Rd,Cincinnati,OH,45247,489900,4,3.0,Colerain Twp.West,,162914,1957,1,,,Active,,,https://www.redfin.com/OH/Cincinnati/5860-Blue-Rock-Rd-45247/home/76151240,Cincy MLS,1818333,N,Y,39.2371416,-84.6348934
MLS Listing,,Condo/Co-op,1723 Ebenezer Rd Unit E1,Cincinnati,OH,45233,169900,3,1.5,Green Twp.,1410,30235,1981,1,120,300,Active,,,https://www.redfin.com/OH/Cincinnati/1723-Ebenezer-Rd-45233/unit-E1/home/101019697,Cincy MLS,1818244,N,Y,39.1262947,-84.6520106
MLS Listing,,Single Family Residential,2 Beech Knoll Dr,North College Hill,OH,45224,479900,3,2.5,North College Hil,2871,,1924,1,167,,Active,,,https://www.redfin.com/OH/Cincinnati/2-Beech-Knoll-Dr-45224/home/78836716,Cincy MLS,1818330,N,Y,39.2136289,-84.5471805
MLS Listing,,Single Family Residential,12062 Westland Ct #37,Colerain Twp,OH,45251,487865,4,2.5,Colerain Twp.East,2338,9357,2024,1,209,48,Active,,,https://www.redfin.com/OH/Colerain-Twp/12062-Westland-CT-45251/unit-37/home/192578061,Cincy MLS,1818326,N,Y,39.2730168,-84.5903367
MLS Listing,,Single Family Residential,2476 Seegar Ave,Cincinnati,OH,45214,75000,2,1.5,Fairmount,,2875,,1,,,Active,,,https://www.redfin.com/OH/Cincinnati/2476-Seegar-Ave-45214/home/76124202,Cincy MLS,1818286,N,Y,39.1287009,-84.5543749
MLS Listing,,Single Family Residential,11737 Hanover Rd,Forest Park,OH,45240,269900,3,1.5,Forest Park,1563,7405,1965,1,173,,Active,,,https://www.redfin.com/OH/Cincinnati/11737-Hanover-Rd-45240/home/101029879,Cincy MLS,1818298,N,Y,39.2958761,-84.5089318
MLS Listing,,Single Family Residential,2620 Grover Hill Ave,Cincinnati,OH,45212,659000,4,3.5,Pleasant Ridge,2608,3485,1923,1,253,,Active,September-21-2024 12:00 PM,September-21-2024 01:30 PM,https://www.redfin.com/OH/Cincinnati/2620-Grover-Hill-Ave-45212/home/76073399,Cincy MLS,1818304,N,Y,39.1749726,-84.4409178
MLS Listing,,Single Family Residential,2741 Byrneside Dr,Cincinnati,OH,45239,240000,4,2.0,Groesbeck,,,1950,1,,,Active,,,https://www.redfin.com/OH/Cincinnati/2741-Byrneside-Dr-45239/home/100997464,Cincy MLS,1818106,N,Y,39.2050804,-84.5794827
MLS Listing,,Single Family Residential,2802 Orland Ave,Cincinnati,OH,45211,109900,3,1.0,Westwood,1573,5009,1937,1,70,,Active,,,https://www.redfin.com/OH/Cincinnati/2802-Orland-Ave-45211/home/78967390,Cincy MLS,1818278,N,Y,39.1364282,-84.5740054
MLS Listing,,Multi-Family (2-4 Unit),1631 Summit Rd,Cincinnati,OH,45237,300000,4,4.0,Roselawn,2706,6186,1942,1,111,,Active,,,https://www.redfin.com/OH/Cincinnati/1631-Summit-Rd-45237/home/100963725,Cincy MLS,1818295,N,Y,39.2020825,-84.4580844
MLS Listing,,Single Family Residential,877 Martini Rd,Delhi Twp,OH,45233,215000,3,1.0,Delhi Twp.,580,19820,1955,1,371,,Active,,,https://www.redfin.com/OH/Cincinnati/877-Martini-Rd-45233/home/78850407,Cincy MLS,1818251,N,Y,39.1131816,-84.675871
MLS Listing,,Townhouse,5426 Oliver Ct,Sharonville,OH,45241,252000,2,2.0,Sharonville,1143,1437,1985,1,220,265,Active,,,https://www.redfin.com/OH/Cincinnati/5426-Oliver-Ct-45241/home/76147496,Cincy MLS,1818241,N,Y,39.2949241,-84.3786358
MLS Listing,,Single Family Residential,816 Fairbanks Ave,Cincinnati,OH,45205,120000,2,1.0,Price Hill,1201,6795,1914,1,100,,Active,,,https://www.redfin.com/OH/Cincinnati/816-Fairbanks-Ave-45205/home/100970428,Cincy MLS,1817952,N,Y,39.106695,-84.568472
MLS Listing,,Single Family Residential,12136 Westerly Dr,Cincinnati,OH,45231,235000,3,1.5,Colerain Twp.East,,,1970,1,,,Active,,,https://www.redfin.com/OH/Cincinnati/12136-Westerly-Dr-45231/home/76102928,Cincy MLS,1818280,N,Y,39.3060584,-84.5679156
MLS Listing,,Single Family Residential,11615 Geneva Rd,Forest Park,OH,45240,189900,3,1.0,Forest Park,925,6839,1964,1,205,,Active,,,https://www.redfin.com/OH/Cincinnati/11615-Geneva-Rd-45240/home/76161453,Cincy MLS,1818281,N,Y,39.2902415,-84.5155911
MLS Listing,,Single Family Residential,1032 Woodlawn,Cincinnati,OH,45205,135000,3,1.0,Price Hill,,,1931,1,,,Active,,,https://www.redfin.com/OH/Cincinnati/1032-Woodlawn-Ave-45205/home/78935373,Cincy MLS,1818277,N,Y,39.1114545,-84.566815
MLS Listing,,Vacant Land,2403 Elberon Ave,Cincinnati,OH,45204,139900,,,Sedamsville,,16553,,1,,,Active,,,https://www.redfin.com/OH/Cincinnati/2403-Elberon-Ave-45204/home/76073809,Cincy MLS,1818275,N,Y,39.0990432,-84.5569529
MLS Listing,,Single Family Residential,6239 Taylor Rd,Cincinnati,OH,45248,299900,3,2.0,Bridgetown,1506,32234,1955,1,199,,Active,,,https://www.redfin.com/OH/Cincinnati/6239-Taylor-Rd-45248/home/78927276,Cincy MLS,1818257,N,Y,39.1579658,-84.6543902
MLS Listing,,Single Family Residential,817 Deervalley Dr,Union Twp,OH,45245,420000,4,2.5,Union Twp.,,19602,1989,1,,,Active,,,https://www.redfin.com/OH/Cincinnati/817-Deervalley-Dr-45245/home/71388539,Cincy MLS,1818249,N,Y,39.1116416,-84.2729011
MLS Listing,,Condo/Co-op,15 W Fourth St #412,Cincinnati,OH,45202,315000,1,2.0,City,1132,29630,1875,1,278,412,Active,,,https://www.redfin.com/OH/Cincinnati/15-W-4th-St-45202/unit-412/home/78825238,Cincy MLS,1818255,N,Y,39.0997226,-84.5134411
MLS Listing,,Single Family Residential,3197 W Tower Ave,Cincinnati,OH,45238,175000,2,1.0,Westwood,1086,5445,1956,1,161,,Active,,,https://www.redfin.com/OH/Cincinnati/3197-West-Tower-Ave-45238/home/76101211,Cincy MLS,1818216,N,Y,39.1326762,-84.6093889
MLS Listing,,Single Family Residential,3938 Glenmore Ave,Cincinnati,OH,45211,174900,2,1.0,Cheviot,1239,5358,1914,1,141,,Active,,,https://www.redfin.com/OH/Cincinnati/3938-Glenmore-Ave-45211/home/76135279,Cincy MLS,1818239,N,Y,39.1601623,-84.6105234
MLS Listing,,Multi-Family (2-4 Unit),5008 Newfield Ave,Cincinnati,OH,45237,274900,4,,Bond Hill,,4922,1947,1,,,Active,,,https://www.redfin.com/OH/Cincinnati/5008-Newfield-Ave-45237/home/63726108,Cincy MLS,1818235,N,Y,39.1771796,-84.4633458
MLS Listing,,Condo/Co-op,7630 Cheviot Rd #112,Colerain Twp,OH,45247,184900,2,2.0,White Oak,1358,118483,1990,1,136,240,Active,,,https://www.redfin.com/OH/Cincinnati/7630-Cheviot-Rd-45247/unit-112/home/76149562,Cincy MLS,1817829,N,Y,39.216248,-84.5988837
MLS Listing,,Single Family Residential,5201 Highview Dr,Cincinnati,OH,45238,265000,5,3.0,Covedale,1612,7579,1947,2,164,,Active,,,https://www.redfin.com/OH/Cincinnati/5201-Highview-Dr-45238/home/100972871,Cincy MLS,1818114,N,Y,39.1153031,-84.611031
MLS Listing,,Single Family Residential,1881 Linneman Rd,Green Twp,OH,45238,329900,3,2.5,Green Twp.,2467,17947,1959,2,134,,Active,September-18-2024 05:30 PM,September-18-2024 07:30 PM,https://www.redfin.com/OH/Cincinnati/1881-Linneman-Rd-45238/home/78813885,Cincy MLS,1818036,N,Y,39.1262698,-84.6250192
MLS Listing,,Single Family Residential,3266 Harborside Dr,Green Twp,OH,45248,1195000,4,4.5,Green Twp.,5144,81814,2014,2,232,,Active,,,https://www.redfin.com/OH/Cincinnati/3266-Harborside-Dr-45248/home/100942745,Cincy MLS,1814378,N,Y,39.1468987,-84.6417516
MLS Listing,,Single Family Residential,488 Burhen Dr,Delhi Twp,OH,45238,206500,4,1.0,Delhi Twp.,1258,10672,1957,2,164,,Active,,,https://www.redfin.com/OH/Cincinnati/488-Burhen-Dr-45238/home/101007228,Cincy MLS,1817745,N,Y,39.0977848,-84.588764
MLS Listing,,Single Family Residential,10267 Stablehand Dr,Cincinnati,OH,45242,839000,4,4.0,Symmes Twp.,3395,22869,1986,2,247,8,Active,,,https://www.redfin.com/OH/Cincinnati/10267-Stablehand-Dr-45242/home/78747199,Cincy MLS,1817857,N,Y,39.2427739,-84.3094868
MLS Listing,,Single Family Residential,4553 Cooper Rd,Cincinnati,OH,45242,275765,2,1.0,Blue Ash,1008,5881,1928,2,274,,Active,,,https://www.redfin.com/OH/Cincinnati/4553-Cooper-Rd-45242/home/101042026,Cincy MLS,1818077,N,Y,39.2357573,-84.3827089
MLS Listing,,Condo/Co-op,353 W 4th St #600,Cincinnati,OH,45202,475000,2,2.0,City,1559,12916,2007,2,305,492,Active,,,https://www.redfin.com/OH/Cincinnati/353-W-4th-St-45202/unit-600/home/76117653,Cincy MLS,1818154,N,Y,39.0986222,-84.5187372
MLS Listing,,Single Family Residential,10716 Sharondale Rd,Sharonville,OH,45241,235000,3,1.5,Sharonville,1924,8233,1962,2,122,,Active,,,https://www.redfin.com/OH/Cincinnati/10716-Sharondale-Rd-45241/home/76147166,Cincy MLS,1818220,N,Y,39.2598912,-84.3999369
MLS Listing,,Single Family Residential,4024 Marburg Ave,Cincinnati,OH,45209,329000,3,1.0,Oakley,1140,6490,1924,2,289,,Active,,,https://www.redfin.com/OH/Cincinnati/4024-Marburg-Ave-45209/home/100954348,Cincy MLS,1818079,N,Y,39.151826,-84.4219036
MLS Listing,,Single Family Residential,1318 Carolina Ave,Cincinnati,OH,45237,299000,3,2.0,Bond Hill,1865,5140,1907,2,160,,Active,,,https://www.redfin.com/OH/Cincinnati/1318-Carolina-Ave-45237/home/76122527,Cincy MLS,1816205,N,Y,39.1755671,-84.4748979
MLS Listing,,Vacant Land,575 Delta Ave Unit B,Cincinnati,OH,45226,150000,,,Columbia/Tusculum,,3049,,2,,,Active,,,https://www.redfin.com/OH/Cincinnati/575-Delta-Ave-45226/unit-B/home/192567452,Cincy MLS,1818019,N,Y,39.1219247,-84.4363223
MLS Listing,,Vacant Land,575 Delta Ave Unit A,Cincinnati,OH,45223,150000,,,Columbia/Tusculum,,3049,,2,,,Active,,,https://www.redfin.com/OH/Cincinnati/575-Delta-Ave-45226/unit-A/home/192567451,Cincy MLS,1818018,N,Y,39.1219247,-84.4363223
MLS Listing,,Vacant Land,571 Delta Ave Unit B,Cincinnati,OH,45226,150000,,,Columbia/Tusculum,,3049,,2,,,Active,,,https://www.redfin.com/OH/Cincinnati/571-Delta-Ave-45226/unit-B/home/192567444,Cincy MLS,1818017,N,Y,39.1217832,-84.4364216
MLS Listing,,Vacant Land,571 Delta Ave Unit A,Cincinnati,OH,45226,150000,,,Columbia/Tusculum,,3049,,2,,,Active,,,https://www.redfin.com/OH/Cincinnati/571-Delta-Ave-45226/unit-A/home/192567438,Cincy MLS,1818014,N,Y,39.1217832,-84.4364216
MLS Listing,,Townhouse,3670 Ashworth Dr Unit A,Cincinnati,OH,45208,444400,3,2.5,Hyde Park,1776,131734,1962,2,250,385,Active,,,https://www.redfin.com/OH/Cincinnati/3670-Ashworth-Dr-45208/unit-A/home/166810537,Cincy MLS,1817695,N,Y,39.1435794,-84.4118088
MLS Listing,,Single Family Residential,940 Ellson Rd,Union Twp,OH,45245,339900,3,2.5,Union Twp.,1900,8943,2013,2,179,29,Active,,,https://www.redfin.com/OH/Cincinnati/940-Ellson-Rd-45245/home/71329812,Cincy MLS,1818205,N,Y,39.0793358,-84.2655133
MLS Listing,,Single Family Residential,8102 Fawn Lk,Colerain Twp,OH,45247,455000,4,4.5,Colerain Twp.West,2950,22825,1987,3,154,50,Active,,,https://www.redfin.com/OH/Cincinnati/8102-Fawn-Lake-Ct-45247/home/78738923,Cincy MLS,1817502,N,Y,39.2219821,-84.6293663
MLS Listing,,Single Family Residential,2142 Berkshire Club Dr,Cincinnati,OH,45230,594900,4,3.0,Anderson Twp.,3206,31276,1988,3,186,56,Active,,,https://www.redfin.com/OH/Cincinnati/2142-Berkshire-Club-Dr-45230/home/100993638,Cincy MLS,1817984,N,Y,39.0933532,-84.3688844
MLS Listing,,Single Family Residential,8657 Antrim Ct,Sycamore Twp,OH,45236,305000,3,2.0,Dillonvale,1253,9278,1953,3,243,,Active,,,https://www.redfin.com/OH/Cincinnati/8657-Antrim-Ct-45236/home/76163544,Cincy MLS,1817292,N,Y,39.2180982,-84.403569
MLS Listing,,Condo/Co-op,50 E Court St #207,Cincinnati,OH,45202,450000,2,2.0,City,,,2020,3,,331,Active,,,https://www.redfin.com/OH/Cincinnati/50-E-Court-St-45202/unit-207/home/184883361,Cincy MLS,1818116,N,Y,39.106688,-84.5130226
MLS Listing,,Vacant Land,144 Sheffield Rd,Springfield Twp.,OH,45240,80000,,,Springfield Twp.,,40816,,3,,,Active,,,https://www.redfin.com/OH/Cincinnati/144-Sheffield-Rd-45240/home/190032587,Cincy MLS,1818166,N,Y,39.265859,-84.475904
MLS Listing,,Single Family Residential,3611 Evanston Ave,Cincinnati,OH,45207,199999,4,1.5,Evanston,1260,3877,1900,3,159,,Active,,,https://www.redfin.com/OH/Cincinnati/3611-Evanston-Ave-45207/home/76096429,Cincy MLS,1818197,N,Y,39.144695,-84.4632044
MLS Listing,,Single Family Residential,4640 Mt Alverno Rd,Delhi Twp,OH,45238,450000,5,2.5,Delhi Twp.,2517,15725,1967,3,179,,Active,,,https://www.redfin.com/OH/Cincinnati/4640-Mount-Alverno-Rd-45238/home/76130548,Cincy MLS,1818173,N,Y,39.0900857,-84.6024441
MLS Listing,,Multi-Family (2-4 Unit),3201 Griest Ave,Cincinnati,OH,45208,695000,4,4.0,Mt. Lookout,,6447,1935,3,,,Active,,,https://www.redfin.com/OH/Cincinnati/3201-Griest-Ave-45208/home/100953048,Cincy MLS,1818189,N,Y,39.1340469,-84.4255986
MLS Listing,,Townhouse,7752 Montgomery Rd #75,Cincinnati,OH,45236,229000,3,2.5,Kenwood,1178,249477,1969,3,194,341,Active,,,https://www.redfin.com/OH/Cincinnati/7752-Montgomery-Rd-45236/unit-75/home/101037337,Cincy MLS,1818186,N,Y,39.1950924,-84.3845708
MLS Listing,,Single Family Residential,1149 Ayershire Ave,Cincinnati,OH,45230,235000,4,1.0,Anderson Twp.,,,1940,3,,,Active,,,https://www.redfin.com/OH/Cincinnati/1149-Ayershire-Ave-45230/home/76102147,Cincy MLS,1814401,N,Y,39.072277,-84.3714863
MLS Listing,,Single Family Residential,8907 Terwilligers Trl,Montgomery,OH,45249,825000,5,4.0,Montgomery,3437,22521,1985,3,240,13,Active,,,https://www.redfin.com/OH/Montgomery/8907-Terwilligers-Trl-45249/home/76164327,Cincy MLS,1818182,N,Y,39.2695051,-84.3155587
MLS Listing,,Condo/Co-op,2162 Gilbert Ave Unit A,Cincinnati,OH,45206,235000,2,2.0,Walnut Hills,1094,21967,1982,4,215,343,Active,,,https://www.redfin.com/OH/Cincinnati/2162-Gilbert-Ave-45206/unit-A/home/78874647,Cincy MLS,1818179,N,Y,39.1201859,-84.4941785
MLS Listing,,Single Family Residential,2043 Faycrest Dr,Cincinnati,OH,45238,249000,3,1.0,Westwood,,6621,1954,4,,,Active,,,https://www.redfin.com/OH/Cincinnati/2043-Faycrest-Dr-45238/home/76157321,Cincy MLS,1818175,N,Y,39.1290703,-84.6206523
MLS Listing,,Townhouse,106 St Andrews Dr,Pierce Twp,OH,45245,175000,2,1.5,Pierce Twp.,1160,749,1979,4,151,228,Active,,,https://www.redfin.com/OH/Cincinnati/106-Saint-Andrews-Dr-45245/home/192548621,Cincy MLS,1805345,N,Y,39.0476379,-84.2642209
MLS Listing,,Single Family Residential,2445 Bluelark Dr,Colerain Twp,OH,45231,240000,3,1.5,Colerain Twp.East,1000,14157,1961,4,240,,Active,,,https://www.redfin.com/OH/Cincinnati/2445-Bluelark-Dr-45231/home/76149236,Cincy MLS,1817858,N,Y,39.2278179,-84.5719327
MLS Listing,,Single Family Residential,11706 Laurelview Dr,Cincinnati,OH,45249,750000,4,3.0,Montgomery,3260,19994,1979,4,230,4,Active,,,https://www.redfin.com/OH/Montgomery/11706-Laurelview-Dr-45249/home/78767762,Cincy MLS,1818053,N,Y,39.2624591,-84.3171743
MLS Listing,,Single Family Residential,10561 Ridgevale Dr,Springfield Twp.,OH,45240,349900,4,3.5,Springfield Twp.,2415,32409,1975,4,145,,Active,,,https://www.redfin.com/OH/Cincinnati/10561-Ridgevale-Dr-45240/home/78747114,Cincy MLS,1817477,N,Y,39.2659102,-84.5494934
MLS Listing,,Single Family Residential,4850 Myrtle Ave,Blue Ash,OH,45242,399900,3,3.0,Blue Ash,1692,5968,1935,4,236,,Active,,,https://www.redfin.com/OH/Blue-Ash/4850-Myrtle-Ave-45242/home/78833559,Cincy MLS,1817993,N,Y,39.232111,-84.3746042
MLS Listing,,Condo/Co-op,1615 Braintree Dr,Anderson Twp,OH,45255,300000,3,2.5,Anderson Twp.,2300,210212,1974,4,130,440,Active,,,https://www.redfin.com/OH/Cincinnati/1615-Braintree-Dr-45255/home/184889389,Cincy MLS,1818054,N,Y,39.0804996,-84.3479201
MLS Listing,,Single Family Residential,1548 Sharjoy Ct,Anderson Twp,OH,45230,649500,4,3.5,Anderson Twp.,2456,19950,1985,4,264,,Active,,,https://www.redfin.com/OH/Cincinnati/1548-Sharjoy-Ct-45230/home/78759119,Cincy MLS,1817669,N,Y,39.0827419,-84.4072929
MLS Listing,,Condo/Co-op,2701 Lehman Rd Unit A11,Cincinnati,OH,45204,85000,2,1.0,Price Hill,672,,1966,4,126,276,Active,,,https://www.redfin.com/OH/Cincinnati/2701-Lehman-Rd-45204/unit-A11/home/100938776,Cincy MLS,1817741,N,Y,39.114735,-84.5524014
MLS Listing,,Single Family Residential,2843 Marshall Ave,Cincinnati,OH,45225,79900,1,1.0,Clifton,608,5053,1925,4,131,,Active,,,https://www.redfin.com/OH/Cincinnati/2843-Marshall-Ave-45225/home/76168164,Cincy MLS,1818096,N,Y,39.1328245,-84.5288848
MLS Listing,,Single Family Residential,3914 School Section Rd,Cheviot,OH,45211,199000,3,2.0,Cheviot,1137,3920,1949,4,175,,Active,,,https://www.redfin.com/OH/Cincinnati/3914-School-Section-Rd-45211/home/101020715,Cincy MLS,1816791,N,Y,39.1610029,-84.6209071
MLS Listing,,Single Family Residential,10847 Lemarie Dr,Sharonville,OH,45241,270000,3,1.0,Sharonville,1473,7884,1960,4,183,,Active,,,https://www.redfin.com/OH/Cincinnati/10847-Lemarie-Dr-45241/home/63725550,Cincy MLS,1818168,N,Y,39.2631529,-84.3998743
MLS Listing,,Condo/Co-op,323 Bern Ln,Springdale,OH,45246,229900,2,2.0,Springdale,1247,,2008,4,184,300,Active,,,https://www.redfin.com/OH/Cincinnati/323-Bern-Ln-45246/home/184887478,Cincy MLS,1818030,N,Y,39.2969323,-84.4622913
MLS Listing,,Single Family Residential,2670 Mustang Dr,Cincinnati,OH,45211,179900,4,2.0,Westwood,1712,15769,1964,4,105,,Active,,,https://www.redfin.com/OH/Cincinnati/2670-Mustang-Dr-45211/home/66082789,Cincy MLS,1818161,N,Y,39.1511242,-84.5828449
MLS Listing,,Single Family Residential,2414 W Clifton Ave,Cincinnati,OH,45219,549000,6,3.0,Clifton,2386,6186,1906,4,230,,Active,,,https://www.redfin.com/OH/Cincinnati/2414-W-Clifton-Ave-45219/home/100960898,Cincy MLS,1818162,N,Y,39.1265585,-84.5192802
MLS Listing,,Single Family Residential,7147 Bluecrest Dr,Anderson Twp,OH,45230,275000,4,1.5,Anderson Twp.,1318,5968,1959,4,209,,Active,,,https://www.redfin.com/OH/Cincinnati/7147-Bluecrest-Dr-45230/home/76145983,Cincy MLS,1818058,N,Y,39.0807135,-84.3580529
MLS Listing,,Condo/Co-op,26 W Fifteenth St Unit 3F,Cincinnati,OH,45202,289900,1,1.0,City,665,7606,1895,4,436,256,Active,,,https://www.redfin.com/OH/Cincinnati/26-W-15th-St-45202/unit-3F/home/179103168,Cincy MLS,1818136,N,Y,39.1116323,-84.5169112
MLS Listing,,Single Family Residential,764 N Hill Ln,Springfield Twp.,OH,45224,313000,3,2.0,Springfield Twp.,2208,12763,1960,4,142,,Active,,,https://www.redfin.com/OH/Cincinnati/764-North-Hill-Ln-45224/home/63719943,Cincy MLS,1818129,N,Y,39.2096911,-84.5112108
MLS Listing,,Single Family Residential,539 Chaswil Dr,Anderson Twp,OH,45255,759900,4,5.0,Anderson Twp.,6263,43996,1989,4,121,46,Active,,,https://www.redfin.com/OH/Cincinnati/539-Chaswil-Dr-45255/home/100991014,Cincy MLS,1818155,N,Y,39.0541557,-84.339772
MLS Listing,,Single Family Residential,7009 Mayfield Ave,Madeira,OH,45243,1995000,4,6.0,Madeira,5041,12632,1929,4,396,,Active,,,https://www.redfin.com/OH/Cincinnati/7009-Mayfield-Ave-45243/home/101003823,Cincy MLS,1817958,N,Y,39.1885465,-84.369668
MLS Listing,,Condo/Co-op,8741 Carrousel Park #79,Cincinnati,OH,45251,179900,2,2.0,Colerain Twp.West,,17071,1996,4,,270,Active,,,https://www.redfin.com/OH/Cincinnati/8741-Carrousel-Park-Cir-45251/unit-79/home/78943230,Cincy MLS,1818151,N,Y,39.2311539,-84.5982564
MLS Listing,,Condo/Co-op,7238 Creekview Dr #8,Colerain Twp,OH,45247,118000,2,1.5,Colerain Twp.West,880,84519,1984,4,134,260,Active,,,https://www.redfin.com/OH/Cincinnati/7238-Creekview-Dr-45247/unit-8/home/76080041,Cincy MLS,1818147,N,Y,39.2165817,-84.6835587
MLS Listing,,Single Family Residential,2735 Orland Ave,Cincinnati,OH,45211,175000,3,1.0,City,1288,4966,1927,4,136,,Active,,,https://www.redfin.com/OH/Cincinnati/2735-Orland-Ave-45211/home/100978564,Cincy MLS,1817991,N,Y,39.1356225,-84.5745197
MLS Listing,,Vacant Land,9730 Cincinnati Columbus Rd,West Chester,OH,45069,1890000,,,West West Chester,,,,4,,,Active,,,https://www.redfin.com/OH/West-Chester/9730-Cincinnati-Columbus-Rd-45241/home/100683168,Cincy MLS,1818088,N,Y,39.3082929,-84.3830446
MLS Listing,,Condo/Co-op,3950 Olde Savannah Dr #7,Colerain Twp,OH,45247,239000,2,2.0,White Oak,1486,,2000,4,161,340,Active,,,https://www.redfin.com/OH/Cincinnati/3950-Olde-Savannah-Dr-45247/unit-7/home/114018032,Cincy MLS,1818137,N,Y,39.2206853,-84.607826
MLS Listing,,Single Family Residential,9809 Orchard Trl Lot 16,Montgomery,OH,45242,1050000,3,3.0,Montgomery,,6970,,4,,272,Active,,,https://www.redfin.com/OH/Montgomery/9809-Orchard-Trl-45242/unit-16/home/175922353,Cincy MLS,1818104,N,Y,39.2550312,-84.3468592
MLS Listing,,Single Family Residential,6540 Miami Ave,Madeira,OH,45243,655000,4,2.0,Madeira,2045,92217,1949,4,320,,Active,,,https://www.redfin.com/OH/Cincinnati/6540-Miami-Ave-45243/home/101003962,Cincy MLS,1818094,N,Y,39.1815534,-84.3623266
MLS Listing,,Single Family Residential,1948 Dalewood Pl,Cincinnati,OH,45237,214500,3,1.5,Bond Hill,1246,3311,1936,4,172,,Active,,,https://www.redfin.com/OH/Cincinnati/1948-Dalewood-Pl-45237/home/78825542,Cincy MLS,1818134,N,Y,39.176264,-84.4603977
MLS Listing,,Single Family Residential,722 Wilbud Dr,Cincinnati,OH,45205,189900,3,1.0,Price Hill,1218,9148,1953,4,156,,Active,,,https://www.redfin.com/OH/Cincinnati/722-Wilbud-Dr-45205/home/78828194,Cincy MLS,1817674,N,Y,39.1054695,-84.591275
MLS Listing,,Condo/Co-op,3973 School Section Rd #17,Cincinnati,OH,45211,150000,2,2.0,Bridgetown,1131,40101,1987,4,133,165,Active,,,https://www.redfin.com/OH/Cincinnati/3973-School-Section-Rd-45211/unit-17/home/101015448,Cincy MLS,1818126,N,Y,39.1632463,-84.6219221
MLS Listing,,Single Family Residential,249 Mccormick Pl,Cincinnati,OH,45219,295000,5,2.5,Mt. Auburn,1845,3790,1906,4,160,,Active,,,https://www.redfin.com/OH/Cincinnati/249-McCormick-Pl-45219/home/100958497,Cincy MLS,1818080,N,Y,39.1245761,-84.5060331
MLS Listing,,Multi-Family (2-4 Unit),906 Seton Ave,Cincinnati,OH,45205,270000,4,4.0,Price Hill,2778,6098,1941,4,97,,Active,,,https://www.redfin.com/OH/Cincinnati/906-Seton-Ave-45205/home/78976166,Cincy MLS,1817990,N,Y,39.1080067,-84.5764942
MLS Listing,,Single Family Residential,4332 W 8th St,Cincinnati,OH,45205,99900,3,1.0,Price Hill,1152,5314,1925,4,87,,Active,,,https://www.redfin.com/OH/Cincinnati/4332-W-8th-St-45205/home/100972069,Cincy MLS,1818112,N,Y,39.108691,-84.5933028
MLS Listing,,Single Family Residential,10565 Stablehand Dr,Symmes Twp,OH,45242,629000,4,3.5,Symmes Twp.,2590,33541,1988,4,243,8,Active,,,https://www.redfin.com/OH/Cincinnati/10565-Stablehand-Dr-45242/home/78751340,Cincy MLS,1818026,N,Y,39.2430231,-84.303791
MLS Listing,,Single Family Residential,2222 Quebec Rd,Cincinnati,OH,45214,160000,3,1.0,Fairmount,1138,5706,1938,4,141,,Active,,,https://www.redfin.com/OH/Cincinnati/2222-Quebec-Rd-45214/home/100978041,Cincy MLS,1817166,N,Y,39.1226056,-84.5646177
MLS Listing,,Single Family Residential,3467 Hudson Ave,Cincinnati,OH,45207,515000,5,2.5,Evanston,2675,7362,1910,4,193,,Active,,,https://www.redfin.com/OH/Cincinnati/3467-Hudson-Ave-45207/home/76134132,Cincy MLS,1818086,N,Y,39.1413496,-84.4680388
MLS Listing,,Condo/Co-op,1150 Vine St #36,Cincinnati,OH,45202,249000,1,1.0,City,770,14876,2005,4,323,340,Active,,,https://www.redfin.com/OH/Cincinnati/1150-Vine-St-45202/unit-36/home/76117031,Cincy MLS,1817980,N,Y,39.1081593,-84.5145588
MLS Listing,,Single Family Residential,507 Woodlawn Ave,Cincinnati,OH,45205,249903,5,2.5,Price Hill,2217,3920,1914,4,113,,Active,,,https://www.redfin.com/OH/Cincinnati/507-Woodlawn-Ave-45205/home/78978621,Cincy MLS,1818078,N,Y,39.1012128,-84.5684293
MLS Listing,,Single Family Residential,2700 Redfield Pl,Cincinnati,OH,45230,275000,3,2.0,Mt. Washington,1826,9017,1947,4,151,,Active,,,https://www.redfin.com/OH/Cincinnati/2700-Redfield-Pl-45230/home/100946908,Cincy MLS,1817862,N,Y,39.1046086,-84.3904421
MLS Listing,,Single Family Residential,4692 Kirby Ave,Cincinnati,OH,45223,189900,3,1.0,Norwood,875,6055,1953,4,217,,Active,,,https://www.redfin.com/OH/Cincinnati/4692-Kirby-Ave-45223/home/100976148,Cincy MLS,1818013,N,Y,39.1764266,-84.5502751
MLS Listing,,Single Family Residential,1637 Tuxworth Ave,Cincinnati,OH,45238,185000,3,1.5,Covedale,1305,4748,1936,4,142,,Active,,,https://www.redfin.com/OH/Cincinnati/1637-Tuxworth-Ave-45238/home/100973876,Cincy MLS,1817796,N,Y,39.1200067,-84.5972805
MLS Listing,,Single Family Residential,10426 Mill Rd,Springfield Twp.,OH,45240,269900,4,2.0,Springfield Twp.,2183,15725,1938,4,124,,Active,,,https://www.redfin.com/OH/Cincinnati/10426-Mill-Rd-45240/home/76085734,Cincy MLS,1814407,N,Y,39.2624067,-84.5457547
MLS Listing,,Single Family Residential,1687 Clayburn Cir,Cincinnati,OH,45240,299900,4,2.0,Pleasant Run Farm,2027,10062,1965,4,148,,Active,,,https://www.redfin.com/OH/Cincinnati/1687-Clayburn-Cir-45240/home/78767095,Cincy MLS,1818071,N,Y,39.29765,-84.5458889
MLS Listing,,Condo/Co-op,521 Martin Luther King Unit B28,Cincinnati,OH,45220,195000,2,2.0,Clifton,,,1986,4,,250,Active,,,https://www.redfin.com/OH/Cincinnati/521-Martin-Luther-King-Dr-W-45220/unit-B28/home/192538264,Cincy MLS,1818064,N,Y,39.1390697,-84.5252033
MLS Listing,,Single Family Residential,4223 Silver Streak Dr,Union Twp,OH,45245,379000,4,3.0,Union Twp.,2058,10280,2002,4,184,,Active,,,https://www.redfin.com/OH/Cincinnati/4223-Silver-Streak-Dr-45245/home/71316450,Cincy MLS,1818072,N,Y,39.0831703,-84.2871749
MLS Listing,,Single Family Residential,2845 Ridgewood Ave,Cincinnati,OH,45213,425000,3,2.0,Columbia Twp.,1793,7013,1940,4,237,,Active,,,https://www.redfin.com/OH/Cincinnati/2845-Ridgewood-Ave-45213/home/76080643,Cincy MLS,1818069,N,Y,39.1887428,-84.434493
MLS Listing,,Single Family Residential,4187 Parkview Dr,Cincinnati,OH,45242,1100000,4,4.0,Blue Ash,3253,5998,2021,4,338,266,Active,,,https://www.redfin.com/OH/Blue-Ash/4187-Parkview-Dr-45242/home/179102100,Cincy MLS,1817880,N,Y,39.2444685,-84.3923874
MLS Listing,,Single Family Residential,5849 Pameleen Ct,Cincinnati,OH,45239,169900,4,2.5,Mt. Airy,1981,9409,1968,4,86,,Active,,,https://www.redfin.com/OH/Cincinnati/5849-Pameleen-Ct-45239/home/76100899,Cincy MLS,1817961,N,Y,39.2036365,-84.5778341
MLS Listing,,Condo/Co-op,1326 Vine St #18,Cincinnati,OH,45202,450000,2,1.0,City,1147,15686,2010,4,392,362,Active,,,https://www.redfin.com/OH/Cincinnati/1326-Vine-St-45202/unit-18/home/78852501,Cincy MLS,1817587,N,Y,39.1104958,-84.5150914
MLS Listing,,Single Family Residential,3209 Daytona Ave,Cincinnati,OH,45211,259900,3,2.0,Westwood,1189,6752,1926,4,219,,Active,,,https://www.redfin.com/OH/Cincinnati/3209-Daytona-Ave-45211/home/76100247,Cincy MLS,1818004,N,Y,39.1463319,-84.6074595
MLS Listing,,Single Family Residential,725 Riddle Rd,Cincinnati,OH,45220,279000,2,1.5,Clifton,1466,6055,1924,4,190,,Active,September-22-2024 12:00 PM,September-22-2024 01:30 PM,https://www.redfin.com/OH/Cincinnati/725-Riddle-Rd-45220/home/100960410,Cincy MLS,1818047,N,Y,39.1369622,-84.5306001
MLS Listing,,Single Family Residential,1435 Thompson Heights Ave,Cincinnati,OH,45223,350000,3,2.0,Northside,1203,16291,1910,4,291,,Active,,,https://www.redfin.com/OH/Cincinnati/1435-Thompson-Heights-Ave-45223/home/78964822,Cincy MLS,1817844,N,Y,39.1711733,-84.5369972
MLS Listing,,Vacant Land,3486 Hader,Green Twp,OH,45211,29900,,,Green Twp.,,14161,,4,,,Active,,,https://www.redfin.com/OH/Cincinnati/3486-Hader-Ave-45211/home/192537803,Cincy MLS,1817936,N,Y,39.169133,-84.605447
MLS Listing,,Vacant Land,2529 Foxcove Ct,Cincinnati,OH,45211,29900,,,Westwood,,6582,,4,,,Active,,,https://www.redfin.com/OH/Cincinnati/2529-Foxcove-Ct-45211/home/192537802,Cincy MLS,1817970,N,Y,39.15017,-84.578987
MLS Listing,,Vacant Land,2525 Foxcove Ct,Cincinnati,OH,45211,29900,,,Westwood,,6917,,4,,,Active,,,https://www.redfin.com/OH/Cincinnati/2525-Foxcove-Ct-45211/home/145757024,Cincy MLS,1817974,N,Y,39.150189,-84.579224
MLS Listing,,Vacant Land,2537 Foxcove Ct,Cincinnati,OH,45211,29900,,,Westwood,,8538,,4,,,Active,,,https://www.redfin.com/OH/Cincinnati/2537-Foxcove-Ct-45211/home/192537801,Cincy MLS,1817955,N,Y,39.1500739,-84.578494
MLS Listing,,Vacant Land,2533 Foxcove,Cincinnati,OH,45211,29900,,,Westwood,,7532,,4,,,Active,,,https://www.redfin.com/OH/Cincinnati/2533-Foxcove-Ct-45211/home/192537800,Cincy MLS,1817892,N,Y,39.150184,-84.578705
MLS Listing,,Vacant Land,2523 Foxcove Ct,Cincinnati,OH,45211,34900,,,Westwood,,213832,,4,,,Active,,,https://www.redfin.com/OH/Cincinnati/2523-Foxcove-Ct-45211/home/192537790,Cincy MLS,1817989,N,Y,39.1501526,-84.5793606
MLS Listing,,Vacant Land,2521 Foxcove Ct,Cincinnati,OH,45211,29900,,,Westwood,,6691,,4,,,Active,,,https://www.redfin.com/OH/Cincinnati/2521-Foxcove-Ct-45211/home/192537789,Cincy MLS,1817983,N,Y,39.1501329,-84.5795009
MLS Listing,,Single Family Residential,3550 Perignon Pl,Columbia Twp,OH,45226,975000,4,3.0,Columbia/Tusculum,2309,27486,1987,4,422,,Active,,,https://www.redfin.com/OH/Cincinnati/3550-Perignon-Pl-45226/home/100948516,Cincy MLS,1817874,N,Y,39.1198957,-84.4312106
MLS Listing,,Townhouse,9642 Crosley Farm Dr #69,Colerain Twp,OH,45251,170000,2,2.0,Colerain Twp.East,1106,,1991,4,154,335,Active,,,https://www.redfin.com/OH/Cincinnati/9642-Crosley-Farm-Dr-45251/unit-69/home/78767127,Cincy MLS,1817948,N,Y,39.245971,-84.5869581
MLS Listing,,Single Family Residential,210 Hosea Ave,Cincinnati,OH,45220,1200000,6,4.0,Clifton,5250,28793,1906,4,229,,Active,,,https://www.redfin.com/OH/Cincinnati/210-Hosea-Ave-45220/home/76076089,Cincy MLS,1817813,N,Y,39.1438015,-84.5158555
MLS Listing,,Condo/Co-op,3408 N Bend Rd #7,Cincinnati,OH,45239,149900,2,2.0,Monfort Hts.,1020,59934,2004,4,147,250,Active,,,https://www.redfin.com/OH/Cincinnati/3408-N-Bend-Rd-45239/unit-7/home/163551622,Cincy MLS,1817978,N,Y,39.1910166,-84.5971411
MLS Listing,,Condo/Co-op,3335 Emerald Lakes Dr Unit 2-D,Green Twp,OH,45247,174500,2,2.0,Green Twp.,1016,70789,2005,4,172,235,Active,,,https://www.redfin.com/OH/Green-Twp/3335-Emerald-Lakes-DR-45247/unit-2-D/home/192537386,Cincy MLS,1817743,N,Y,39.2295369,-84.6583745
MLS Listing,,Condo/Co-op,5053 Garden Grove Ln,Delhi Twp,OH,45238,332400,2,2.0,Delhi Twp.,1325,,2024,4,251,250,Active,,,https://www.redfin.com/OH/Cincinnati/5053-Garden-Grove-Ln-45238/home/192537379,Cincy MLS,1818007,N,Y,39.1057193,-84.6098761
MLS Listing,,Condo/Co-op,810 Matson Pl #501,Cincinnati,OH,45204,364900,3,2.0,Price Hill,1724,,1964,4,212,763,Active,,,https://www.redfin.com/OH/Cincinnati/810-Matson-Pl-45204/unit-501/home/78838466,Cincy MLS,1818031,N,Y,39.1058715,-84.5565211
MLS Listing,,Townhouse,2356 Park Ave #19,Cincinnati,OH,45206,345000,3,2.0,Walnut Hills,1430,62452,1906,4,241,431,Active,,,https://www.redfin.com/OH/Cincinnati/2356-Park-Ave-45206/unit-19/home/78853469,Cincy MLS,1817903,N,Y,39.1243096,-84.4862495
MLS Listing,,Single Family Residential,4851 Greenwood Ter,Cincinnati,OH,45226,249900,2,1.0,Linwood,1148,4530,1940,4,218,,Active,,,https://www.redfin.com/OH/Cincinnati/4851-Greenwood-Ter-45226/home/100947909,Cincy MLS,1817665,N,Y,39.1229857,-84.4142723
MLS Listing,,Multi-Family (2-4 Unit),3532 Warsaw Ave,Cincinnati,OH,45205,279000,5,3.0,Price Hill,,3746,1900,4,,,Active,,,https://www.redfin.com/OH/Cincinnati/3532-Warsaw-Ave-45205/home/78975360,Cincy MLS,1817937,N,Y,39.1106002,-84.5698187
MLS Listing,,Single Family Residential,4020 Haverstraw Dr,Sharonville,OH,45241,285000,3,2.0,Sharonville,1404,12807,1960,4,203,,Active,,,https://www.redfin.com/OH/Cincinnati/4020-Haverstraw-Dr-45241/home/78752145,Cincy MLS,1818025,N,Y,39.2703658,-84.3958138
MLS Listing,,Multi-Family (2-4 Unit),3926 Edwards Rd,Cincinnati,OH,45209,399000,4,,Oakley,1906,6098,1906,4,209,,Active,,,https://www.redfin.com/OH/Cincinnati/3926-Edwards-Rd-45209/home/100951908,Cincy MLS,1817998,N,Y,39.1508381,-84.4420252
MLS Listing,,Multi-Family (2-4 Unit),116 W Fourteenth St,Cincinnati,OH,45202,1250000,5,5.5,City,,,1900,4,,,Active,September-20-2024 04:00 PM,September-20-2024 06:00 PM,https://www.redfin.com/OH/Cincinnati/116-W-14th-St-45202/home/63725996,Cincy MLS,1817159,N,Y,39.1104046,-84.5178974
MLS Listing,,Single Family Residential,4308 Copperfield Ln,Delhi Twp,OH,45238,295000,3,3.0,Delhi Twp.,2022,9365,1967,5,146,,Active,,,https://www.redfin.com/OH/Cincinnati/4308-Copperfield-Ln-45238/home/101007690,Cincy MLS,1816507,N,Y,39.0874728,-84.5937664
MLS Listing,,Single Family Residential,12032 Stillwind Dr,Sycamore Twp,OH,45249,397900,4,2.5,Sycamore Twp.,1866,12153,1988,5,213,,Active,,,https://www.redfin.com/OH/Cincinnati/12032-Stillwind-Dr-45249/home/101036049,Cincy MLS,1817696,N,Y,39.2873364,-84.3438089
MLS Listing,,Single Family Residential,6530 Rollymeade Ave,Madeira,OH,45243,510000,3,3.0,Madeira,2548,20691,1956,5,200,,Active,,,https://www.redfin.com/OH/Cincinnati/6530-Rollymeade-Ave-45243/home/78765608,Cincy MLS,1817766,N,Y,39.1803608,-84.3802948
MLS Listing,,Single Family Residential,2220 Flora St,Cincinnati,OH,45219,325000,4,1.5,Clifton,1349,5314,1900,5,241,,Active,,,https://www.redfin.com/OH/Cincinnati/2220-Flora-St-45219/home/78830504,Cincy MLS,1817910,N,Y,39.1234925,-84.5246583
MLS Listing,,Single Family Residential,9935 Beech Dr,Springfield Twp.,OH,45231,699000,4,3.5,Springfield Twp.,5207,27791,2005,5,134,46,Active,,,https://www.redfin.com/OH/Cincinnati/9935-Beech-Dr-45231/home/100941592,Cincy MLS,1817536,N,Y,39.2468091,-84.4992052
MLS Listing,,Condo/Co-op,829 Neeb Rd #5,Delhi Twp,OH,45233,200000,2,2.0,Delhi Twp.,1460,,1999,5,137,220,Active,,,https://www.redfin.com/OH/Cincinnati/829-Neeb-Rd-45233/unit-5/home/172748054,Cincy MLS,1817943,N,Y,39.1096506,-84.6365776
MLS Listing,,Single Family Residential,3925 Kenkel Ave,Cheviot,OH,45211,249900,3,1.5,Cheviot,1190,7928,1919,5,210,,Active,,,https://www.redfin.com/OH/Cincinnati/3925-Kenkel-Ave-45211/home/76108404,Cincy MLS,1817496,N,Y,39.1600766,-84.619195
MLS Listing,,Single Family Residential,4465 Victor Ave,Blue Ash,OH,45242,395000,4,2.0,Blue Ash,1435,6055,1953,5,275,,Active,,,https://www.redfin.com/OH/Blue-Ash/4465-Victor-Ave-45242/home/76114559,Cincy MLS,1817380,N,Y,39.2286161,-84.3870191
MLS Listing,,Single Family Residential,5985 Bagdad Dr,Cincinnati,OH,45230,289900,3,2.5,Mt. Washington,1606,17293,1970,5,181,,Active,,,https://www.redfin.com/OH/Cincinnati/5985-Bagdad-Dr-45230/home/100947345,Cincy MLS,1817454,N,Y,39.0926163,-84.3983197
MLS Listing,,Single Family Residential,916 Surrey Trl,Union Twp,OH,45245,419900,4,3.5,Union Twp.,2441,26005,1988,5,172,,Active,September-22-2024 01:00 PM,September-22-2024 02:30 PM,https://www.redfin.com/OH/Cincinnati/916-Surrey-Trl-45245/home/71388505,Cincy MLS,1817755,N,Y,39.1128543,-84.2641802
MLS Listing,,Single Family Residential,506 Boal St,Cincinnati,OH,45202,695000,2,2.5,Mt. Auburn,1740,6142,1900,5,399,,Active,,,https://www.redfin.com/OH/Cincinnati/506-Boal-St-45202/home/76171577,Cincy MLS,1817465,N,Y,39.1138633,-84.5062934
MLS Listing,,Condo/Co-op,4234 Victorian Green Dr #38,Green Twp,OH,45211,215000,3,3.0,Green Twp.,1937,27417,1990,5,111,249,Active,,,https://www.redfin.com/OH/Cincinnati/4234-Victorian-Green-Dr-45211/unit-38/home/101015145,Cincy MLS,1817558,N,Y,39.1652722,-84.6221988
MLS Listing,,Single Family Residential,8214 Eastdale Dr,Anderson Twp,OH,45255,425000,5,3.5,Anderson Twp.,2260,12023,1986,5,188,,Active,,,https://www.redfin.com/OH/Cincinnati/8214-Eastdale-Dr-45255/home/87533335,Cincy MLS,1817533,N,Y,39.0604787,-84.3274417
MLS Listing,,Single Family Residential,5735 Warren Ave,Norwood,OH,45212,219000,3,1.0,Norwood,1950,3485,1924,5,112,,Active,,,https://www.redfin.com/OH/Cincinnati/5735-Warren-Ave-45212/home/101048043,Cincy MLS,1817724,N,Y,39.1780723,-84.4580847
MLS Listing,,Condo/Co-op,1501 Vine St #303,Cincinnati,OH,45202,229000,1,1.0,City,645,3437,1903,5,355,215,Active,,,https://www.redfin.com/OH/Cincinnati/1501-Vine-St-45202/unit-303/home/113068355,Cincy MLS,1817742,N,Y,39.1118135,-84.5159418
MLS Listing,,Single Family Residential,1736 Galbraith Rd,North College Hill,OH,45239,145900,3,1.0,North College Hil,,7666560,1917,5,,,Active,,,https://www.redfin.com/OH/North-College-Hill/1736-W-Galbraith-Rd-45239/home/192526851,Cincy MLS,1817855,N,Y,39.2182865,-84.5537393
MLS Listing,,Single Family Residential,3712 Odin Ave,Cincinnati,OH,45213,215000,2,1.0,Kennedy Hts.,903,7492,1910,5,238,,Active,,,https://www.redfin.com/OH/Cincinnati/3712-Odin-Ave-45213/home/100966386,Cincy MLS,1817945,N,Y,39.1880243,-84.4097774
MLS Listing,,Single Family Residential,2342 Garrison Dr,Cincinnati,OH,45231,345000,4,3.0,Springfield Twp.,1848,8276,2003,5,187,,Active,,,https://www.redfin.com/OH/Cincinnati/2342-Garrison-Dr-45231/home/78791242,Cincy MLS,1817917,N,Y,39.2411902,-84.566746
MLS Listing,,Condo/Co-op,2356 Dana Ave,Cincinnati,OH,45208,255000,2,2.0,Hyde Park,,,1971,5,,595,Active,,,https://www.redfin.com/OH/Cincinnati/2356-Dana-Ave-45208/home/184884471,Cincy MLS,1817951,N,Y,39.1416873,-84.4538204
MLS Listing,,Single Family Residential,6137 Benneville St,Cincinnati,OH,45230,250000,4,2.5,Mt. Washington,,32539,1928,5,,,Active,,,https://www.redfin.com/OH/Cincinnati/6137-Benneville-St-45230/home/100946277,Cincy MLS,1817875,N,Y,39.0876252,-84.3885356
MLS Listing,,Single Family Residential,1549 Ruth Ave,Cincinnati,OH,45207,425000,5,2.5,Evanston,2432,3093,1900,5,175,,Active,,,https://www.redfin.com/OH/Cincinnati/1549-Ruth-Ave-45207/home/76120837,Cincy MLS,1817871,N,Y,39.138885,-84.4769391
MLS Listing,,Single Family Residential,11602 Sharonwoods Ct,Sharonville,OH,45241,450000,3,2.5,Sharonville,,17903,1968,5,,,Active,,,https://www.redfin.com/OH/Cincinnati/11602-Sharonwoods-Ct-45241/home/76089946,Cincy MLS,1817950,N,Y,39.2829577,-84.3935864
MLS Listing,,Condo/Co-op,2444 Madison Rd #909,Cincinnati,OH,45208,210000,1,1.5,Hyde Park,1053,593575,1967,5,199,810,Active,,,https://www.redfin.com/OH/Cincinnati/2444-Madison-Rd-45208/unit-909/home/100952593,Cincy MLS,1817935,N,Y,39.1404876,-84.4538999
MLS Listing,,Single Family Residential,3133 Harvard Ave,Cincinnati,OH,45207,300000,4,1.5,Evanston,1280,2875,1905,5,234,,Active,,,https://www.redfin.com/OH/Cincinnati/3133-Harvard-Ave-45207/home/100955343,Cincy MLS,1816728,N,Y,39.1359428,-84.4772592
MLS Listing,,Single Family Residential,1145 Covedale Ave,Cincinnati,OH,45238,225000,3,1.5,Delhi Twp.,1456,7492,1941,5,155,,Active,,,https://www.redfin.com/OH/Cincinnati/1145-Covedale-Ave-45238/home/101009226,Cincy MLS,1817927,N,Y,39.1171048,-84.6074841
MLS Listing,,Vacant Land,824 Matson Pl,Cincinnati,OH,45204,425000,,,Price Hill,,9627,,5,,,Active,,,https://www.redfin.com/OH/Cincinnati/824-Matson-Pl-45204/home/76138456,Cincy MLS,1817908,N,Y,39.106558,-84.55605
MLS Listing,,Condo/Co-op,3122 Birchway Dr,Cincinnati,OH,45251,120000,2,1.0,Colerain Twp.East,864,,1983,5,139,220,Active,,,https://www.redfin.com/OH/Cincinnati/3122-Birchway-Dr-45251/home/63718097,Cincy MLS,1817516,N,Y,39.2426109,-84.5876873
MLS Listing,,Condo/Co-op,11758 Gable Glen Ln #601,Symmes Twp,OH,45249,330000,3,3.0,Symmes Twp.,2190,,1993,5,151,691,Active,,,https://www.redfin.com/OH/Cincinnati/11758-Gable-Glen-Ln-45249/unit-601/home/101045329,Cincy MLS,1817899,N,Y,39.284382,-84.3202023
MLS Listing,,Condo/Co-op,2454 Mustang Dr,Cincinnati,OH,45211,90000,2,1.0,Westwood,736,85700,1974,5,122,150,Active,,,https://www.redfin.com/OH/Cincinnati/2454-Mustang-Dr-45211/home/185718848,Cincy MLS,1817887,N,Y,39.155413,-84.57812
MLS Listing,,Single Family Residential,4164 Linden Ave,Deer Park,OH,45236,314900,3,2.5,Deer Park,1568,6186,1945,5,201,,Active,,,https://www.redfin.com/OH/Cincinnati/4164-Linden-Ave-45236/home/101040786,Cincy MLS,1817893,N,Y,39.2093965,-84.3956787
MLS Listing,,Condo/Co-op,2138 Madison Rd Unit N,Cincinnati,OH,45208,270000,2,2.0,Hyde Park,1091,,1915,5,247,415,Active,,,https://www.redfin.com/OH/Cincinnati/2138-Madison-Rd-45208/unit-N/home/100954883,Cincy MLS,1817447,N,Y,39.1336051,-84.4593111
MLS Listing,,Single Family Residential,6321 Desmond St,Cincinnati,OH,45227,209000,3,1.0,Madisonville,1600,7362,1895,5,131,,Active,,,https://www.redfin.com/OH/Cincinnati/6321-Desmond-St-45227/home/100949530,Cincy MLS,1817861,N,Y,39.161989,-84.3861488
MLS Listing,,Single Family Residential,4122 Oakwood Dr,Deer Park,OH,45236,219900,2,1.5,Deer Park,816,6273,1940,5,269,,Active,,,https://www.redfin.com/OH/Cincinnati/4122-Oakwood-Ave-45236/home/101040736,Cincy MLS,1815600,N,Y,39.2076945,-84.3978123
MLS Listing,,Single Family Residential,367 Applecreek Dr,Cincinnati,OH,45238,324900,4,2.5,Delhi Twp.,,9191,1993,5,,,Active,,,https://www.redfin.com/OH/Cincinnati/367-Applecreek-Ct-45238/home/101010286,Cincy MLS,1817826,N,Y,39.0920456,-84.6216533
MLS Listing,,Single Family Residential,5616 Sunnywoods Ln,Cincinnati,OH,45239,205000,3,1.0,White Oak,1135,6708,1955,5,181,,Active,,,https://www.redfin.com/OH/Cincinnati/5616-Sunnywoods-Ln-45239/home/101011883,Cincy MLS,1817869,N,Y,39.1947327,-84.5828288
MLS Listing,,Single Family Residential,5365 Clover Leaf Ln,Cincinnati,OH,45239,325000,5,3.0,Monfort Hts.,2165,18600,1946,5,150,,Active,,,https://www.redfin.com/OH/Cincinnati/5365-Clover-Leaf-Ln-45239/home/76106895,Cincy MLS,1817773,N,Y,39.1863478,-84.5933956
MLS Listing,,Single Family Residential,5514 Glengate Ln,Cincinnati,OH,45212,149900,2,1.0,Pleasant Ridge,882,5053,1940,5,170,,Active,,,https://www.redfin.com/OH/Cincinnati/5514-Glengate-Ln-45212/home/76137335,Cincy MLS,1817803,N,Y,39.1743397,-84.4343411
MLS Listing,,Single Family Residential,5592 Raceview Ave,Green Twp,OH,45248,219000,4,2.0,Bridgetown,1228,8059,1948,5,178,,Active,,,https://www.redfin.com/OH/Cincinnati/5592-Raceview-Ave-45248/home/78759631,Cincy MLS,1817864,N,Y,39.1633837,-84.6336292
MLS Listing,,Townhouse,621 Covedale Ave #2,Delhi Twp,OH,45238,276000,3,3.0,Delhi Twp.,1945,54790,1995,5,142,346,Active,,,https://www.redfin.com/OH/Cincinnati/621-Covedale-Ave-45238/unit-2/home/191433820,Cincy MLS,1817836,N,Y,39.1045954,-84.6089993
MLS Listing,,Single Family Residential,5483 Cleander Dr,Delhi Twp,OH,45238,259000,4,2.0,Delhi Twp.,1458,,1961,5,178,,Active,,,https://www.redfin.com/OH/Cincinnati/5483-Cleander-Dr-45238/home/78928489,Cincy MLS,1817838,N,Y,39.1164463,-84.625191
MLS Listing,,Multi-Family (2-4 Unit),1015 Purcell Ave,Cincinnati,OH,45205,199900,4,2.0,Price Hill,1868,4008,1914,5,107,,Active,,,https://www.redfin.com/OH/Cincinnati/1015-Purcell-Ave-45205/home/100969571,Cincy MLS,1817209,N,Y,39.1105628,-84.5643716
MLS Listing,,Multi-Family (5+ Unit),2334 W Clifton Ave,Cincinnati,OH,45219,450000,3,,Clifton,2680,4008,1900,5,168,,Active,,,https://www.redfin.com/OH/Cincinnati/2334-W-Clifton-Ave-45219/home/78973884,Cincy MLS,1817493,N,Y,39.1249265,-84.5195437
MLS Listing,,Multi-Family (5+ Unit),2162 Stratford Ave,Cincinnati,OH,45219,850000,6,,Clifton,5114,2265,1885,5,166,,Active,,,https://www.redfin.com/OH/Cincinnati/2162-Stratford-Ave-45219/home/78971773,Cincy MLS,1817473,N,Y,39.122657,-84.5236303
MLS Listing,,Single Family Residential,1150 Pamela Rd,Anderson Twp,OH,45255,430000,3,2.0,Anderson Twp.,2634,,1950,6,163,,Active,,,https://www.redfin.com/OH/Cincinnati/1150-Pamela-Rd-45255/home/76076979,Cincy MLS,1817534,N,Y,39.070552,-84.3202239
MLS Listing,,Single Family Residential,4425 Brazee St,Cincinnati,OH,45209,350000,2,1.5,Oakley,1186,5706,1902,6,295,,Active,,,https://www.redfin.com/OH/Cincinnati/4425-Brazee-St-45209/home/100954138,Cincy MLS,1817860,N,Y,39.155408,-84.428306
MLS Listing,,Single Family Residential,547 Milton St,Cincinnati,OH,45202,889000,3,3.0,Mt. Auburn,2232,3528,1865,6,398,,Active,,,https://www.redfin.com/OH/Cincinnati/547-Milton-St-45202/home/78818690,Cincy MLS,1817591,N,Y,39.1130304,-84.5047771
MLS Listing,,Single Family Residential,7954 Stoney Ridge Dr,Colerain Twp,OH,45247,409900,4,3.5,Colerain Twp.West,2526,8059,2010,6,162,19,Active,,,https://www.redfin.com/OH/Cincinnati/7954-Stoney-Ridge-Dr-45247/home/100944309,Cincy MLS,1817636,N,Y,39.2261406,-84.6637535
MLS Listing,,Single Family Residential,6900 Newbridge Dr,Colerain Twp,OH,45239,189900,3,2.0,White Oak,1947,6011,1964,6,98,,Active,,,https://www.redfin.com/OH/Cincinnati/6900-Newbridge-Dr-45239/home/76128343,Cincy MLS,1817418,N,Y,39.2103755,-84.5928537
MLS Listing,,Single Family Residential,3540 W Galbraith Rd,Colerain Twp,OH,45239,349900,4,2.5,Colerain Twp.West,1968,30056,2002,6,178,,Active,September-19-2024 06:00 PM,September-19-2024 08:00 PM,https://www.redfin.com/OH/Cincinnati/3540-W-Galbraith-Rd-45239/home/100998539,Cincy MLS,1817314,N,Y,39.2210964,-84.5990504
MLS Listing,,Single Family Residential,1839 Madison Rd,Cincinnati,OH,45206,1499000,5,5.0,Walnut Hills,6075,20038,1886,6,247,,Active,,,https://www.redfin.com/OH/Cincinnati/1839-Madison-Rd-45206/home/100955636,Cincy MLS,1816165,N,Y,39.1296549,-84.4706678
MLS Listing,,Single Family Residential,1399 W Galbraith Rd,North College Hill,OH,45231,235000,2,2.0,North College Hil,1517,,1923,6,155,,Active,,,https://www.redfin.com/OH/Cincinnati/1399-W-Galbraith-Rd-45231/home/78859069,Cincy MLS,1817556,N,Y,39.2167888,-84.5411992
MLS Listing,,Single Family Residential,1126 Carney St,Cincinnati,OH,45202,1950000,3,3.5,Mt. Adams,3783,2265,2006,6,515,,Active,,,https://www.redfin.com/OH/Cincinnati/1126-Carney-St-45202/home/78834429,Cincy MLS,1816450,N,Y,39.1084915,-84.4950997
MLS Listing,,Single Family Residential,214 Ridgeway Rd,Springfield Twp.,OH,45216,189900,3,1.0,Springfield Twp.,1172,8407,1951,6,162,,Active,,,https://www.redfin.com/OH/Cincinnati/214-Ridgeway-Rd-45216/home/101025771,Cincy MLS,1816991,N,Y,39.2093229,-84.4848205
MLS Listing,,Single Family Residential,8642 Prilla Ln,Anderson Twp,OH,45255,410000,4,2.5,Anderson Twp.,1728,9888,1980,6,237,,Active,,,https://www.redfin.com/OH/Cincinnati/8642-Prilla-Ln-45255/home/76115588,Cincy MLS,1817852,N,Y,39.0688772,-84.3147459
MLS Listing,,Single Family Residential,9299 Fidelis Dr,Blue Ash,OH,45242,350000,2,2.0,Blue Ash,1816,15420,1957,6,193,,Active,,,https://www.redfin.com/OH/Blue-Ash/9299-Fidelis-Dr-45242/home/76089951,Cincy MLS,1817828,N,Y,39.2259092,-84.3720552
MLS Listing,,Multi-Family (2-4 Unit),1734 Catalina Ave,Cincinnati,OH,45237,299900,2,2.0,Bond Hill,1904,7275,1935,6,158,,Active,,,https://www.redfin.com/OH/Cincinnati/1734-Catalina-Ave-45237/home/76137801,Cincy MLS,1817794,N,Y,39.1713682,-84.4665347
MLS Listing,,Single Family Residential,3629 Clarion Ave,Cincinnati,OH,45207,265000,4,1.5,Evanston,1312,5097,2002,6,202,,Active,,,https://www.redfin.com/OH/Cincinnati/3629-Clarion-Ave-45207/home/78928526,Cincy MLS,1817717,N,Y,39.1450825,-84.4707228
MLS Listing,,Condo/Co-op,979 Cedar Ridge Dr #10,Pierce Twp,OH,45245,150000,2,2.0,Pierce Twp.,993,536,1991,6,151,222,Active,,,https://www.redfin.com/OH/Cincinnati/979-Cedar-Ridge-Dr-45245/unit-10/home/184882697,Cincy MLS,1817787,N,Y,39.0417786,-84.259366
MLS Listing,,Single Family Residential,6532 Ambar Ave,Cincinnati,OH,45230,249900,4,2.0,Mt. Washington,2434,8407,1961,6,103,,Active,,,https://www.redfin.com/OH/Cincinnati/6532-Ambar-Ave-45230/home/100946229,Cincy MLS,1817806,N,Y,39.0817201,-84.3801596
MLS Listing,,Single Family Residential,6047 Tridale Ct,Cincinnati,OH,45230,289000,4,2.0,Mt. Washington,1764,19602,1971,6,164,,Active,,,https://www.redfin.com/OH/Cincinnati/6047-Tridale-Ct-45230/home/76423603,Cincy MLS,1817793,N,Y,39.0952134,-84.3956357
MLS Listing,,Single Family Residential,1915 Dale Cir,Cincinnati,OH,45237,200000,2,1.0,Bond Hill,1136,4312,1928,6,176,,Active,,,https://www.redfin.com/OH/Cincinnati/1915-Dale-Rd-45237/home/76097790,Cincy MLS,1817767,N,Y,39.176598,-84.4600229
MLS Listing,,Multi-Family (2-4 Unit),3616 Higbee St,Cincinnati,OH,45211,179900,3,2.0,Westwood,1978,5793,1928,6,91,,Active,,,https://www.redfin.com/OH/Cincinnati/3616-Higbee-St-45211/home/76100472,Cincy MLS,1817776,N,Y,39.154385,-84.604359
MLS Listing,,Single Family Residential,4524 Clearview Ave,Cincinnati,OH,45205,249000,3,2.0,Price Hill,1144,6578,1926,6,218,,Active,,,https://www.redfin.com/OH/Cincinnati/4524-Clearview-Ave-45205/home/100971964,Cincy MLS,1817763,N,Y,39.1115946,-84.592492
MLS Listing,,Single Family Residential,2847 Madison Rd,Cincinnati,OH,45209,700000,4,3.0,Oakley,2203,,1918,6,318,,Active,,,https://www.redfin.com/OH/Cincinnati/2847-Madison-Rd-45209/home/76133151,Cincy MLS,1817752,N,Y,39.1474141,-84.4382753
MLS Listing,,Single Family Residential,5381 Hagewa Dr,Blue Ash,OH,45242,949900,4,2.5,Blue Ash,2902,21344,2017,6,327,,Active,,,https://www.redfin.com/OH/Blue-Ash/5381-Hagewa-Dr-45242/home/78798207,Cincy MLS,1817768,N,Y,39.2409171,-84.372501
MLS Listing,,Single Family Residential,8263 Asbury Hills Dr,Anderson Twp,OH,45255,385000,4,2.5,Anderson Twp.,1973,12415,1970,6,195,,Active,September-22-2024 01:00 PM,September-22-2024 02:30 PM,https://www.redfin.com/OH/Cincinnati/8263-Asbury-Hills-Dr-45255/home/100990098,Cincy MLS,1817757,N,Y,39.0611032,-84.3275886
MLS Listing,,Single Family Residential,4325 St Lawrence Ave,Cincinnati,OH,45205,249900,3,2.0,Price Hill,1270,,1932,6,197,,Active,,,https://www.redfin.com/OH/Cincinnati/4325-Saint-Lawrence-Ave-45205/home/76074625,Cincy MLS,1817754,N,Y,39.1105585,-84.5922372
MLS Listing,,Single Family Residential,3371 Moonridge Dr,Green Twp,OH,45248,260000,3,1.0,Bridgetown,1480,7971,1959,6,176,,Active,,,https://www.redfin.com/OH/Cincinnati/3371-Moonridge-Dr-45248/home/76083038,Cincy MLS,1817650,N,Y,39.1486837,-84.6374785
MLS Listing,,Single Family Residential,3240 Hanna Ave,Cincinnati,OH,45211,284900,3,3.0,Westwood,,,1948,6,,,Active,,,https://www.redfin.com/OH/Cincinnati/3240-Hanna-Ave-45211/home/76075262,Cincy MLS,1817746,N,Y,39.1424827,-84.6106566
MLS Listing,,Single Family Residential,3463 Harwinton Ln,Green Twp,OH,45248,288000,3,2.0,Bridgetown,1823,11761,1957,6,158,,Active,September-21-2024 11:00 AM,September-21-2024 01:00 PM,https://www.redfin.com/OH/Cincinnati/3463-Harwinton-Ln-45248/home/76083438,Cincy MLS,1817735,N,Y,39.1522458,-84.6485255
MLS Listing,,Single Family Residential,2611 Fulbourne Dr,Colerain Twp,OH,45231,229900,4,2.5,Colerain Twp.East,1582,,1969,6,145,,Active,,,https://www.redfin.com/OH/Cincinnati/2611-Fulbourne-Dr-45231/home/76148524,Cincy MLS,1817739,N,Y,39.2608897,-84.571821
MLS Listing,,Single Family Residential,3705 Drakewood Dr Unit A,Cincinnati,OH,45209,874900,3,3.0,Oakley,2650,3241,2024,7,330,,Active,,,https://www.redfin.com/OH/Cincinnati/3705-Drakewood-Dr-45209/unit-A/home/192463266,Cincy MLS,1810428,N,Y,39.1445154,-84.4343546
MLS Listing,,Single Family Residential,4248 Williamson Pl,Cincinnati,OH,45223,350000,4,1.5,Northside,1364,5053,2000,7,257,,Active,,,https://www.redfin.com/OH/Cincinnati/4248-Williamson-Pl-45223/home/100975170,Cincy MLS,1817240,N,Y,39.1648086,-84.5368321
MLS Listing,,Single Family Residential,3610 Tamarack Ave,Cincinnati,OH,45207,284900,3,1.5,Hyde Park,1836,4356,1927,7,155,,Active,,,https://www.redfin.com/OH/Cincinnati/3610-Tamarack-Ave-45207/home/76095986,Cincy MLS,1817437,N,Y,39.1440748,-84.4540313
MLS Listing,,Single Family Residential,5707 Brandtmanor Dr,Green Twp,OH,45248,249900,3,2.5,Bridgetown,1232,6621,1958,7,203,,Active,,,https://www.redfin.com/OH/Cincinnati/5707-Brandtmanor-Dr-45248/home/76157575,Cincy MLS,1817571,N,Y,39.1473731,-84.6385783
MLS Listing,,Single Family Residential,1949 Kinney Ave,Cincinnati,OH,45207,325000,3,2.0,Evanston,1416,4225,1905,7,230,,Active,,,https://www.redfin.com/OH/Cincinnati/1949-Kinney-Ave-45207/home/76120642,Cincy MLS,1817687,N,Y,39.1357966,-84.4661056
MLS Listing,,Multi-Family (2-4 Unit),2382 Ravine St,Cincinnati,OH,45219,375000,4,2.0,Clifton,1754,2439,1912,7,214,,Active,,,https://www.redfin.com/OH/Cincinnati/2382-Ravine-St-45219/home/78980418,Cincy MLS,1817377,N,Y,39.1278668,-84.5252724
MLS Listing,,Single Family Residential,865 Academy Ave,Cincinnati,OH,45205,375000,8,3.5,Price Hill,2958,6882,1908,7,127,,Active,,,https://www.redfin.com/OH/Cincinnati/865-Academy-Ave-45205/home/76098952,Cincy MLS,1817686,N,Y,39.1090045,-84.5794098
MLS Listing,,Multi-Family (2-4 Unit),4532 Lafayette Ave,Norwood,OH,45212,399000,4,2.5,Norwood,3293,8189,1898,7,121,,Active,,,https://www.redfin.com/OH/Cincinnati/4532-Lafayette-Ave-45212/home/76166545,Cincy MLS,1817679,N,Y,39.1585861,-84.4541182
MLS Listing,,Single Family Residential,1540 Bermuda Pl,Springfield Twp.,OH,45231,244900,3,2.0,Springfield Twp.,2044,13809,1961,7,120,,Active,,,https://www.redfin.com/OH/Cincinnati/1540-Bermuda-Pl-45231/home/76110153,Cincy MLS,1817668,N,Y,39.24555,-84.5439852
MLS Listing,,Condo/Co-op,7607 Skyview Cir #303,Green Twp,OH,45248,279900,2,2.0,Green Twp.,1353,,2009,7,207,243,Active,,,https://www.redfin.com/OH/Cincinnati/7607-Skyview-Cir-45248/unit-303/home/192458914,Cincy MLS,1817471,N,Y,39.2005297,-84.6776965
MLS Listing,,Vacant Land,2823 Lafeuille Ave,Cincinnati,OH,45211,22030,,,Westwood,,11718,,7,,,Active,,,https://www.redfin.com/OH/Cincinnati/2823-Lafeuille-Ave-45211/home/76124972,Cincy MLS,1817594,N,Y,39.1367371,-84.5910118
MLS Listing,,Single Family Residential,3419 Oak View Pl,Cincinnati,OH,45209,395000,2,2.0,Oakley,1561,3833,1929,7,253,,Active,,,https://www.redfin.com/OH/Cincinnati/3419-Oak-View-Pl-45209/home/78893675,Cincy MLS,1814667,N,Y,39.1460475,-84.4210264
MLS Listing,,Single Family Residential,2763 Buckridge Dr,Miami Twp,OH,45233,699900,4,3.5,Miami Twp.,4376,13499,2020,7,160,83,Active,,,https://www.redfin.com/OH/Cincinnati/2763-Buckridge-Dr-45233/home/171967822,Cincy MLS,1817654,N,Y,39.140658,-84.698347
MLS Listing,,Multi-Family (2-4 Unit),4829 Reading Rd,Cincinnati,OH,45237,375000,8,,Bond Hill,3075,6447,1928,7,122,,Active,,,https://www.redfin.com/OH/Cincinnati/4829-Reading-Rd-45237/home/78974621,Cincy MLS,1817635,N,Y,39.1742056,-84.4675889
MLS Listing,,Vacant Land,4411 Colerain Ave,Cincinnati,OH,45223,30000,,,Northside,,4922,,7,,,Active,,,https://www.redfin.com/OH/Cincinnati/4411-Colerain-Ave-45223/home/100975131,Cincy MLS,1817620,N,Y,39.164696,-84.552873
MLS Listing,,Single Family Residential,1687 Montrose St,Cincinnati,OH,45214,49000,3,1.0,Fairmount,1234,3572,1900,7,40,,Active,,,https://www.redfin.com/OH/Cincinnati/1687-Montrose-St-45214/home/78896985,Cincy MLS,1816570,N,Y,39.126745,-84.552895
MLS Listing,,Vacant Land,5201 Globe Ave,Norwood,OH,45212,750000,,,Norwood,,3180,,7,,,Active,,,https://www.redfin.com/OH/Cincinnati/5201-Globe-Ave-45212/home/101048405,Cincy MLS,1817613,N,Y,39.1695433,-84.4562152
MLS Listing,,Single Family Residential,6532 Coffey St,Cincinnati,OH,45230,207000,3,1.0,Mt. Washington,1129,5968,1949,7,183,,Active,,,https://www.redfin.com/OH/Cincinnati/6532-Coffey-St-45230/home/100945580,Cincy MLS,1817435,N,Y,39.0970977,-84.3760886
MLS Listing,,Single Family Residential,3516 Handman Ave,Cincinnati,OH,45226,355000,2,1.5,Columbia/Tusculum,1336,4008,1895,7,266,,Active,,,https://www.redfin.com/OH/Cincinnati/3516-Handman-Ave-45226/home/78831865,Cincy MLS,1817606,N,Y,39.1176176,-84.4367402
MLS Listing,,Multi-Family (2-4 Unit),433 Hopkins St,Cincinnati,OH,45203,899900,9,6.0,City,,2919,1880,7,,,Active,,,https://www.redfin.com/OH/Cincinnati/433-Hopkins-St-45203/home/191413427,Cincy MLS,1817307,N,Y,39.108046,-84.5227015
MLS Listing,,Vacant Land,2711 Lawndale Ave,Cincinnati,OH,45212,35400,,,Pleasant Ridge,,6882,,7,,,Active,,,https://www.redfin.com/OH/Cincinnati/2711-Lawndale-Ave-45212/home/100964592,Cincy MLS,1817580,N,Y,39.1764548,-84.4387218
MLS Listing,,Single Family Residential,3576 Vista Ave,Cincinnati,OH,45208,379000,2,2.0,Hyde Park,1590,5401,1925,7,238,,Active,,,https://www.redfin.com/OH/Cincinnati/3576-Vista-Ave-45208/home/78878639,Cincy MLS,1816866,N,Y,39.1435396,-84.4563704
MLS Listing,,Condo/Co-op,1857 Sunwalk Dr,Cincinnati,OH,45237,190000,2,2.0,Bond Hill,1154,15455,2007,8,165,210,Active,,,https://www.redfin.com/OH/Cincinnati/1857-Sunwalk-Dr-45237/home/192324275,Cincy MLS,1816078,N,Y,39.1846742,-84.4599999
MLS Listing,,Multi-Family (2-4 Unit),2855 Montana Ave,Cincinnati,OH,45211,285000,3,4.0,Westwood,3572,7841,1936,8,80,,Active,,,https://www.redfin.com/OH/Cincinnati/2855-Montana-Ave-45211/home/78971918,Cincy MLS,1817548,N,Y,39.1487631,-84.5921105
MLS Listing,,Single Family Residential,9157 Tag Dr,Springfield Twp.,OH,45321,215000,3,1.5,Springfield Twp.,1260,15028,1963,8,171,,Active,,,https://www.redfin.com/OH/Eldorado/9157-Tag-Dr-45321/home/101028549,Cincy MLS,1817186,N,Y,39.236687,-84.561385
MLS Listing,,Single Family Residential,3322 Spokane Ave,Cincinnati,OH,45207,385000,5,3.0,Evanston,3004,5576,1880,8,128,,Active,,,https://www.redfin.com/OH/Cincinnati/3322-Spokane-Ave-45207/home/76134389,Cincy MLS,1817297,N,Y,39.1380649,-84.4705411
MLS Listing,,Single Family Residential,4466 Hall St,Union Twp,OH,45244,240000,3,1.0,Union Twp.,1534,19942,1957,8,156,,Active,,,https://www.redfin.com/OH/Cincinnati/4466-Hall-St-45244/home/71384093,Cincy MLS,1817448,N,Y,39.1007068,-84.301755
MLS Listing,,Single Family Residential,1059 Roxie Ln,Cincinnati,OH,45224,319900,4,3.5,College Hill,1739,8102,1958,8,184,,Active,,,https://www.redfin.com/OH/Cincinnati/1059-Roxie-Ln-45224/home/76144054,Cincy MLS,1817406,N,Y,39.2060152,-84.5304308
MLS Listing,,Single Family Residential,3523 Vinecrest Pl,Cincinnati,OH,45220,65000,1,1.0,Clifton,1285,9453,1911,8,51,,Active,,,https://www.redfin.com/OH/Cincinnati/3523-Vinecrest-Pl-45220/home/76100335,Cincy MLS,1817200,N,Y,39.1465802,-84.5138829
MLS Listing,,Single Family Residential,1158 Coronado Ave,Cincinnati,OH,45238,175000,3,1.5,Price Hill,999,7318,1925,8,175,,Active,,,https://www.redfin.com/OH/Cincinnati/1158-Coronado-Ave-45238/home/100973171,Cincy MLS,1817445,N,Y,39.1160415,-84.6007504
MLS Listing,,Single Family Residential,8191 Riovista Dr,Anderson Twp,OH,45255,320000,3,3.0,Anderson Twp.,1285,7797,1966,8,249,,Active,,,https://www.redfin.com/OH/Cincinnati/8191-Riovista-Dr-45255/home/100989151,Cincy MLS,1817428,N,Y,39.080772,-84.3264278
MLS Listing,,Single Family Residential,3290 Hardisty Ave,Cincinnati,OH,45208,2099000,4,5.0,Mt. Lookout,5835,132292,1925,9,360,,Active,,,https://www.redfin.com/OH/Cincinnati/3290-Hardisty-Ave-45208/home/107913484,Cincy MLS,1816350,N,Y,39.132413,-84.42351
MLS Listing,,Single Family Residential,3629 Russell Ave,Cincinnati,OH,45208,1325000,4,4.5,Linwood,3562,5545,2016,9,372,,Active,,,https://www.redfin.com/OH/Cincinnati/3629-Russell-Ave-45208/home/110110155,Cincy MLS,1816605,N,Y,39.1270597,-84.414622
MLS Listing,,Single Family Residential,6585 Daly Rd,Cincinnati,OH,45224,169900,3,1.5,College Hill,1088,,1959,9,156,,Active,,,https://www.redfin.com/OH/Cincinnati/6585-Daly-Rd-45224/home/78903267,Cincy MLS,1817372,N,Y,39.2095703,-84.5319871
MLS Listing,,Townhouse,10555 Montgomery Rd #83,Montgomery,OH,45242,475000,2,3.0,Montgomery,1649,,1989,9,288,361,Active,,,https://www.redfin.com/OH/Montgomery/10555-Montgomery-Rd-45242/unit-83/home/100939087,Cincy MLS,1817425,N,Y,39.2538211,-84.3458752
MLS Listing,,Townhouse,2444 Elderberry Ct,Cincinnati,OH,45239,215000,2,2.5,Mt. Airy,1444,29860,2006,9,149,270,Active,,,https://www.redfin.com/OH/Cincinnati/2444-Elderberry-Ct-45239/home/185720064,Cincy MLS,1817399,N,Y,39.1924993,-84.5659798
MLS Listing,,Single Family Residential,242 Elm Ave,Wyoming,OH,45215,1180000,4,4.5,Wyoming,4198,11979,1971,10,281,,Active,,,https://www.redfin.com/OH/Wyoming/242-Elm-Ave-45215/home/108046302,Cincy MLS,1817305,N,Y,39.222721,-84.4701006
MLS Listing,,Single Family Residential,1532 Southridge Ln,North College Hill,OH,45231,219900,3,1.0,North College Hil,1295,,1950,10,170,,Active,,,https://www.redfin.com/OH/Cincinnati/1532-Southridge-Ln-45231/home/76087243,Cincy MLS,1817402,N,Y,39.2223458,-84.5474312
MLS Listing,,Single Family Residential,8425 Mayfair St,Springfield Twp.,OH,45216,249000,3,2.0,Springfield Twp.,1413,4704,1948,10,176,,Active,,,https://www.redfin.com/OH/Cincinnati/8425-Mayfair-St-45216/home/78785942,Cincy MLS,1817400,N,Y,39.2171002,-84.4794796
MLS Listing,,Single Family Residential,6364 Savannah Ave,Cincinnati,OH,45224,155000,2,1.0,College Hill,1160,5968,1925,10,134,,Active,,,https://www.redfin.com/OH/Cincinnati/6364-Savannah-Ave-45224/home/78381757,Cincy MLS,1817396,N,Y,39.2087565,-84.553618
MLS Listing,,Single Family Residential,8353 Royal Heights Dr,Colerain Twp,OH,45239,195000,3,3.0,Groesbeck,1032,,1951,10,189,,Active,,,https://www.redfin.com/OH/Cincinnati/8353-Royal-Heights-Dr-45239/home/100996577,Cincy MLS,1817304,N,Y,39.2221419,-84.5782884
MLS Listing,,Multi-Family (2-4 Unit),2917 Madison Rd,Cincinnati,OH,45209,625000,5,3.0,Oakley,3105,11413,1920,10,201,,Active,,,https://www.redfin.com/OH/Cincinnati/2917-Madison-Rd-45209/home/100951874,Cincy MLS,1816987,N,Y,39.1487002,-84.4362221
MLS Listing,,Single Family Residential,4503 Hutchinson Rd,Green Twp,OH,45248,570000,3,3.0,Green Twp.,1852,199461,1978,11,308,,Active,,,https://www.redfin.com/OH/Cincinnati/4503-Hutchinson-Rd-45248/home/101017703,Cincy MLS,1816897,N,Y,39.1741131,-84.6468651
MLS Listing,,Single Family Residential,3113 New Year Dr,Colerain Twp,OH,45251,269900,3,2.0,Colerain Twp.East,1476,,1971,11,183,,Active,,,https://www.redfin.com/OH/Cincinnati/3113-New-Year-Dr-45251/home/100995885,Cincy MLS,1817344,N,Y,39.2623437,-84.5818303
MLS Listing,,Single Family Residential,1849 Cleveland Ave,Norwood,OH,45212,249500,3,1.5,Norwood,1208,2701,1912,11,207,,Active,,,https://www.redfin.com/OH/Cincinnati/1849-Cleveland-Ave-45212/home/101049641,Cincy MLS,1817219,N,Y,39.1600282,-84.4629793
MLS Listing,,Single Family Residential,9174 Gila Dr,Colerain Twp,OH,45251,265000,3,1.5,Colerain Twp.East,1484,8756,1972,11,179,,Active,,,https://www.redfin.com/OH/Cincinnati/9174-Gila-Dr-45251/home/78808614,Cincy MLS,1817361,N,Y,39.2377145,-84.5790234
MLS Listing,,Single Family Residential,4636 Cooper Rd,Blue Ash,OH,45242,432000,2,2.0,Blue Ash,2360,14288,1915,11,183,,Active,,,https://www.redfin.com/OH/Cincinnati/4636-Cooper-Rd-45242/home/101042133,Cincy MLS,1817364,N,Y,39.2325576,-84.3801374
MLS Listing,,Condo/Co-op,13 W Fifteenth St Unit A2,Cincinnati,OH,45202,260000,2,1.0,City,759,5937,1900,11,343,276,Active,,,https://www.redfin.com/OH/Cincinnati/13-W-15th-St-45202/unit-A2/home/170683549,Cincy MLS,1817357,N,Y,39.1115423,-84.5162179
MLS Listing,,Single Family Residential,3504 Meadow Ave,Cheviot,OH,45211,165000,2,1.0,Cheviot,992,6273,1919,11,166,,Active,,,https://www.redfin.com/OH/Cincinnati/3504-Meadow-Ave-45211/home/78761290,Cincy MLS,1817341,N,Y,39.1500684,-84.6084602
MLS Listing,,Single Family Residential,10619 Stargate Ln,Springfield Twp.,OH,45240,323900,3,2.0,Springfield Twp.,2408,18426,1984,11,135,,Active,,,https://www.redfin.com/OH/Cincinnati/10619-Stargate-Ln-45240/home/78769919,Cincy MLS,1817198,N,Y,39.2660506,-84.5419999
MLS Listing,,Single Family Residential,8460 Curzon Ave,Cincinnati,OH,45216,179999,3,1.5,Hartwell,1651,15072,1905,11,109,,Active,,,https://www.redfin.com/OH/Cincinnati/8460-Curzon-Ave-45216/home/76144060,Cincy MLS,1817328,N,Y,39.217358,-84.46305
MLS Listing,,Multi-Family (2-4 Unit),6014 Mcgregor Ave,Elmwood Place,OH,45216,185000,1,4.0,Elmwood Place,2260,4530,1900,11,82,,Active,,,https://www.redfin.com/OH/Cincinnati/6014-McGregor-Ave-45216/home/76091734,Cincy MLS,1817318,N,Y,39.1883641,-84.4912436
MLS Listing,,Single Family Residential,5613 Alvina Ave,Norwood,OH,45212,215000,2,1.0,Norwood,980,4008,1926,11,219,,Active,,,https://www.redfin.com/OH/Cincinnati/5613-Alvina-Ave-45212/home/71384686,Cincy MLS,1817118,N,Y,39.1757579,-84.4488541
MLS Listing,,Condo/Co-op,307 Carriage Circle Dr,Springdale,OH,45246,195000,2,2.0,Springdale,1279,44880,1981,11,152,325,Active,,,https://www.redfin.com/OH/Cincinnati/307-Carriage-Circle-Dr-45246/home/185716738,Cincy MLS,1817279,N,Y,39.2849837,-84.4818332
MLS Listing,,Single Family Residential,8463 Wicklow Ave,Sycamore Twp,OH,45236,280000,3,1.5,Dillonvale,1417,7710,1948,11,198,,Active,,,https://www.redfin.com/OH/Cincinnati/8463-Wicklow-Ave-45236/home/101037652,Cincy MLS,1817197,N,Y,39.2140937,-84.404931
MLS Listing,,Single Family Residential,1819 Lawn Ave,Cincinnati,OH,45237,134900,2,1.0,Bond Hill,998,3615,1931,11,135,,Active,,,https://www.redfin.com/OH/Cincinnati/1819-Lawn-Ave-45237/home/76122776,Cincy MLS,1817301,N,Y,39.1701518,-84.4642787
MLS Listing,,Multi-Family (2-4 Unit),1227 Texas Ave,Cincinnati,OH,45205,175000,5,2.0,Price Hill,2049,5140,1900,11,85,,Active,,,https://www.redfin.com/OH/Cincinnati/1227-Texas-Ave-45205/home/78980295,Cincy MLS,1817257,N,Y,39.1149451,-84.585753
MLS Listing,,Single Family Residential,3868 Millsbrae Ave,Cincinnati,OH,45209,575000,4,1.5,Oakley,2177,7100,1911,11,264,,Active,,,https://www.redfin.com/OH/Cincinnati/3868-Millsbrae-Ave-45209/home/100951811,Cincy MLS,1816395,N,Y,39.1502475,-84.4392013
MLS Listing,,Single Family Residential,2621 Meadowmar Ln,Cincinnati,OH,45230,324900,3,2.0,Mt. Washington,2258,9540,1963,11,144,,Active,,,https://www.redfin.com/OH/Cincinnati/2621-Meadowmar-Ln-45230/home/76070548,Cincy MLS,1817286,N,Y,39.1038318,-84.383096
MLS Listing,,Multi-Family (2-4 Unit),504 E Twelfth St,Cincinnati,OH,45202,749000,5,4.0,City,3348,1873,1865,11,224,,Active,,,https://www.redfin.com/OH/Cincinnati/504-E-12th-St-45202/home/78978985,Cincy MLS,1816984,N,Y,39.1101117,-84.5065748
MLS Listing,,Multi-Family (2-4 Unit),810 Pedretti Ave,Cincinnati,OH,45238,155000,4,2.0,Price Hill,2215,7449,1906,11,70,,Active,,,https://www.redfin.com/OH/Cincinnati/810-Pedretti-Ave-45238/home/76074306,Cincy MLS,1817294,N,Y,39.1098438,-84.5985419
MLS Listing,,Condo/Co-op,5556 Sky Bridge Ct Unit 17-30,Green Twp,OH,45248,295000,2,2.0,Green Twp.,1934,37392,2006,11,153,325,Active,,,https://www.redfin.com/OH/Cincinnati/5556-Sky-Bridge-Ct-45248/unit-17-30/home/192394097,Cincy MLS,1817278,N,Y,39.199637,-84.677187
MLS Listing,,Single Family Residential,8149 Woodbine Ave,Cincinnati,OH,45216,299000,4,2.5,Hartwell,2016,19733,1894,11,148,,Active,,,https://www.redfin.com/OH/Cincinnati/8149-Woodbine-Ave-45216/home/100987966,Cincy MLS,1817281,N,Y,39.2079015,-84.4702703
MLS Listing,,Single Family Residential,1999 Sundale Ave,North College Hill,OH,45225,,4,2.0,North College Hil,1379,35371,1943,11,,,Active,,,https://www.redfin.com/OH/Cincinnati/1999-Sundale-Ave-45239/home/76087555,Cincy MLS,1817282,N,Y,39.2142813,-84.5606471
MLS Listing,,Single Family Residential,1748 Hanfield St,Cincinnati,OH,45223,319000,3,2.0,Northside,1600,2526,1914,11,199,,Active,,,https://www.redfin.com/OH/Cincinnati/1748-Hanfield-St-45223/home/78866702,Cincy MLS,1817195,N,Y,39.1631188,-84.5463979
MLS Listing,,Single Family Residential,1356 Plazaview Ct,Anderson Twp,OH,45255,425000,4,3.0,Anderson Twp.,1928,9714,1880,11,220,,Active,,,https://www.redfin.com/OH/Cincinnati/1356-Plazaview-Ct-45255/home/100991153,Cincy MLS,1817002,N,Y,39.0763517,-84.3460496
MLS Listing,,Condo/Co-op,395 Oregon St Unit B,Cincinnati,OH,45202,229900,1,1.0,Mt. Adams,636,2243,1870,11,361,144,Active,,,https://www.redfin.com/OH/Cincinnati/395-Oregon-St-45202/unit-B/home/100939463,Cincy MLS,1817233,N,Y,39.1059397,-84.5007202
MLS Listing,,Single Family Residential,3324 March Ter,Colerain Twp,OH,45239,255000,3,2.0,White Oak,1225,5968,1959,11,208,,Active,,,https://www.redfin.com/OH/Cincinnati/3324-March-Ter-45239/home/100997857,Cincy MLS,1817185,N,Y,39.2097596,-84.5921894
MLS Listing,,Townhouse,5025 Gareth Ln,Sharonville,OH,45241,334900,3,3.0,Sharonville,2155,,1991,11,155,352,Active,,,https://www.redfin.com/OH/Cincinnati/5025-Gareth-Ln-45241/home/78789911,Cincy MLS,1817014,N,Y,39.2885867,-84.3830028
MLS Listing,,Single Family Residential,4123 Paxton Woods Dr,Cincinnati,OH,45209,419900,3,2.0,Oakley,2128,4269,1941,11,197,,Active,,,https://www.redfin.com/OH/Cincinnati/4123-Paxton-Woods-Dr-45209/home/91254728,Cincy MLS,1817211,N,Y,39.1522857,-84.4173498
MLS Listing,,Single Family Residential,1427 Stanley Rd,Anderson Twp,OH,45230,799000,3,3.0,Anderson Twp.,2967,182081,,11,269,,Active,,,https://www.redfin.com/OH/Cincinnati/1427-Stanley-Rd-45230/home/78767678,Cincy MLS,1817214,N,Y,39.079396,-84.3641654
MLS Listing,,Single Family Residential,1120 Race St,Cincinnati,OH,45202,995000,3,3.5,City,2484,1647,1885,11,401,,Active,,,https://www.redfin.com/OH/Cincinnati/1120-Race-St-45202/home/78824398,Cincy MLS,1817171,N,Y,39.1077652,-84.516095
MLS Listing,,Single Family Residential,6839 Buckingham Pl,Columbia Twp,OH,45227,245000,3,1.0,Columbia Twp.,1451,4312,1930,11,169,,Active,,,https://www.redfin.com/OH/Cincinnati/6839-Buckingham-Pl-45227/home/78783921,Cincy MLS,1817227,N,Y,39.1553117,-84.3784564
MLS Listing,,Single Family Residential,5179 Batavia Rd,Anderson Twp,OH,45244,180000,3,1.5,Anderson Twp.,1377,31755,1955,11,131,,Active,,,https://www.redfin.com/OH/Cincinnati/5179-Batavia-Rd-45244/home/78898734,Cincy MLS,1817222,N,Y,39.112539,-84.3959678
MLS Listing,,Single Family Residential,10288 Deerhollow Ln,Colerain Twp,OH,45252,634900,4,4.5,Colerain Twp.West,4513,85073,1992,12,141,,Active,,,https://www.redfin.com/OH/Cincinnati/10288-Deerhollow-Ln-45252/home/76104474,Cincy MLS,1816962,N,Y,39.2641174,-84.6165287
MLS Listing,,Single Family Residential,10587 Lemarie Dr,Sharonville,OH,45241,244900,3,1.0,Sharonville,1345,7187,1960,12,182,,Active,,,https://www.redfin.com/OH/Cincinnati/10587-Lemarie-Dr-45241/home/78777230,Cincy MLS,1816695,N,Y,39.2577711,-84.3956054
MLS Listing,,Condo/Co-op,3698 Ashworth Dr Unit C,Cincinnati,OH,45208,349900,2,2.0,Hyde Park,1361,131734,1962,12,257,375,Active,,,https://www.redfin.com/OH/Cincinnati/3698-Ashworth-Dr-45208/unit-C/home/172416888,Cincy MLS,1816821,N,Y,39.1435283,-84.4107418
MLS Listing,,Single Family Residential,2901 Riverside Dr,Cincinnati,OH,45226,899000,3,3.5,East End,3557,4835,2008,12,253,,Active,,,https://www.redfin.com/OH/Cincinnati/2901-Riverside-Dr-45226/home/78835377,Cincy MLS,1816825,N,Y,39.1213645,-84.4504802
MLS Listing,,Single Family Residential,5775 Drake Rd,Indian Hill,OH,45243,5495000,6,9.5,Indian Hill,15041,139392,2004,12,365,,Active,,,https://www.redfin.com/OH/Cincinnati/5775-Drake-Rd-45243/home/78777969,Cincy MLS,1816575,N,Y,39.1712771,-84.3471781
MLS Listing,,Single Family Residential,2418 Rainbow Ct,Cincinnati,OH,45230,299900,3,2.0,Mt. Washington,1107,6795,1956,12,271,,Active,,,https://www.redfin.com/OH/Cincinnati/2418-Rainbow-Ct-45230/home/100945491,Cincy MLS,1816760,N,Y,39.0985975,-84.3743032
MLS Listing,,Single Family Residential,3661 Middleton Ave,Cincinnati,OH,45220,625000,5,4.0,Clifton,2461,5576,1918,12,254,,Active,,,https://www.redfin.com/OH/Cincinnati/3661-Middleton-Ave-45220/home/100982290,Cincy MLS,1816981,N,Y,39.1498279,-84.5221524
MLS Listing,,Condo/Co-op,2324 Park Ave #36,Cincinnati,OH,45206,339900,2,2.0,Walnut Hills,1611,42641,1928,12,211,634,Active,,,https://www.redfin.com/OH/Cincinnati/2324-Park-Ave-45206/unit-36/home/100942253,Cincy MLS,1816955,N,Y,39.1236868,-84.4862289
MLS Listing,,Single Family Residential,676 Delta Ave,Cincinnati,OH,45226,319000,2,1.5,Mt. Lookout,1119,6447,1924,12,285,,Active,,,https://www.redfin.com/OH/Cincinnati/676-Delta-Ave-45226/home/100953347,Cincy MLS,1816832,N,Y,39.1250717,-84.4337228
MLS Listing,,Condo/Co-op,417 Vine St #202,Cincinnati,OH,45202,635000,3,2.0,City,1617,7479,1875,12,393,536,Active,,,https://www.redfin.com/OH/Cincinnati/417-Vine-St-45202/unit-202/home/78820071,Cincy MLS,1816053,N,Y,39.1004459,-84.5131385
MLS Listing,,Single Family Residential,9338 Erin Dr,Colerain Twp,OH,45251,350000,4,2.5,Colerain Twp.West,2250,13460,1984,12,156,,Active,,,https://www.redfin.com/OH/Cincinnati/9338-Erin-Dr-45251/home/78789439,Cincy MLS,1816711,N,Y,39.2386537,-84.5997771
MLS Listing,,Single Family Residential,2590 Maple Tree Ct,Reading,OH,45236,309900,3,1.5,Reading,1568,9017,1979,12,198,,Active,,,https://www.redfin.com/OH/Cincinnati/2590-Maple-Tree-Ct-45236/home/78865205,Cincy MLS,1816452,N,Y,39.2265201,-84.4137416
MLS Listing,,Condo/Co-op,8408 Ridge Pointe Ct #13,Reading,OH,45237,215000,3,2.0,Reading,1478,,1997,12,145,441,Active,,,https://www.redfin.com/OH/Cincinnati/8408-Ridge-Pointe-Ct-45237/unit-13/home/78908595,Cincy MLS,1816923,N,Y,39.211063,-84.433096
MLS Listing,,Single Family Residential,2358 Chickasaw St,Cincinnati,OH,45219,204900,3,1.0,Clifton,1344,3180,1918,12,152,,Active,,,https://www.redfin.com/OH/Cincinnati/2358-Chickasaw-St-45219/home/100960798,Cincy MLS,1817035,N,Y,39.1269279,-84.5219052
MLS Listing,,Single Family Residential,2174 Riverside Dr,Cincinnati,OH,45202,300000,3,3.5,East End,2500,5097,1999,12,120,200,Active,,,https://www.redfin.com/OH/Cincinnati/2174-Riverside-Dr-45202/home/78829505,Cincy MLS,1817210,N,Y,39.1230562,-84.47232
MLS Listing,,Single Family Residential,7525 Brill Rd,Indian Hill,OH,45243,1670000,5,4.5,Indian Hill,5183,62988,1949,12,322,,Active,September-21-2024 01:30 PM,September-21-2024 03:00 PM,https://www.redfin.com/OH/Cincinnati/7525-Brill-Rd-45243/home/63717107,Cincy MLS,1817151,N,Y,39.1675059,-84.3686552
MLS Listing,,Single Family Residential,5905 Drake Rd,Indian Hill,OH,45243,1875000,4,5.5,Indian Hill,6623,146013,1951,12,283,,Active,,,https://www.redfin.com/OH/Cincinnati/5905-Drake-Rd-45243/home/78739065,Cincy MLS,1817103,N,Y,39.1734148,-84.3471833
MLS Listing,,Vacant Land,8391 Dimmick Rd,West Chester,OH,45241,149900,,,East West Chester,,23522,,12,,,Active,,,https://www.redfin.com/OH/West-Chester/8391-Dimmick-Rd-45241/home/163172526,Cincy MLS,1817203,N,Y,39.306744,-84.352282
MLS Listing,,Single Family Residential,4051 Hubble Rd,Green Twp,OH,45247,179900,3,2.0,White Oak,1670,13329,1949,12,108,,Active,,,https://www.redfin.com/OH/Cincinnati/4051-Hubble-Rd-45247/home/76107273,Cincy MLS,1816994,N,Y,39.2059585,-84.6101308
MLS Listing,,Single Family Residential,6066 Blue Rock Rd,Colerain Twp,OH,45247,374900,3,2.0,Colerain Twp.West,2419,194713,1952,12,155,,Active,,,https://www.redfin.com/OH/Cincinnati/6066-Blue-Rock-Rd-45247/home/101001598,Cincy MLS,1817193,N,Y,39.2394453,-84.6430548
MLS Listing,,Single Family Residential,8201 Whispering Valley Dr,Colerain Twp,OH,45247,439900,2,2.5,White Oak,2238,8725,2016,12,197,67,Active,,,https://www.redfin.com/OH/Cincinnati/8201-Whispering-Valley-Dr-45247/home/76117500,Cincy MLS,1817188,N,Y,39.2215793,-84.6112391
MLS Listing,,Single Family Residential,7687 Eagle Creek Rd,Colerain Twp,OH,45247,299900,2,2.0,Colerain Twp.West,2427,35196,1958,12,124,,Active,,,https://www.redfin.com/OH/Cincinnati/7687-Eagle-Creek-Rd-45247/home/192377951,Cincy MLS,1817183,N,Y,39.2279321,-84.6848279
MLS Listing,,Single Family Residential,2150 Alpine Pl,Cincinnati,OH,45206,885000,4,2.0,Walnut Hills,6418,9060,1921,12,138,,Active,,,https://www.redfin.com/OH/Cincinnati/2150-Alpine-Pl-45206/home/192377841,Cincy MLS,1816846,N,Y,39.1196868,-84.4891513
MLS Listing,,Single Family Residential,1401 Cedar Ave,Cincinnati,OH,45224,265000,3,1.5,College Hill,1779,6534,1908,12,149,,Active,,,https://www.redfin.com/OH/Cincinnati/1401-Cedar-Ave-45224/home/100986387,Cincy MLS,1817192,N,Y,39.1981328,-84.5422748
MLS Listing,,Single Family Residential,11042 Oak Ave,Blue Ash,OH,45242,674900,4,2.5,Blue Ash,,8098,2024,12,,,Active,,,https://www.redfin.com/OH/Blue-Ash/11042-Oak-Ave-45242/home/175246389,Cincy MLS,1816152,N,Y,39.264933,-84.366573
MLS Listing,,Single Family Residential,1941 Chaucer Dr,Sycamore Twp,OH,45237,149000,2,1.0,Sycamore Twp.,675,61515,1951,12,221,210,Active,,,https://www.redfin.com/OH/Cincinnati/1941-Chaucer-Dr-45237/home/174302138,Cincy MLS,1816904,N,Y,39.2101285,-84.4511731
MLS Listing,,Single Family Residential,8670 Monsanto Dr,Springfield Twp.,OH,45231,175000,3,1.0,Finneytown,1110,7449,1951,12,158,,Active,,,https://www.redfin.com/OH/Cincinnati/8670-Monsanto-Dr-45231/home/78786562,Cincy MLS,1817150,N,Y,39.2244309,-84.5287363
MLS Listing,,Single Family Residential,57 Sheehan Ave,Cincinnati,OH,45216,175000,1,1.0,Hartwell,696,7013,1905,12,251,,Active,,,https://www.redfin.com/OH/Cincinnati/57-Sheehan-Ave-45216/home/78937224,Cincy MLS,1817141,N,Y,39.2152985,-84.4711691
MLS Listing,,Single Family Residential,724 Winding Way,Union Twp,OH,45245,200000,3,1.0,Union Twp.,1329,12023,1971,12,150,,Active,,,https://www.redfin.com/OH/Cincinnati/724-Winding-Way-45245/home/71386419,Cincy MLS,1817116,N,Y,39.0609196,-84.2882822
MLS Listing,,Single Family Residential,4135 Langland St,Cincinnati,OH,45223,330000,3,1.5,Northside,1568,2744,1895,12,210,,Active,,,https://www.redfin.com/OH/Cincinnati/4135-Langland-St-45223/home/100975261,Cincy MLS,1816765,N,Y,39.162018,-84.5385274
MLS Listing,,Single Family Residential,4148 School Section Rd,Green Twp,OH,45211,284500,4,2.5,Green Twp.,2500,8712,1963,12,114,,Active,,,https://www.redfin.com/OH/Cincinnati/4148-School-Section-Rd-45211/home/76082692,Cincy MLS,1817085,N,Y,39.1660322,-84.6202534
MLS Listing,,Single Family Residential,35 Kessler Pl,Cincinnati,OH,45217,166000,2,1.0,Avondale,1536,15725,1873,12,108,,Active,,,https://www.redfin.com/OH/Cincinnati/35-Kessler-Pl-45217/home/76100131,Cincy MLS,1816819,N,Y,39.162903,-84.505432
MLS Listing,,Single Family Residential,1102 Eversole Rd,Anderson Twp,OH,45230,499900,4,3.5,Anderson Twp.,3246,45694,1964,12,154,,Active,,,https://www.redfin.com/OH/Cincinnati/1102-Eversole-Rd-45230/home/100994073,Cincy MLS,1810250,N,Y,39.0732826,-84.3986416
MLS Listing,,Single Family Residential,6464 Mchugh Pl,Cincinnati,OH,45213,280000,3,2.0,Kennedy Hts.,1056,7579,1925,12,265,,Active,,,https://www.redfin.com/OH/Cincinnati/6464-McHugh-Pl-45213/home/78932583,Cincy MLS,1816881,N,Y,39.1887706,-84.4118293
MLS Listing,,Single Family Residential,2228 Victor St,Cincinnati,OH,45219,199900,2,1.0,Clifton,1094,2134,1924,12,183,,Active,,,https://www.redfin.com/OH/Cincinnati/2228-Victor-St-45219/home/100959830,Cincy MLS,1817100,N,Y,39.1240418,-84.5237784
MLS Listing,,Single Family Residential,4413 Orchard Ln,Deer Park,OH,45236,309000,3,1.0,Deer Park,1444,7492,1941,12,214,,Active,September-21-2024 01:00 PM,September-21-2024 03:00 PM,https://www.redfin.com/OH/Cincinnati/4413-Orchard-Ln-45236/home/76147859,Cincy MLS,1817093,N,Y,39.200504,-84.3885384
MLS Listing,,Single Family Residential,8442 Springwater Ct,Colerain Twp,OH,45247,429900,3,3.5,Colerain Twp.East,1896,14375,1991,12,227,47,Active,,,https://www.redfin.com/OH/Cincinnati/8442-Springwater-Ct-45247/home/76104227,Cincy MLS,1817089,N,Y,39.2271604,-84.6299875
MLS Listing,,Single Family Residential,1162 Alwil Dr,Reading,OH,45215,154900,3,1.0,Reading,1036,6229,1954,12,150,,Active,,,https://www.redfin.com/OH/Cincinnati/1162-Alwil-Dr-45215/home/101051401,Cincy MLS,1817080,N,Y,39.220346,-84.4237511
MLS Listing,,Single Family Residential,3554 Vista Ave,Cincinnati,OH,45208,270000,2,1.0,Hyde Park,1056,6795,1924,12,256,,Active,September-21-2024 01:00 PM,September-21-2024 03:00 PM,https://www.redfin.com/OH/Cincinnati/3554-Vista-Ave-45208/home/100952504,Cincy MLS,1816604,N,Y,39.1423484,-84.4564891
MLS Listing,,Multi-Family (2-4 Unit),3572 Van Antwerp Pl,Cincinnati,OH,45229,184999,7,,Avondale,3614,8930,1910,12,51,,Active,,,https://www.redfin.com/OH/Cincinnati/3572-Van-Antwerp-Pl-45229/home/76168263,Cincy MLS,1817074,N,Y,39.1473672,-84.4934528
MLS Listing,,Single Family Residential,1927 Lady Ellen Dr,Anderson Twp,OH,45230,364900,4,2.5,Anderson Twp.,1728,12197,1977,12,211,,Active,,,https://www.redfin.com/OH/Cincinnati/1927-Lady-Ellen-Dr-45230/home/76102460,Cincy MLS,1817038,N,Y,39.0871078,-84.3651101
MLS Listing,,Vacant Land,4205 Mad Anthony St,Cincinnati,OH,45223,68500,,,Northside,,2831,,12,,,Active,,,https://www.redfin.com/OH/Cincinnati/4205-Mad-Anthony-St-45223/home/100984437,Cincy MLS,1816919,N,Y,39.1632982,-84.5357105
MLS Listing,,Multi-Family (2-4 Unit),297 Bodman Ave,Cincinnati,OH,45219,350000,4,3.0,Mt. Auburn,2532,4443,1914,12,138,,Active,,,https://www.redfin.com/OH/Cincinnati/297-Bodmann-Ave-45219/home/76121432,Cincy MLS,1817068,N,Y,39.1182318,-84.5049926
MLS Listing,,Single Family Residential,3035 Feltz Ave,Cincinnati,OH,45211,310000,4,3.0,Westwood,2146,6142,1915,13,144,,Active,,,https://www.redfin.com/OH/Cincinnati/3035-Feltz-Ave-45211/home/76141744,Cincy MLS,1815688,N,Y,39.154711,-84.6008562
MLS Listing,,Single Family Residential,3831 Jessup Rd,Green Twp,OH,45247,235000,3,3.0,White Oak,1649,14723,1940,13,143,,Active,,,https://www.redfin.com/OH/Cincinnati/3831-Jessup-Rd-45247/home/101014540,Cincy MLS,1816838,N,Y,39.2006598,-84.6081074
MLS Listing,,Single Family Residential,7739 Newbedford Ave,Cincinnati,OH,45237,249900,5,2.5,Roselawn,1502,5271,1955,13,166,,Active,,,https://www.redfin.com/OH/Cincinnati/7739-Newbedford-Ave-45237/home/78823556,Cincy MLS,1817009,N,Y,39.203699,-84.4580999
MLS Listing,,Single Family Residential,5277 Adena Trl,Cincinnati,OH,45230,475000,4,3.0,Mt. Washington,3048,14288,1980,13,156,,Active,,,https://www.redfin.com/OH/Cincinnati/5277-Adena-Trl-45230/home/100947089,Cincy MLS,1816461,N,Y,39.0871758,-84.4073119
MLS Listing,,Single Family Residential,3733 Broadview Dr,Cincinnati,OH,45208,624500,3,2.5,Hyde Park,1694,9148,1926,13,369,,Active,,,https://www.redfin.com/OH/Cincinnati/3733-Broadview-Dr-45208/home/76132554,Cincy MLS,1816278,N,Y,39.1497842,-84.4105155
MLS Listing,,Single Family Residential,6231 Berkinshaw Dr,Anderson Twp,OH,45230,474900,3,2.5,Anderson Twp.,1414,15290,1955,13,336,,Active,,,https://www.redfin.com/OH/Cincinnati/6231-Berkinshaw-Dr-45230/home/76077891,Cincy MLS,1816476,N,Y,39.0709198,-84.3890408
MLS Listing,,Vacant Land,3158 West Fork Rd,Green Twp,OH,45211,1250000,,,Monfort Hts.,,466092,,13,,,Active,,,https://www.redfin.com/OH/Cincinnati/3158-W-Fork-Rd-45211/home/76082616,Cincy MLS,1817049,N,Y,39.184646,-84.591073
MLS Listing,,Single Family Residential,5009 Cleves Warsaw Pike,Cincinnati,OH,45238,285000,5,2.0,Covedale,3260,11238,1870,13,87,,Active,,,https://www.redfin.com/OH/Cincinnati/5009-Cleves-Warsaw-Pike-45238/home/78798812,Cincy MLS,1817048,N,Y,39.1183662,-84.6052064
MLS Listing,,Single Family Residential,9339 Erin Dr,Colerain Twp,OH,45251,399900,4,2.0,Colerain Twp.West,1960,13721,1985,13,204,,Active,September-19-2024 05:00 PM,September-19-2024 07:00 PM,https://www.redfin.com/OH/Cincinnati/9339-Erin-Dr-45251/home/100999118,Cincy MLS,1817040,N,Y,39.2386599,-84.6002832
MLS Listing,,Single Family Residential,423 Ada St,Cincinnati,OH,45219,359900,5,2.0,Clifton,1965,,1904,13,183,,Active,,,https://www.redfin.com/OH/Cincinnati/423-Ada-St-45219/home/78820801,Cincy MLS,1816238,N,Y,39.1262535,-84.5268409
MLS Listing,,Single Family Residential,4348 Hegner Ave,Deer Park,OH,45236,274900,3,2.5,Deer Park,1044,9757,1908,13,263,,Active,,,https://www.redfin.com/OH/Cincinnati/4348-Hegner-Ave-45236/home/76147844,Cincy MLS,1816993,N,Y,39.2000359,-84.3900754
MLS Listing,,Single Family Residential,928 Belsage Ct,Springfield Twp.,OH,45231,282000,3,2.5,Springfield Twp.,2181,10672,1987,13,129,,Active,,,https://www.redfin.com/OH/Cincinnati/928-Belsage-Ct-45231/home/101027358,Cincy MLS,1816879,N,Y,39.2412736,-84.5156682
MLS Listing,,Single Family Residential,4205 Magnolia Aly,Blue Ash,OH,45242,1237900,3,3.5,Blue Ash,,,2024,13,,275,Active,,,https://www.redfin.com/OH/Blue-Ash/4205-Magnolia-Aly-45242/home/183840456,Cincy MLS,1816802,N,Y,39.246328,-84.390698
MLS Listing,,Single Family Residential,3928 Delmar Ave,Cheviot,OH,45211,179900,2,1.0,Cheviot,1399,5968,1922,13,129,,Active,,,https://www.redfin.com/OH/Cincinnati/3928-Delmar-Ave-45211/home/78894234,Cincy MLS,1816966,N,Y,39.159511,-84.6095827
MLS Listing,,Single Family Residential,1237 Gilsey Ave,Cincinnati,OH,45205,120000,2,1.0,Price Hill,1499,5401,1918,13,80,,Active,,,https://www.redfin.com/OH/Cincinnati/1237-Gilsey-Ave-45205/home/100971346,Cincy MLS,1816961,N,Y,39.1157204,-84.5813158
MLS Listing,,Single Family Residential,1235 Gilsey Ave,Cincinnati,OH,45205,125000,3,2.0,Price Hill,1760,,1904,13,71,,Active,,,https://www.redfin.com/OH/Cincinnati/1235-Gilsey-Ave-45205/home/78817870,Cincy MLS,1816949,N,Y,39.1155739,-84.5813123
MLS Listing,,Single Family Residential,4908 Roanoke St,Cincinnati,OH,45227,225000,2,1.0,Madisonville,1180,5750,1900,13,191,,Active,,,https://www.redfin.com/OH/Cincinnati/4908-Roanoke-St-45227/home/78938671,Cincy MLS,1816945,N,Y,39.1585955,-84.3841102
MLS Listing,,Single Family Residential,2946 W Mcmicken Ave,Cincinnati,OH,45225,130000,2,1.0,Clifton,1043,13199,1924,13,125,,Active,,,https://www.redfin.com/OH/Cincinnati/2946-W-McMicken-Ave-45225/home/76121699,Cincy MLS,1816943,N,Y,39.1359864,-84.5309196
MLS Listing,,Single Family Residential,3340 Ninann Ct,Cincinnati,OH,45211,150000,3,1.5,Westwood,1750,6752,1963,13,86,,Active,,,https://www.redfin.com/OH/Cincinnati/3340-Ninann-Ct-45211/home/76075363,Cincy MLS,1816734,N,Y,39.1445953,-84.5680263
MLS Listing,,Single Family Residential,4276 Milaine Dr,Union Twp,OH,45245,280000,3,2.0,Union Twp.,1241,20038,1957,13,226,,Active,,,https://www.redfin.com/OH/Cincinnati/4276-Milaine-Dr-45245/home/71385013,Cincy MLS,1816935,N,Y,39.0861836,-84.2804285
MLS Listing,,Single Family Residential,1122 Omena Pl,Cincinnati,OH,45238,305000,4,3.0,Covedale,2078,8712,1923,13,147,,Active,,,https://www.redfin.com/OH/Cincinnati/1122-Omena-Pl-45238/home/100972411,Cincy MLS,1816936,N,Y,39.1147633,-84.5940695
MLS Listing,,Single Family Residential,11995 Westerly Dr,Colerain Twp,OH,45231,239900,3,1.5,Colerain Twp.East,1226,7797,1970,13,196,,Active,,,https://www.redfin.com/OH/Cincinnati/11995-Westerly-Dr-45231/home/78806670,Cincy MLS,1816873,N,Y,39.3029614,-84.5709168
MLS Listing,,Single Family Residential,3478 W Galbraith Rd,Colerain Twp,OH,45239,134900,2,1.0,Colerain Twp.West,854,,1912,13,158,,Active,,,https://www.redfin.com/OH/Cincinnati/3478-W-Galbraith-Rd-45239/home/76128078,Cincy MLS,1816749,N,Y,39.2206756,-84.5970705
