SALE TYPE,SOLD DATE,PROPERTY TYPE,ADDRESS,CITY,STATE OR PROVINCE,ZIP OR POSTAL CODE,PRICE,BEDS,BATHS,LOCATION,SQUARE FEET,LOT SIZE,YEAR BUILT,DAYS ON MARKET,$/SQUARE FEET,HOA/MONTH,STATUS,NEXT OPEN HOUSE START TIME,NEXT OPEN HOUSE END TIME,URL (SEE https://www.redfin.com/buy-a-home/comparative-market-analysis FOR INFO ON PRICING),SOURCE,MLS#,FAVORITE,INTERESTED,LATITUDE,LONGITUDE
MLS Listing,,Condo/Co-op,1426 Sedgefield Dr,New Albany,OH,43054,398000,3,3.5,Mifflin,2224,1742,1995,4,179,400,Active,,,https://www.redfin.com/OH/New-Albany/1426-Sedgefield-Dr-43054/home/75693951,CBRMLS,224032018,N,Y,40.0527565,-82.8280784
MLS Listing,,Condo/Co-op,925 Ingleside Ave #115,Columbus,OH,43215,359900,2,2.0,,1170,1306,2009,12,308,394,Active,,,https://www.redfin.com/OH/Columbus/925-Ingleside-Ave-43215/unit-115/home/100720024,CBRMLS,224031598,N,Y,39.979635,-83.01818
MLS Listing,,Single Family Residential,5809 Marble Creek St,Dublin,OH,43016,375000,3,2.5,,1926,3484,2014,13,195,110,Active,,,https://www.redfin.com/OH/Dublin/5809-Marble-Creek-St-43016/home/100724355,CBRMLS,224031435,N,Y,40.064165,-83.1747023
MLS Listing,,Single Family Residential,573 Frebis Ave,Columbus,OH,43206,225000,3,2.0,,1608,8276,1920,20,140,,Active,,,https://www.redfin.com/OH/Columbus/573-Frebis-Ave-43206/home/75590893,CBRMLS,224030542,N,Y,39.9352175,-82.9805613
MLS Listing,,Condo/Co-op,825 N 4th St #312,Columbus,OH,43215,299900,1,1.0,,927,23086,2008,34,324,356,Active,,,https://www.redfin.com/OH/Columbus/825-N-4th-St-43215/unit-312/home/144856322,CBRMLS,224028558,N,Y,39.9799783,-82.9986148
MLS Listing,,Multi-Family (2-4 Unit),102 W Tompkins St,Columbus,OH,43202,460000,5,,,1704,6098,1880,41,270,,Active,,,https://www.redfin.com/OH/Columbus/102-W-Tompkins-St-43202/home/79763501,CBRMLS,224027683,N,Y,40.0131116,-83.013904
MLS Listing,,Single Family Residential,3317 Somerford Rd,Columbus,OH,43221,515000,3,2.5,,1892,10454,1963,47,272,,Active,,,https://www.redfin.com/OH/Columbus/3317-Somerford-Rd-43221/home/75699964,CBRMLS,224027010,N,Y,40.0243081,-83.0632923
MLS Listing,,Single Family Residential,1380 Stanwix Ct,Columbus,OH,43223,319000,4,4.0,,2422,9583,1993,48,132,,Active,,,https://www.redfin.com/OH/Columbus/1380-Stanwix-Ct-43223/home/79708871,CBRMLS,224026742,N,Y,39.9275599,-83.0513499
MLS Listing,,Vacant Land,314 S Warren Ave,Columbus,OH,43204,35000,,,,,3484,,48,,,Active,,,https://www.redfin.com/OH/Columbus/314-S-Warren-Ave-43204/home/107857469,CBRMLS,224026708,N,Y,39.9485373,-83.0709895
MLS Listing,,Single Family Residential,198 E Tompkins St,Columbus,OH,43202,269000,3,1.5,,1344,5227,1900,61,200,,Active,,,https://www.redfin.com/OH/Columbus/198-E-Tompkins-St-43202/home/79523633,CBRMLS,224024345,N,Y,40.0143922,-83.0057888
MLS Listing,,Multi-Family (2-4 Unit),1033 Scott St,Columbus,OH,43222,389900,6,,,3281,7840,1900,71,119,,Active,,,https://www.redfin.com/OH/Columbus/1033-Scott-St-43222/home/75658492,CBRMLS,224023348,N,Y,39.9600941,-83.0283724
MLS Listing,,Single Family Residential,2793 Pickwick Dr,Upper Arlington,OH,43221,629900,4,2.5,,2295,14810,1959,75,274,,Active,,,https://www.redfin.com/OH/Columbus/2793-Pickwick-Dr-43221/home/79569663,CBRMLS,224019636,N,Y,40.0147885,-83.049874
MLS Listing,,Single Family Residential,6825 Willow Bloom Dr,Canal Winchester,OH,43110,320000,3,2.5,,2024,4791,2007,1,158,15,Active,,,https://www.redfin.com/OH/Canal-Winchester/6825-Willow-Bloom-Dr-43110/home/79664502,CBRMLS,224033065,N,Y,39.8982613,-82.8130414
MLS Listing,,Multi-Family (2-4 Unit),108-110 Wilber Ave,Columbus,OH,43215,679000,4,,,2578,3049,1900,1,263,,Active,,,https://www.redfin.com/OH/Columbus/108-110-Wilber-Ave-43215/home/192560470,CBRMLS,224032702,N,Y,39.979347,-83.007026
MLS Listing,,Condo/Co-op,1060 Sells Ave Unit L,Columbus,OH,43212,149000,1,1.0,,606,,1947,1,246,107,Active,September-21-2024 01:00 PM,September-21-2024 03:00 PM,https://www.redfin.com/OH/Columbus/1060-Sells-Ave-43212/unit-L/home/79655514,CBRMLS,224032711,N,Y,39.9950111,-83.0358649
MLS Listing,,Single Family Residential,500 Van Heyde Pl,Columbus,OH,43209,439900,4,2.5,,2542,9147,1972,1,173,,Active,September-22-2024 12:00 PM,September-22-2024 02:00 PM,https://www.redfin.com/OH/Columbus/500-Van-Heyde-Pl-43209/home/79554309,CBRMLS,224032287,N,Y,39.9606257,-82.9204829
MLS Listing,,Single Family Residential,100 E Weisheimer Rd,Columbus,OH,43214,375000,2,2.0,,1484,6534,1962,1,253,,Active,,,https://www.redfin.com/OH/Columbus/100-E-Weisheimer-Rd-43214/home/79577162,CBRMLS,224030517,N,Y,40.0554931,-83.0168785
MLS Listing,,Condo/Co-op,3441 Fishinger Mill Dr,Hilliard,OH,43026,225000,2,2.0,,1188,871,1988,1,189,316,Active,,,https://www.redfin.com/OH/Hilliard/3441-Fishinger-Mill-Dr-43026/home/79718359,CBRMLS,224032895,N,Y,40.0235041,-83.1113427
MLS Listing,,Single Family Residential,1165 Lawrence Dr,Columbus,OH,43207,319000,5,3.0,,2695,14374,1932,1,118,,Active,,,https://www.redfin.com/OH/Columbus/1165-Lawrence-Dr-43207/home/75630566,CBRMLS,224032776,N,Y,39.9255514,-82.9618642
MLS Listing,,Multi-Family (2-4 Unit),103-107 W Prescott St,Columbus,OH,43215,699000,6,,,2432,2613,1900,1,287,,Active,,,https://www.redfin.com/OH/Columbus/103-107-W-Prescott-St-43215/home/192560471,CBRMLS,224032701,N,Y,39.979515,-83.007014
MLS Listing,,Single Family Residential,6984 Prairedell Dr,Reynoldsburg,OH,43068,334900,3,2.0,Montgomery,1696,7405,2022,1,197,17,Active,,,https://www.redfin.com/OH/Reynoldsburg/6984-Prairedell-Dr-43068/home/177667281,CBRMLS,224032610,N,Y,39.9158104,-82.8114216
MLS Listing,,Single Family Residential,5178 Cherry Creek Pkwy N,Columbus,OH,43228,127999,3,1.0,,1238,6098,1973,1,103,,Active,,,https://www.redfin.com/OH/Columbus/5178-Cherry-Creek-Pkwy-N-43228/home/100774628,CBRMLS,224031709,N,Y,39.9386838,-83.137455
MLS Listing,,Multi-Family (2-4 Unit),1563 Greenway Ave,Columbus,OH,43203,649900,6,,,2004,3920,2025,1,324,,Active,,,https://www.redfin.com/OH/Columbus/1563-Greenway-Ave-43203/home/75724672,CBRMLS,224033106,N,Y,39.9738311,-82.9606095
MLS Listing,,Single Family Residential,1129 Pebble Brook Dr,Columbus,OH,43240,415000,3,2.5,,1597,6969,2002,1,260,10,Active,,,https://www.redfin.com/OH/Columbus/1129-Pebble-Brook-Dr-43240/home/70295268,CBRMLS,224033105,N,Y,40.151602,-82.9889754
MLS Listing,,Single Family Residential,936 Wagner St,Columbus,OH,43206,479900,3,3.0,,1590,2613,2025,1,302,,Active,,,https://www.redfin.com/OH/Columbus/936-Wagner-St-43206/home/75658238,CBRMLS,224033104,N,Y,39.945641,-82.973781
MLS Listing,,Single Family Residential,932 Wagner St,Columbus,OH,43206,479900,5,3.0,,1590,2613,2025,1,302,,Active,,,https://www.redfin.com/OH/Columbus/932-Wagner-St-43206/home/75625841,CBRMLS,224033102,N,Y,39.9457976,-82.973698
MLS Listing,,Single Family Residential,928 Wagner St,Columbus,OH,43206,479900,3,2.5,,1590,2613,2025,1,302,,Active,,,https://www.redfin.com/OH/Columbus/928-Wagner-St-43206/home/75658415,CBRMLS,224033100,N,Y,39.9458286,-82.9736985
MLS Listing,,Single Family Residential,1585 Humphrey Ave,Columbus,OH,43223,179900,2,1.0,Franklin,1215,5662,1949,1,148,,Active,,,https://www.redfin.com/OH/Columbus/1585-Humphrey-Ave-43223/home/75705790,CBRMLS,224032914,N,Y,39.942447,-83.039401
MLS Listing,,Single Family Residential,5948 Ella Ct,Columbus,OH,43231,325000,3,2.0,,1440,9583,1977,1,226,,Pre On-Market,September-21-2024 12:00 PM,September-21-2024 04:00 PM,https://www.redfin.com/OH/Columbus/5948-Ella-Ct-43231/home/75649703,CBRMLS,224033099,N,Y,40.095473,-82.9389936
MLS Listing,,Single Family Residential,92 E Innis Ave,Columbus,OH,43207,429900,3,2.5,,1511,3920,2025,1,285,,Active,,,https://www.redfin.com/OH/Columbus/92-E-Innis-Ave-43207/home/192602148,CBRMLS,224033098,N,Y,39.9264,-82.992933
MLS Listing,,Single Family Residential,369 Chatterly Ln,Columbus,OH,43207,239900,3,2.5,,1320,5227,1996,1,182,,Pre On-Market,,,https://www.redfin.com/OH/Columbus/369-Chatterly-Ln-43207/home/79490855,CBRMLS,224033092,N,Y,39.8856929,-82.9889234
MLS Listing,,Single Family Residential,6348 Birkewood St,Columbus,OH,43229,349900,4,2.5,,1708,7405,1972,1,205,,Pre On-Market,,,https://www.redfin.com/OH/Columbus/6348-Birkewood-St-43229/home/79515317,CBRMLS,224033089,N,Y,40.0987502,-82.9588304
MLS Listing,,Single Family Residential,6793 Kristins Cove Ln,Canal Winchester,OH,43110,286900,3,2.0,,1404,7405,1998,1,204,,Pre On-Market,September-21-2024 11:00 AM,September-21-2024 01:00 PM,https://www.redfin.com/OH/Canal-Winchester/6793-Kristins-Cove-Ln-43110/home/79634303,CBRMLS,224033087,N,Y,39.8623008,-82.8192101
MLS Listing,,Single Family Residential,2517 Dexham Ct,Columbus,OH,43224,379900,4,2.5,,2518,11761,1999,1,151,,Active,,,https://www.redfin.com/OH/Columbus/2517-Dexham-Ct-43224/home/79631831,CBRMLS,224033086,N,Y,40.0355084,-82.9462877
MLS Listing,,Single Family Residential,642 Joyful St,Columbus,OH,43204,269500,5,2.0,,1965,7405,1953,1,137,,Pre On-Market,,,https://www.redfin.com/OH/Columbus/642-Joyful-St-43204/home/79609864,CBRMLS,224033082,N,Y,39.9407001,-83.0915408
MLS Listing,,Vacant Land,598 Rhoads Ave #600,Columbus,OH,43205,75000,,,,,4791,,1,,,Active,,,https://www.redfin.com/OH/Columbus/598-Rhoads-Ave-43205/unit-600/home/79766140,CBRMLS,224033079,N,Y,39.955302,-82.9489569
MLS Listing,,Single Family Residential,2421 Nugget Dr,Grove City,OH,43123,270000,3,1.0,,1232,7405,1980,1,219,,Pre On-Market,September-21-2024 11:00 AM,September-21-2024 03:00 PM,https://www.redfin.com/OH/Grove-City/2421-Nugget-Dr-43123/home/75615921,CBRMLS,224033075,N,Y,39.9073297,-83.0601852
MLS Listing,,Single Family Residential,889 Mission Hills Ln,Columbus,OH,43235,500000,3,2.0,Sharon,1902,13503,1962,1,263,,Pre On-Market,,,https://www.redfin.com/OH/Columbus/889-Mission-Hills-Ln-43235/home/75710668,CBRMLS,224033073,N,Y,40.1264894,-83.0410586
MLS Listing,,Condo/Co-op,2638 Trottersway Dr #29,Columbus,OH,43235,279900,2,1.5,,1051,1742,1989,1,266,275,Pre On-Market,,,https://www.redfin.com/OH/Columbus/2638-Trottersway-Dr-43235/unit-29/home/79740297,CBRMLS,224033068,N,Y,40.0684604,-83.0876817
MLS Listing,,Condo/Co-op,6230 Red Glare Dr #238,Galloway,OH,43119,249900,2,2.5,,1444,1306,2013,1,173,100,Pre On-Market,,,https://www.redfin.com/OH/Galloway/6230-Red-Glare-Dr-43119/unit-238/home/79501264,CBRMLS,224033064,N,Y,39.9369021,-83.160708
MLS Listing,,Single Family Residential,5920 E Walnut St,Westerville,OH,43081,495000,3,3.0,Plain,2723,32234,1978,1,182,,Pre On-Market,,,https://www.redfin.com/OH/Westerville/5920-E-Walnut-St-43081/home/79567394,CBRMLS,224033063,N,Y,40.114204,-82.829928
MLS Listing,,Single Family Residential,4887 Northtowne Blvd,Columbus,OH,43229,199900,4,2.0,,1795,7405,1967,1,111,,Pre On-Market,,,https://www.redfin.com/OH/Columbus/4887-Northtowne-Blvd-43229/home/79490810,CBRMLS,224033060,N,Y,40.0681847,-82.9616038
MLS Listing,,Single Family Residential,6296 Shaftsbury Ln,Dublin,OH,43017,349900,3,2.5,,1642,12196,1981,1,213,,Pre On-Market,,,https://www.redfin.com/OH/Dublin/6296-Shaftsbury-Ln-43017/home/79579554,CBRMLS,224033058,N,Y,40.0831146,-83.0985873
MLS Listing,,Single Family Residential,5208 Brandy Creek Dr,Dublin,OH,43016,399900,3,2.5,,2471,6098,2006,1,162,65,Pre On-Market,September-21-2024 02:00 PM,September-21-2024 04:00 PM,https://www.redfin.com/OH/Dublin/5208-Brandy-Creek-Dr-43016/home/100712477,CBRMLS,224033057,N,Y,40.0584773,-83.1635308
MLS Listing,,Single Family Residential,1675 Demaret Ln,Columbus,OH,43228,410000,3,2.0,,1872,10018,1991,1,219,,Pre On-Market,September-19-2024 05:00 PM,September-19-2024 07:00 PM,https://www.redfin.com/OH/Columbus/1675-Demaret-Ln-43228/home/79682033,CBRMLS,224033056,N,Y,39.9881619,-83.1048047
MLS Listing,,Condo/Co-op,1000 Urlin Ave #520,Columbus,OH,43212,299000,2,2.0,,1169,20473,1965,1,256,1585,Active,,,https://www.redfin.com/OH/Grandview-Heights/1000-Urlin-Ave-43212/unit-520/home/172249411,CBRMLS,224033040,N,Y,39.9775523,-83.0493392
MLS Listing,,Single Family Residential,869 Venetian Way,Columbus,OH,43230,399900,4,2.5,Mifflin,2488,10890,1983,1,161,,Pre On-Market,September-22-2024 01:00 PM,September-22-2024 03:00 PM,https://www.redfin.com/OH/Columbus/869-Venetian-Way-43230/home/75693209,CBRMLS,224033039,N,Y,40.0402506,-82.853687
MLS Listing,,Single Family Residential,1982 Jacinth Ct,Grove City,OH,43123,298800,3,2.5,,1694,7405,2003,1,176,8,Active,September-22-2024 02:00 PM,September-22-2024 04:00 PM,https://www.redfin.com/OH/Grove-City/1982-Jacinth-Ct-43123/home/100703928,CBRMLS,224033033,N,Y,39.9128624,-83.1023862
MLS Listing,,Condo/Co-op,3967 Karl Rd #319,Columbus,OH,43224,99000,2,2.0,,966,39639,1987,1,102,185,Pre On-Market,,,https://www.redfin.com/OH/Columbus/3967-Karl-Rd-43224/unit-319/home/75634789,CBRMLS,224033025,N,Y,40.0489895,-82.9787027
MLS Listing,,Single Family Residential,6481 Mountaineer Trail Ct,Reynoldsburg,OH,43068,265000,3,2.5,,1574,9583,1983,1,168,,Active,,,https://www.redfin.com/OH/Reynoldsburg/6481-Mountaineer-Trail-Ct-43068/home/75712104,CBRMLS,224033024,N,Y,39.9250255,-82.8271822
MLS Listing,,Multi-Family (2-4 Unit),2823 Vanderberg Ave,Columbus,OH,43204,175000,4,,,,4791,1953,1,,,Pre On-Market,,,https://www.redfin.com/OH/Columbus/2823-Vanderberg-Ave-43204/home/192593780,CBRMLS,224033023,N,Y,39.9364779,-83.0729961
MLS Listing,,Condo/Co-op,5708 Beechcroft Rd Unit G,Columbus,OH,43229,130000,2,1.0,,927,435,1970,1,140,250,Active,,,https://www.redfin.com/OH/Columbus/5708-Beechcroft-Rd-43229/unit-G/home/79585800,CBRMLS,224033022,N,Y,40.0848949,-82.964248
MLS Listing,,Single Family Residential,1359 E Cooke Rd,Columbus,OH,43224,550000,3,1.0,Clinton,1072,132422,1952,1,513,,Pre On-Market,,,https://www.redfin.com/OH/Columbus/1359-E-Cooke-Rd-43224/home/100762031,CBRMLS,224033020,N,Y,40.0468835,-82.9796293
MLS Listing,,Single Family Residential,1766 Marsdale Ave,Columbus,OH,43223,149000,3,1.0,Franklin,1149,5662,1954,1,130,,Active,,,https://www.redfin.com/OH/Columbus/1766-Marsdale-Ave-43223/home/75683229,CBRMLS,224033019,N,Y,39.9206269,-83.0497351
MLS Listing,,Single Family Residential,1640 Striebel Rd,Columbus,OH,43227,169900,3,1.0,,988,6969,1958,1,172,,Pre On-Market,,,https://www.redfin.com/OH/Columbus/1640-Striebel-Rd-43227/home/75631137,CBRMLS,224033016,N,Y,39.9403421,-82.8881768
MLS Listing,,Multi-Family (2-4 Unit),212-214 E Moler St,Columbus,OH,43207,400000,4,,,2016,4791,1920,1,198,,Pre On-Market,,,https://www.redfin.com/OH/Columbus/212-214-E-Moler-St-43207/home/192592216,CBRMLS,224033008,N,Y,39.935185,-82.990211
MLS Listing,,Single Family Residential,6364 S Marinelli Dr,Columbus,OH,43228,354900,3,2.5,Norwich,1635,2178,2024,1,217,190,Active,September-21-2024 12:00 PM,September-21-2024 05:00 PM,https://www.redfin.com/OH/Columbus/6364-Marinelli-Dr-S-43228/home/192591794,CBRMLS,224033001,N,Y,39.9790798,-83.1765058
MLS Listing,,Single Family Residential,1934 Marblecliff Crossing Ct,Columbus,OH,43204,739000,3,3.0,,2880,6098,2000,1,257,410,Active,,,https://www.redfin.com/OH/Columbus/1934-Marblecliff-Crossing-Ct-43204/home/79699044,CBRMLS,224032998,N,Y,39.995461,-83.079657
MLS Listing,,Single Family Residential,1212 Thurell Rd,Columbus,OH,43229,289900,4,2.0,,1386,10454,1963,1,209,,Pre On-Market,September-21-2024 01:00 PM,September-21-2024 03:00 PM,https://www.redfin.com/OH/Columbus/1212-Thurell-Rd-43229/home/79536845,CBRMLS,224032996,N,Y,40.0690563,-82.985989
MLS Listing,,Single Family Residential,6362 E Marinelli Dr,Columbus,OH,43228,367900,4,2.5,Norwich,1811,3049,2024,1,203,190,Active,,,https://www.redfin.com/OH/Columbus/6362-Marinelli-Dr-S-43228/home/192591583,CBRMLS,224032994,N,Y,39.9790755,-83.1764159
MLS Listing,,Single Family Residential,634 E Mithoff St,Columbus,OH,43206,372000,4,1.5,,1550,3920,1910,1,240,,Active,,,https://www.redfin.com/OH/Columbus/634-E-Mithoff-St-43206/home/79657139,CBRMLS,224032993,N,Y,39.9382694,-82.9787798
MLS Listing,,Single Family Residential,48 N Chase Ave,Columbus,OH,43204,255000,3,2.0,,1399,5662,1920,1,182,,Active,,,https://www.redfin.com/OH/Columbus/48-N-Chase-Ave-43204/home/100731614,CBRMLS,224032992,N,Y,39.9559154,-83.0765496
MLS Listing,,Single Family Residential,3897 Fergus Rd,Columbus,OH,43207,224900,3,2.0,,1640,6969,1970,1,137,,Active,,,https://www.redfin.com/OH/Columbus/3897-Fergus-Rd-43207/home/75678672,CBRMLS,224032989,N,Y,39.8830472,-82.9783792
MLS Listing,,Multi-Family (5+ Unit),2054 N 4th St,Columbus,OH,43201,1050000,16,,,9702,6534,1910,1,108,,Active,,,https://www.redfin.com/OH/Columbus/2054-N-4th-St-43201/home/75666571,CBRMLS,224032987,N,Y,40.0053486,-82.9979478
MLS Listing,,Single Family Residential,362 Miller Ave,Columbus,OH,43205,724900,4,3.5,,2372,5662,2024,1,306,,Active,,,https://www.redfin.com/OH/Columbus/362-Miller-Ave-43205/home/75672974,CBRMLS,224032985,N,Y,39.959145,-82.960225
MLS Listing,,Condo/Co-op,6806 Axtel Dr Unit 20C,Canal Winchester,OH,43110,169900,2,1.5,,1248,871,1998,1,136,210,Pre On-Market,September-21-2024 12:00 PM,September-21-2024 02:00 PM,https://www.redfin.com/OH/Canal-Winchester/6806-Axtel-Dr-43110/unit-20C/home/79648803,CBRMLS,224032982,N,Y,39.8757354,-82.8215359
MLS Listing,,Multi-Family (2-4 Unit),629-631 S Wheatland Ave,Columbus,OH,43204,85000,2,,,1286,6098,1950,1,66,,Active,,,https://www.redfin.com/OH/Columbus/629-631-S-Wheatland-Ave-43204/home/192590943,CBRMLS,224032979,N,Y,39.942409,-83.060518
MLS Listing,,Single Family Residential,222 Andalus Dr,Columbus,OH,43230,424900,5,3.5,Mifflin,2702,15245,1965,1,157,,Pre On-Market,,,https://www.redfin.com/OH/Columbus/222-Andalus-Dr-43230/home/79680177,CBRMLS,224032971,N,Y,40.0269667,-82.8728102
MLS Listing,,Single Family Residential,347 E Markison Ave,Columbus,OH,43207,499900,4,2.0,,2260,8712,1949,1,221,,Pre On-Market,September-22-2024 12:00 PM,September-22-2024 02:00 PM,https://www.redfin.com/OH/Columbus/347-E-Markison-Ave-43207/home/75659545,CBRMLS,224032968,N,Y,39.9307799,-82.9863695
MLS Listing,,Single Family Residential,1575 Humphrey Ave,Columbus,OH,43223,239900,4,2.5,Franklin,1560,9583,1930,1,154,,Active,,,https://www.redfin.com/OH/Columbus/1575-Humphrey-Ave-43223/home/79590029,CBRMLS,224032967,N,Y,39.942484,-83.039236
MLS Listing,,Single Family Residential,5746 Old Trail Ct,Columbus,OH,43213,495000,4,2.5,,3522,27878,1972,1,141,,Pre On-Market,,,https://www.redfin.com/OH/Columbus/5746-Old-Trail-Ct-43213/home/75665726,CBRMLS,224032965,N,Y,39.9749087,-82.8475077
MLS Listing,,Single Family Residential,3695 Petiole Way,Columbus,OH,43207,239900,3,2.0,,1329,5662,2001,1,181,14,Pre On-Market,September-21-2024 11:00 AM,September-21-2024 01:00 PM,https://www.redfin.com/OH/Columbus/3695-Petiole-Way-43207/home/79662814,CBRMLS,224032963,N,Y,39.8934886,-82.9280941
MLS Listing,,Single Family Residential,6056 Carmell Dr,Columbus,OH,43228,364900,4,2.5,,1639,6098,1994,1,223,,Pre On-Market,,,https://www.redfin.com/OH/Columbus/6056-Carmell-Dr-43228/home/79714058,CBRMLS,224032961,N,Y,39.9747175,-83.1628569
MLS Listing,,Single Family Residential,146 W North Broadway St,Columbus,OH,43214,449900,3,2.0,,1496,8276,1948,1,301,,Pre On-Market,,,https://www.redfin.com/OH/Columbus/146-W-North-Broadway-St-43214/home/100739360,CBRMLS,224032956,N,Y,40.0319197,-83.0200465
MLS Listing,,Condo/Co-op,970 Annagladys Dr,Columbus,OH,43085,215000,2,2.0,,1174,871,1985,1,183,233,Active,September-22-2024 02:00 PM,September-22-2024 04:00 PM,https://www.redfin.com/OH/Worthington/970-Annagladys-Dr-43085/home/179514612,CBRMLS,224032952,N,Y,40.1206784,-82.990883
MLS Listing,,Condo/Co-op,42 W Russell St,Columbus,OH,43215,379900,2,2.5,,1395,871,1994,1,272,533,Active,,,https://www.redfin.com/OH/Columbus/42-W-Russell-St-43215/home/100711885,CBRMLS,224032412,N,Y,39.9755252,-83.004361
MLS Listing,,Condo/Co-op,391 Library Park S #2,Columbus,OH,43215,398000,3,2.5,,1792,871,1900,2,222,117,Pre On-Market,,,https://www.redfin.com/OH/Columbus/391-Library-Park-S-43215/unit-2/home/100747307,CBRMLS,224032950,N,Y,39.960587,-82.989637
MLS Listing,,Single Family Residential,3741 Alkire Lakes Dr,Grove City,OH,43123,340000,4,2.5,,1680,6098,2021,2,202,17,Pre On-Market,,,https://www.redfin.com/OH/Grove-City/3741-Alkire-Lakes-Dr-43123/home/178719735,CBRMLS,224032947,N,Y,39.9127662,-83.0958227
MLS Listing,,Single Family Residential,5233 Wolf Run Dr,Columbus,OH,43230,395000,4,2.5,,1912,13068,1978,2,207,,Active,,,https://www.redfin.com/OH/Columbus/5233-Wolf-Run-Dr-43230/home/79512260,CBRMLS,224032941,N,Y,40.0619122,-82.8820812
MLS Listing,,Single Family Residential,8111 Loden Ct,Blacklick,OH,43004,289900,3,2.5,,1260,6969,1996,2,230,,Active,,,https://www.redfin.com/OH/Blacklick/8111-Loden-Ct-43004/home/79595850,CBRMLS,224032939,N,Y,39.994088,-82.7904105
MLS Listing,,Single Family Residential,1560 E 26th Ave,Columbus,OH,43211,139900,3,1.0,,1144,5662,1926,2,122,,Pre On-Market,,,https://www.redfin.com/OH/Columbus/1560-E-26th-Ave-43211/home/75658967,CBRMLS,224032938,N,Y,40.0078911,-82.9671049
MLS Listing,,Single Family Residential,2624 Creekwillow Pl,Grove City,OH,43123,259900,3,2.0,,1262,6534,1996,2,206,,Pre On-Market,,,https://www.redfin.com/OH/Grove-City/2624-Creekwillow-Pl-43123/home/79537451,CBRMLS,224032936,N,Y,39.9028875,-83.0431342
MLS Listing,,Single Family Residential,5449 Coble Square Pl,Canal Winchester,OH,43110,333333,4,2.5,,2332,4791,2021,2,143,35,Pre On-Market,,,https://www.redfin.com/OH/Canal-Winchester/5449-Coble-Square-Pl-43110/home/174636424,CBRMLS,224032934,N,Y,39.8865798,-82.84761
MLS Listing,,Multi-Family (2-4 Unit),361 S Harris Ave #361,Columbus,OH,43204,190000,5,,,1890,3920,1917,2,101,,Active,,,https://www.redfin.com/OH/Columbus/361-S-Harris-Ave-43204/unit-361/home/100736043,CBRMLS,224032932,N,Y,39.9474742,-83.0724767
MLS Listing,,Single Family Residential,1883 Prominence Dr,Grove City,OH,43123,335000,3,2.5,,1924,4791,2008,2,174,13,Pre On-Market,,,https://www.redfin.com/OH/Grove-City/1883-Prominence-Dr-43123/home/79670350,CBRMLS,224032924,N,Y,39.9146357,-83.1034046
MLS Listing,,Single Family Residential,857 Bledsoe Dr,Galloway,OH,43119,324900,3,2.5,,1368,6969,1994,2,238,,Active,,,https://www.redfin.com/OH/Galloway/857-Bledsoe-Dr-43119/home/75713562,CBRMLS,224032920,N,Y,39.9329981,-83.1518563
MLS Listing,,Condo/Co-op,854 Village Brook Way,Columbus,OH,43235,379900,3,2.0,,1455,,1996,2,261,329,Pre On-Market,,,https://www.redfin.com/OH/Columbus/854-Village-Brook-Way-43235/home/79480855,CBRMLS,224032916,N,Y,40.0692319,-83.0421373
MLS Listing,,Single Family Residential,5151 Algean Dr,Canal Winchester,OH,43110,285000,3,2.5,,1368,6969,1999,2,208,5,Pre On-Market,,,https://www.redfin.com/OH/Canal-Winchester/5151-Algean-Dr-43110/home/79609628,CBRMLS,224032911,N,Y,39.874781,-82.814807
MLS Listing,,Condo/Co-op,888 Burr Ave #20,Columbus,OH,43212,799900,3,3.5,,2127,871,2015,2,376,328,Active,,,https://www.redfin.com/OH/Columbus/888-Burr-Ave-43212/unit-20/home/102811930,CBRMLS,224032909,N,Y,39.976873,-83.0278819
MLS Listing,,Single Family Residential,294 Zimpfer St,Columbus,OH,43206,750000,3,3.5,,3014,3049,2001,2,249,,Pre On-Market,,,https://www.redfin.com/OH/Columbus/294-Zimpfer-St-43206/home/79639270,CBRMLS,224032908,N,Y,39.9425352,-82.9886588
MLS Listing,,Single Family Residential,1107 Berkeley Rd,Columbus,OH,43206,292000,7,2.5,,2177,5227,1929,2,134,,Pre On-Market,,,https://www.redfin.com/OH/Columbus/1107-Berkeley-Rd-43206/home/79486980,CBRMLS,224032903,N,Y,39.9438825,-82.9581453
MLS Listing,,Single Family Residential,2814 Atwood Ter,Columbus,OH,43211,224900,3,2.0,,1588,5662,1970,2,142,,Pre On-Market,September-21-2024 11:00 AM,September-21-2024 01:00 PM,https://www.redfin.com/OH/Columbus/2814-Atwood-Ter-43211/home/100737361,CBRMLS,224032894,N,Y,40.0228377,-82.9848543
MLS Listing,,Condo/Co-op,5126 Singleton Dr,Hilliard,OH,43026,229000,2,1.5,,839,871,1991,2,273,202,Pre On-Market,,,https://www.redfin.com/OH/Hilliard/5126-Singleton-Dr-43026/home/192577958,CBRMLS,224032893,N,Y,40.0101238,-83.1453631
MLS Listing,,Condo/Co-op,1142 Hamlet St,Columbus,OH,43201,769900,3,2.5,,2570,12196,2022,2,300,20,Active,,,https://www.redfin.com/OH/Columbus/1142-Hamlet-St-43201/home/171174457,CBRMLS,224032880,N,Y,39.9862955,-83.0005918
MLS Listing,,Single Family Residential,1874 Argyle Dr,Columbus,OH,43219,195000,3,2.0,,945,5662,1964,2,206,,Active,,,https://www.redfin.com/OH/Columbus/1874-Argyle-Dr-43219/home/79733067,CBRMLS,224032879,N,Y,40.0046894,-82.9582172
MLS Listing,,Single Family Residential,483 Olde Irish Dr,Galloway,OH,43119,375000,3,2.5,,1584,14374,2005,2,237,,Pre On-Market,,,https://www.redfin.com/OH/Galloway/483-Olde-Irish-Dr-43119/home/79662753,CBRMLS,224032878,N,Y,39.9392403,-83.1566668
MLS Listing,,Single Family Residential,8584 Copperview Dr,Dublin,OH,43016,459900,4,2.5,,2203,7405,1990,2,209,,Active,September-22-2024 02:00 PM,September-22-2024 04:00 PM,https://www.redfin.com/OH/Dublin/8584-Copperview-Dr-43016/home/79730102,CBRMLS,224032875,N,Y,40.1308721,-83.0871412
MLS Listing,,Single Family Residential,285 S Merkle Rd,Columbus,OH,43209,769900,3,2.5,,2152,7840,1966,2,358,,Pre On-Market,,,https://www.redfin.com/OH/Columbus/285-S-Merkle-Rd-43209/home/75635367,CBRMLS,224032873,N,Y,39.9646517,-82.9254699
MLS Listing,,Condo/Co-op,4098 Meadowleigh Way Unit 36A,Columbus,OH,43230,285000,2,2.5,,1952,1742,1996,2,146,265,Pre On-Market,,,https://www.redfin.com/OH/Columbus/4098-Meadowleigh-Way-43230/unit-36A/home/100749280,CBRMLS,224032869,N,Y,40.0692346,-82.8671961
MLS Listing,,Single Family Residential,3318 Eakin Rd,Columbus,OH,43204,224900,4,1.0,,1107,6098,1956,2,203,,Active,,,https://www.redfin.com/OH/Columbus/3318-Eakin-Rd-43204/home/100740125,CBRMLS,224032868,N,Y,39.9388632,-83.0867411
MLS Listing,,Single Family Residential,407 Kestrel Dr,Blacklick,OH,43004,370000,3,3.5,,2396,9583,1998,2,154,6,Pre On-Market,,,https://www.redfin.com/OH/Blacklick/407-Kestrel-Dr-43004/home/79618479,CBRMLS,224032861,N,Y,39.9943998,-82.782485
MLS Listing,,Single Family Residential,4793 Almont Dr,Columbus,OH,43229,300000,3,2.0,,1298,8712,1964,2,231,,Active,,,https://www.redfin.com/OH/Columbus/4793-Almont-Dr-43229/home/75600161,CBRMLS,224032858,N,Y,40.0639565,-82.9850863
MLS Listing,,Condo/Co-op,969 Philadelphia Dr Unit 1B,Westerville,OH,43081,269900,3,2.5,,1638,871,1993,2,165,230,Pre On-Market,,,https://www.redfin.com/OH/Westerville/969-Philadelphia-Dr-43081/unit-1B/home/75715847,CBRMLS,224032856,N,Y,40.1321522,-82.9913697
MLS Listing,,Single Family Residential,982 S Roosevelt Ave,Columbus,OH,43209,449900,3,1.5,,1914,6534,1941,2,235,,Pre On-Market,,,https://www.redfin.com/OH/Columbus/982-S-Roosevelt-Ave-43209/home/79592486,CBRMLS,224032853,N,Y,39.9496125,-82.927777
MLS Listing,,Condo/Co-op,7865 Meadowhaven Blvd,Columbus,OH,43235,220000,2,1.5,,1024,435,1985,2,215,253,Pre On-Market,,,https://www.redfin.com/OH/Columbus/7865-Meadowhaven-Blvd-43235/home/192574404,CBRMLS,224032849,N,Y,40.1159225,-83.0885171
MLS Listing,,Single Family Residential,870 Traci Ct,Columbus,OH,43207,235000,3,1.0,Hamilton,1225,7840,1971,2,192,,Active,,,https://www.redfin.com/OH/Columbus/870-Traci-Ct-43207/home/79611066,CBRMLS,224032847,N,Y,39.8571334,-82.9793257
MLS Listing,,Condo/Co-op,2327 Keep Pl,Columbus,OH,43204,379900,2,2.0,,1377,1742,2006,2,276,399,Pre On-Market,,,https://www.redfin.com/OH/Columbus/2327-Keep-Pl-43204/home/79504479,CBRMLS,224032835,N,Y,39.9907989,-83.0704787
MLS Listing,,Single Family Residential,400 Canyon Dr,Columbus,OH,43214,425000,3,1.5,,1382,11325,1954,2,308,,Pre On-Market,,,https://www.redfin.com/OH/Columbus/400-Canyon-Dr-S-43214/home/75628448,CBRMLS,224032828,N,Y,40.0464182,-83.0086297
MLS Listing,,Condo/Co-op,5113 Hayden Woods Ln #5113,Hilliard,OH,43026,386000,2,2.0,,1597,1742,2009,2,242,385,Active,,,https://www.redfin.com/OH/Hilliard/5113-Hayden-Woods-Ln-43026/unit-5113/home/192571424,CBRMLS,224032827,N,Y,40.055582,-83.175946
MLS Listing,,Condo/Co-op,5935 N High St #223,Worthington,OH,43085,285900,2,2.0,Sharon,1044,1306,1997,2,274,441,Pre On-Market,,,https://www.redfin.com/OH/Worthington/5935-N-High-St-43085/unit-223/home/107606299,CBRMLS,224032826,N,Y,40.0825482,-83.0198301
MLS Listing,,Single Family Residential,5615 Sullivant Ave,Galloway,OH,43119,295000,4,2.0,,1508,10454,1987,2,196,,Active,,,https://www.redfin.com/OH/Galloway/5615-Sullivant-Ave-43119/home/79550219,CBRMLS,224032825,N,Y,39.9439181,-83.1500286
MLS Listing,,Vacant Land,0 Aberdeen Ave,Columbus,OH,43211,70000,,,Mifflin,,5662,,2,,,Active,,,https://www.redfin.com/OH/Columbus/Aberdeen-Ave-43211/home/75708919,CBRMLS,224032824,N,Y,40.018695,-82.907371
MLS Listing,,Vacant Land,3859 Armuth Ave,Columbus,OH,43219,70000,,,Mifflin,,8712,,2,,,Active,,,https://www.redfin.com/OH/Columbus/3859-Armuth-Ave-43219/home/75708966,CBRMLS,224032822,N,Y,40.019006,-82.906657
MLS Listing,,Condo/Co-op,5541 Brighton Hill Ln,Dublin,OH,43016,389900,2,3.0,Washington,1869,2178,2001,2,209,353,Pre On-Market,,,https://www.redfin.com/OH/Dublin/5541-Brighton-Hill-Ln-43016/home/79532806,CBRMLS,224032820,N,Y,40.0798922,-83.1440321
MLS Listing,,Single Family Residential,25 S Ogden Ave,Columbus,OH,43204,235000,4,2.0,,1720,3049,1900,2,137,,Active,,,https://www.redfin.com/OH/Columbus/25-S-Ogden-Ave-43204/home/79493149,CBRMLS,224032540,N,Y,39.9545037,-83.0707759
MLS Listing,,Multi-Family (2-4 Unit),250 S 18th St,Columbus,OH,43205,899999,9,,,4578,7840,1904,2,197,,Active,,,https://www.redfin.com/OH/Columbus/250-S-18th-St-43205/home/192601780,CBRMLS,224032577,N,Y,39.959714,-82.9757164
MLS Listing,,Single Family Residential,808 Pine Post Ln,Westerville,OH,43081,450000,4,2.5,,2162,9147,1987,2,208,,Active,,,https://www.redfin.com/OH/Westerville/808-Pine-Post-Ln-43081/home/79513439,CBRMLS,224032750,N,Y,40.1291609,-82.9954615
MLS Listing,,Single Family Residential,626 S Murray Hill Rd,Columbus,OH,43228,259000,3,1.5,,1102,11325,1996,2,235,,Active,,,https://www.redfin.com/OH/Columbus/626-S-Murray-Hill-Rd-43228/home/79570428,CBRMLS,224032315,N,Y,39.9397858,-83.1262434
MLS Listing,,Multi-Family (2-4 Unit),1512 Glenn Ave,Columbus,OH,43212,749999,5,,,2140,6534,1900,2,350,,Active,,,https://www.redfin.com/OH/Columbus/1512-Glenn-Ave-43212/home/79577532,CBRMLS,224032545,N,Y,39.9875686,-83.0539819
MLS Listing,,Multi-Family (2-4 Unit),790 E Starr Ave,Columbus,OH,43201,247000,6,,,2016,4791,1910,3,123,,Active,,,https://www.redfin.com/OH/Columbus/790-E-Starr-Ave-43201/home/75591298,CBRMLS,224032818,N,Y,39.9826974,-82.9830686
MLS Listing,,Condo/Co-op,8414 Hickory Overlook,Blacklick,OH,43004,269900,2,2.5,,1805,871,2003,3,150,289,Pre On-Market,,,https://www.redfin.com/OH/Blacklick/8414-Hickory-Overlook-43004/home/75701143,CBRMLS,224032817,N,Y,39.9929224,-82.7793852
MLS Listing,,Single Family Residential,434 S Powell Ave,Columbus,OH,43204,295000,4,3.0,,1812,,1908,3,163,,Pre On-Market,,,https://www.redfin.com/OH/Columbus/434-S-Powell-Ave-43204/home/79540268,CBRMLS,224032816,N,Y,39.9459199,-83.0742724
MLS Listing,,Single Family Residential,1193 Pinnacle Dr,Columbus,OH,43204,229900,3,1.0,,1224,7405,1993,3,188,,Pre On-Market,,,https://www.redfin.com/OH/Columbus/1193-Pinnacle-Dr-43204/home/75695110,CBRMLS,224032815,N,Y,39.9300944,-83.0864262
MLS Listing,,Condo/Co-op,4986 Common Market Pl,Dublin,OH,43016,278500,2,2.5,,1374,871,2001,3,203,410,Pre On-Market,September-22-2024 01:00 PM,September-22-2024 03:00 PM,https://www.redfin.com/OH/Dublin/4986-Common-Market-Pl-43016/home/79686350,CBRMLS,224032811,N,Y,40.067985,-83.1523073
MLS Listing,,Single Family Residential,134 E Welch Ave,Columbus,OH,43207,397000,3,3.0,,1802,4791,1920,3,220,,Pre On-Market,,,https://www.redfin.com/OH/Columbus/134-E-Welch-Ave-43207/home/75670662,CBRMLS,224032805,N,Y,39.9304858,-82.9920455
MLS Listing,,Single Family Residential,235 S Stanwood Rd,Columbus,OH,43209,499900,4,3.0,,3074,8712,1977,3,163,,Active,,,https://www.redfin.com/OH/Columbus/235-S-Stanwood-Rd-43209/home/75602751,CBRMLS,224032801,N,Y,39.9654059,-82.9283362
MLS Listing,,Single Family Residential,61 Volney Ave,Columbus,OH,43228,159900,3,1.0,Franklin,924,6534,1953,3,173,,Active,,,https://www.redfin.com/OH/Columbus/61-Volney-Ave-43228/home/79575733,CBRMLS,224032800,N,Y,39.9524857,-83.0961666
MLS Listing,,Single Family Residential,7914 Dolmen Dr,Blacklick,OH,43004,329900,4,2.5,,1635,6098,1998,3,202,9,Pre On-Market,,,https://www.redfin.com/OH/Blacklick/7914-Dolmen-Dr-43004/home/79641461,CBRMLS,224032798,N,Y,39.9952773,-82.7932382
MLS Listing,,Single Family Residential,3150 Gallant Dr,Columbus,OH,43232,314990,5,2.5,,1998,5662,2003,3,158,,Active,,,https://www.redfin.com/OH/Columbus/3150-Gallant-Dr-43232/home/100704720,CBRMLS,224032795,N,Y,39.9159176,-82.8413644
MLS Listing,,Condo/Co-op,2486 Bethel Rd Unit 2E,Columbus,OH,43220,255000,2,1.5,,1024,435,1994,3,249,302,Active,,,https://www.redfin.com/OH/Columbus/2486-Bethel-Rd-43220/unit-2E/home/79485731,CBRMLS,224032792,N,Y,40.0650889,-83.0855435
MLS Listing,,Single Family Residential,895 Oxley Rd,Columbus,OH,43212,580000,3,2.5,,1366,4791,1924,3,425,,Pre On-Market,,,https://www.redfin.com/OH/Columbus/895-Oxley-Rd-43212/home/75694068,CBRMLS,224032791,N,Y,39.9769634,-83.0350924
MLS Listing,,Condo/Co-op,3070 Blendon Woods Blvd,Columbus,OH,43231,163900,2,1.5,,1090,435,1978,3,150,235,Pre On-Market,,,https://www.redfin.com/OH/Columbus/3070-Blendon-Woods-Blvd-43231/home/75714497,CBRMLS,224032789,N,Y,40.0953546,-82.9356638
MLS Listing,,Condo/Co-op,1925 Noble Run Way,Columbus,OH,43229,224900,2,1.5,,1605,871,1984,3,140,260,Pre On-Market,,,https://www.redfin.com/OH/Columbus/1925-Noble-Run-Way-43229/home/192567226,CBRMLS,224032788,N,Y,40.1030629,-82.964539
MLS Listing,,Single Family Residential,130 Buttles Ave,Columbus,OH,43215,1199900,4,3.5,,3636,6534,1900,3,330,,Active,,,https://www.redfin.com/OH/Columbus/130-Buttles-Ave-43215/home/79560093,CBRMLS,224032783,N,Y,39.977597,-83.0071606
MLS Listing,,Single Family Residential,63 E Tompkins St,Columbus,OH,43202,349999,3,1.5,,1568,6969,1900,3,223,,Active,,,https://www.redfin.com/OH/Columbus/63-E-Tompkins-St-43202/home/79507128,CBRMLS,224032772,N,Y,40.0134291,-83.0092588
MLS Listing,,Condo/Co-op,32 Brunson Ave #10,Columbus,OH,43203,430000,5,2.0,,2500,871,1922,3,172,580,Active,September-22-2024 01:00 PM,September-22-2024 03:00 PM,https://www.redfin.com/OH/Columbus/32-Brunson-Ave-43203/unit-10/home/100743863,CBRMLS,224030040,N,Y,39.9683884,-82.9531071
MLS Listing,,Condo/Co-op,8000 Lakeloop Dr,Westerville,OH,43081,279900,3,2.5,,1348,435,1992,3,208,225,Active,,,https://www.redfin.com/OH/Westerville/8000-Lakeloop-Dr-43081/home/79501953,CBRMLS,224032538,N,Y,40.1279093,-82.9918747
MLS Listing,,Single Family Residential,100 Winthrop Rd,Columbus,OH,43214,469900,3,1.5,,1518,5662,1941,3,310,,Active,,,https://www.redfin.com/OH/Columbus/100-Winthrop-Rd-43214/home/79696018,CBRMLS,224032549,N,Y,40.0372986,-83.0202563
MLS Listing,,Vacant Land,0 Aberdeen Ave,Columbus,OH,43211,70000,,,Mifflin,,5662,,4,,,Active,,,https://www.redfin.com/OH/Columbus/Aberdeen-Ave-43211/home/75708913,CBRMLS,224032770,N,Y,40.018678,-82.907014
MLS Listing,,Vacant Land,0 Aberdeen Ave,Columbus,OH,43211,70000,,,Mifflin,,5662,,4,,,Active,,,https://www.redfin.com/OH/Columbus/Aberdeen-Ave-43211/home/75686894,CBRMLS,224032769,N,Y,40.01867,-82.906837
MLS Listing,,Vacant Land,0 Aberdeen Ave,Columbus,OH,43211,70000,,,Mifflin,,5662,,4,,,Active,,,https://www.redfin.com/OH/Columbus/Aberdeen-Ave-43211/home/100766277,CBRMLS,224032768,N,Y,40.018368,-82.910682
MLS Listing,,Single Family Residential,3251 Omega Dr,Columbus,OH,43231,324900,3,2.5,,2000,6098,1999,4,162,,Pre On-Market,,,https://www.redfin.com/OH/Columbus/3251-Omega-Dr-43231/home/79734638,CBRMLS,224032767,N,Y,40.0707994,-82.9357684
MLS Listing,,Single Family Residential,3001 Talbrock Cir,Dublin,OH,43017,250000,3,1.5,,1220,2178,1980,4,205,19,Pre On-Market,September-29-2024 02:00 PM,September-29-2024 04:00 PM,https://www.redfin.com/OH/Dublin/3001-Talbrock-Cir-43017/home/79563566,CBRMLS,224032766,N,Y,40.0841321,-83.096985
MLS Listing,,Vacant Land,0 Aberdeen Ave,Columbus,OH,43211,70000,,,Mifflin,,5662,,4,,,Active,,,https://www.redfin.com/OH/Columbus/Aberdeen-Ave-43211/home/75611745,CBRMLS,224032765,N,Y,40.018378,-82.910877
MLS Listing,,Single Family Residential,1564 Loretta Ave,Columbus,OH,43211,170000,3,1.0,,1056,6098,1941,4,161,,Active,,,https://www.redfin.com/OH/Columbus/1564-Loretta-Ave-43211/home/75626457,CBRMLS,224032764,N,Y,40.0148028,-82.9682811
MLS Listing,,Vacant Land,0 Stelzer Rd,Columbus,OH,43230,70000,,,Mifflin,,4791,,4,,,Active,,,https://www.redfin.com/OH/Columbus/0-Stelzer-Rd-43219/home/183623163,CBRMLS,224032760,N,Y,39.9896287,-82.9143028
MLS Listing,,Vacant Land,0 Aberdeen Ave,Columbus,OH,43211,70000,,,Mifflin,,5662,,4,,,Active,,,https://www.redfin.com/OH/Columbus/Aberdeen-Ave-43211/home/75708921,CBRMLS,224032739,N,Y,40.018736,-82.908259
MLS Listing,,Single Family Residential,226 Croswell Rd,Columbus,OH,43214,749900,3,3.0,,2310,29620,1959,4,325,,Active,,,https://www.redfin.com/OH/Columbus/226-Croswell-Rd-43214/home/79591422,CBRMLS,224032727,N,Y,40.0463738,-83.0259736
MLS Listing,,Condo/Co-op,5359 Stonemeadow Ave Unit SA5359,Columbus,OH,43220,150000,1,1.0,,702,871,1988,4,214,178,Active,,,https://www.redfin.com/OH/Columbus/5359-Stonemeadow-Ave-43220/unit-SA5359/home/100716428,CBRMLS,224032723,N,Y,40.0638968,-83.0912276
MLS Listing,,Single Family Residential,1744 E 24th Ave,Columbus,OH,43219,310000,5,2.5,,1563,7405,2007,4,198,,Active,,,https://www.redfin.com/OH/Columbus/1744-E-24th-Ave-43219/home/79735267,CBRMLS,224032717,N,Y,40.0060386,-82.9616321
MLS Listing,,Single Family Residential,3509 Bigby Hollow Ct,Columbus,OH,43228,399900,4,3.0,,2360,7840,1984,4,169,,Active,,,https://www.redfin.com/OH/Columbus/3509-Bigby-Hollow-Ct-43228/home/79522783,CBRMLS,224032716,N,Y,39.9969804,-83.1004247
MLS Listing,,Multi-Family (2-4 Unit),391-393 E 17th Ave Ave #391,Columbus,OH,43201,588000,,,,3125,4791,1912,4,188,,Active,,,https://www.redfin.com/OH/Columbus/391-393-E-17th-Ave-43201/unit-391/home/192561145,CBRMLS,224032714,N,Y,40.001016,-82.997601
MLS Listing,,Single Family Residential,506 Maple Dr,Columbus,OH,43228,227500,3,1.5,Prairie,1206,8276,1957,4,189,,Active,,,https://www.redfin.com/OH/Columbus/506-Maple-Dr-43228/home/79556281,CBRMLS,224032709,N,Y,39.9623846,-83.1384296
MLS Listing,,Multi-Family (2-4 Unit),1818 Ashland Ave,Columbus,OH,43212,700000,4,,,2280,9147,1946,4,307,,Active,,,https://www.redfin.com/OH/Columbus/1818-Ashland-Ave-43212/home/75639152,CBRMLS,224032705,N,Y,39.9945235,-83.049667
MLS Listing,,Condo/Co-op,4999 Chuckleberry Ln #6,Westerville,OH,43081,249900,2,2.5,,1382,871,1973,4,181,396,Active,September-22-2024 01:00 PM,September-22-2024 03:00 PM,https://www.redfin.com/OH/Westerville/4999-Chuckleberry-Ln-43081/unit-6/home/75617389,CBRMLS,224032699,N,Y,40.0861362,-82.8820722
MLS Listing,,Single Family Residential,1060 E Long St,Columbus,OH,43203,375000,4,2.5,,2332,4356,1900,4,161,,Active,,,https://www.redfin.com/OH/Columbus/1060-E-Long-St-43203/home/79547633,CBRMLS,224032698,N,Y,39.9683817,-82.9731305
MLS Listing,,Single Family Residential,38 Haldy Ave,Columbus,OH,43204,267000,3,1.5,,1400,8276,1925,4,191,,Active,,,https://www.redfin.com/OH/Columbus/38-Haldy-Ave-43204/home/79660242,CBRMLS,224032697,N,Y,39.9555796,-83.0792752
MLS Listing,,Single Family Residential,148 W Park Ave,Columbus,OH,43222,178800,3,1.0,,1444,3484,1900,4,124,,Active,,,https://www.redfin.com/OH/Columbus/148-W-Park-Ave-43222/home/100734496,CBRMLS,224032696,N,Y,39.9553151,-83.0323898
MLS Listing,,Single Family Residential,1769 Bar Harbor Rd,Columbus,OH,43219,199000,3,1.0,,1182,6534,1971,4,168,,Active,,,https://www.redfin.com/OH/Columbus/1769-Bar-Harbor-Rd-43219/home/79670507,CBRMLS,224032692,N,Y,40.0054274,-82.9433254
MLS Listing,,Single Family Residential,351 Loeffler Ave,Columbus,OH,43205,2300000,2,1.5,,1394,1742,2020,4,1650,,Active,,,https://www.redfin.com/OH/Columbus/351-Loeffler-Ave-43205/home/178339422,CBRMLS,224032691,N,Y,39.9593143,-82.9618989
MLS Listing,,Single Family Residential,3582 Norwood St,Columbus,OH,43224,210000,3,1.0,,1106,5662,1953,4,190,,Active,,,https://www.redfin.com/OH/Columbus/3582-Norwood-St-43224/home/79573757,CBRMLS,224032684,N,Y,40.0401289,-82.9711382
MLS Listing,,Single Family Residential,496 S Third St,Columbus,OH,43215,769000,4,2.5,,3650,3484,1909,4,211,,Active,,,https://www.redfin.com/OH/Columbus/496-S-3rd-St-43215/home/75668753,CBRMLS,224032632,N,Y,39.9522713,-82.995717
MLS Listing,,Single Family Residential,4140 Hannah Jayne,New Albany,OH,43054,524900,4,4.0,,3396,6098,2018,4,155,230,Active,,,https://www.redfin.com/OH/New-Albany/4140-Hannah-Jayne-43054/home/109571228,CBRMLS,224032304,N,Y,40.0650607,-82.8493686
MLS Listing,,Single Family Residential,843 Hamlet St,Columbus,OH,43215,1295000,4,5.5,,3736,5662,2002,4,347,,Active,,,https://www.redfin.com/OH/Columbus/843-Hamlet-St-43215/home/79591096,CBRMLS,224032659,N,Y,39.9800951,-82.9997913
MLS Listing,,Single Family Residential,573 Theori Ave,Columbus,OH,43230,369900,4,2.5,Mifflin,1972,10018,1977,4,188,,Active,,,https://www.redfin.com/OH/Columbus/573-Theori-Ave-43230/home/75635707,CBRMLS,224031323,N,Y,40.0325176,-82.8567216
MLS Listing,,Single Family Residential,510 Beaverbrook Dr,Columbus,OH,43230,468900,4,2.5,Mifflin,2351,26571,1994,4,199,,Active,,,https://www.redfin.com/OH/Columbus/510-Beaverbrook-Dr-43230/home/79676695,CBRMLS,224032343,N,Y,40.0069716,-82.854584
MLS Listing,,Single Family Residential,3023 Green Line Way,Columbus,OH,43231,464500,3,3.0,Blendon,2178,6534,2017,4,213,,Active,,,https://www.redfin.com/OH/Columbus/3023-Green-Line-Way-43231/home/113780847,CBRMLS,224031894,N,Y,40.0764404,-82.9372225
MLS Listing,,Condo/Co-op,2520 Dahlia Way Unit 60D,Columbus,OH,43235,249900,2,1.5,,1255,435,1992,4,199,302,Active,,,https://www.redfin.com/OH/Columbus/2520-Dahlia-Way-43235/unit-60D/home/79608801,CBRMLS,224032261,N,Y,40.0676253,-83.0833185
MLS Listing,,Single Family Residential,2032 Scioto Pointe Dr,Columbus,OH,43221,1249000,4,3.5,,4358,16117,1997,4,287,183,Active,September-22-2024 01:00 PM,September-22-2024 03:00 PM,https://www.redfin.com/OH/Columbus/2032-Scioto-Pointe-Dr-43221/home/75616527,CBRMLS,224032021,N,Y,39.9971583,-83.0754673
MLS Listing,,Single Family Residential,117 N Stanwood Rd,Columbus,OH,43209,629500,4,3.5,,2027,6534,1939,4,311,,Active,,,https://www.redfin.com/OH/Columbus/117-N-Stanwood-Rd-43209/home/79485627,CBRMLS,224032456,N,Y,39.9731595,-82.9277329
MLS Listing,,Single Family Residential,4844 Cryodon Blvd N,Columbus,OH,43232,275000,4,2.0,,1622,16117,1965,4,170,,Active,,,https://www.redfin.com/OH/Columbus/4844-Cryodon-Blvd-N-43232/home/75691500,CBRMLS,224032460,N,Y,39.9210775,-82.8622465
MLS Listing,,Condo/Co-op,7143 Billy Goat Dr #46,New Albany,OH,43054,309000,2,2.5,,1616,871,2005,4,191,307,Active,September-22-2024 02:00 PM,September-22-2024 04:00 PM,https://www.redfin.com/OH/New-Albany/7143-Billy-Goat-Dr-43054/unit-46/home/100712166,CBRMLS,224032301,N,Y,40.1048557,-82.8250799
MLS Listing,,Single Family Residential,2037 Sutter Pkwy,Dublin,OH,43016,424900,3,1.5,,1654,7405,1987,4,257,,Active,,,https://www.redfin.com/OH/Dublin/2037-Sutter-Pkwy-43016/home/79527185,CBRMLS,224032245,N,Y,40.1195766,-83.0709309
MLS Listing,,Single Family Residential,689 Stag Pl,Gahanna,OH,43230,550000,4,2.5,Mifflin,3474,11325,1988,4,158,,Active,,,https://www.redfin.com/OH/Columbus/689-Stag-Pl-43230/home/79648407,CBRMLS,224032555,N,Y,40.0343361,-82.8555358
MLS Listing,,Single Family Residential,2249 Yorkshire Rd,Upper Arlington,OH,43221,2100000,4,4.0,,5412,14374,1937,4,388,,Active,,,https://www.redfin.com/OH/Columbus/2249-Yorkshire-Rd-43221/home/79688943,CBRMLS,224032187,N,Y,40.0013461,-83.0689239
MLS Listing,,Single Family Residential,154 Royal Farm E,Blacklick,OH,43004,429900,4,2.5,Jefferson,2920,8712,1998,4,147,4,Active,,,https://www.redfin.com/OH/Blacklick/154-Royal-Farm-E-43004/home/79584568,CBRMLS,224032451,N,Y,39.981008,-82.8024863
MLS Listing,,Single Family Residential,213 N 18th St,Columbus,OH,43203,330000,3,2.0,,1700,3920,1900,4,194,,Active,,,https://www.redfin.com/OH/Columbus/213-N-18th-St-43203/home/79740144,CBRMLS,224032014,N,Y,39.9696665,-82.9760248
MLS Listing,,Single Family Residential,1167 E 15th Ave,Columbus,OH,43211,144900,2,1.0,,760,2178,1923,4,191,,Active,,,https://www.redfin.com/OH/Columbus/1167-E-15th-Ave-43211/home/79501267,CBRMLS,224032387,N,Y,39.9983906,-82.9758861
MLS Listing,,Single Family Residential,2240 Concord Village Dr,Columbus,OH,43220,736000,4,2.5,,3457,12632,1981,4,213,21,Active,,,https://www.redfin.com/OH/Columbus/2240-Concord-Village-Dr-43220/home/75677309,CBRMLS,224032509,N,Y,40.0555506,-83.0799979
MLS Listing,,Single Family Residential,228 Hermitage Rd,Columbus,OH,43230,284900,3,2.0,Mifflin,1344,10018,1962,4,212,,Active,September-22-2024 10:00 AM,September-22-2024 12:00 PM,https://www.redfin.com/OH/Columbus/228-Hermitage-Rd-43230/home/79681859,CBRMLS,224032472,N,Y,40.0133002,-82.8862695
MLS Listing,,Single Family Residential,188 Shallotte Dr,Reynoldsburg,OH,43068,380000,3,2.5,,1942,6534,2015,5,196,22,Active,,,https://www.redfin.com/OH/Reynoldsburg/188-Shallotte-Dr-43068/home/100726064,CBRMLS,224032681,N,Y,39.9802332,-82.8070439
MLS Listing,,Multi-Family (2-4 Unit),1334-36 Oak St,Columbus,OH,43205,295000,4,,Franklin,2212,,1890,5,133,,Active,,,https://www.redfin.com/OH/Columbus/1334-1336-Oak-St-43205/home/192548080,CBRMLS,224032679,N,Y,39.962677,-82.964432
MLS Listing,,Single Family Residential,23 W Kossuth St,Columbus,OH,43206,550000,5,2.5,,2700,1742,1900,5,204,,Pre On-Market,September-21-2024 01:00 PM,September-21-2024 03:00 PM,https://www.redfin.com/OH/Columbus/23-W-Kossuth-St-43206/home/75628731,CBRMLS,224032675,N,Y,39.9450884,-82.9980725
MLS Listing,,Single Family Residential,252 E Beechwold Blvd,Columbus,OH,43214,379900,4,2.0,,1374,7405,1955,5,276,,Active,,,https://www.redfin.com/OH/Columbus/252-E-Beechwold-Blvd-43214/home/75628195,CBRMLS,224030736,N,Y,40.0597285,-83.0126581
MLS Listing,,Condo/Co-op,1936 Willoway Cir S,Columbus,OH,43220,256000,3,1.5,,1480,871,1971,5,173,280,Active,,,https://www.redfin.com/OH/Columbus/1936-Willoway-Cir-S-43220/home/79635261,CBRMLS,224032674,N,Y,40.0572252,-83.0702067
MLS Listing,,Condo/Co-op,5483 Parkshire Dr,Columbus,OH,43229,219777,2,2.0,,1058,1742,1997,5,208,308,Active,,,https://www.redfin.com/OH/Columbus/5483-Parkshire-Dr-43229/home/79531124,CBRMLS,224030959,N,Y,40.0822563,-82.9563371
MLS Listing,,Single Family Residential,5893 Rainwater Way,Columbus,OH,43228,359900,3,2.5,,1688,7405,2001,5,213,,Pre On-Market,,,https://www.redfin.com/OH/Columbus/5893-Rainwater-Way-43228/home/79491431,CBRMLS,224032668,N,Y,39.965893,-83.1586912
MLS Listing,,Single Family Residential,2095 Emmys Way,Columbus,OH,43228,499000,3,2.5,,2786,7405,2016,5,179,20,Active,,,https://www.redfin.com/OH/Columbus/2095-Emmys-Way-43228/home/100726081,CBRMLS,224032663,N,Y,39.9961363,-83.1140666
MLS Listing,,Condo/Co-op,5903 Parchment Dr,Westerville,OH,43081,415000,3,2.0,,1843,,2013,5,225,,Active,,,https://www.redfin.com/OH/Westerville/5903-Parchment-Dr-43081/home/79731738,CBRMLS,224032657,N,Y,40.0998921,-82.8670257
MLS Listing,,Condo/Co-op,2685 Cedar Lake Dr,Dublin,OH,43016,239900,2,1.5,,1442,435,1984,5,166,250,Pre On-Market,September-19-2024 06:00 PM,September-19-2024 08:00 PM,https://www.redfin.com/OH/Dublin/2685-Cedar-Lake-Dr-43016/home/79536530,CBRMLS,224032653,N,Y,40.1207933,-83.0876046
MLS Listing,,Single Family Residential,1430 E Rich St,Columbus,OH,43205,589000,3,3.5,,2814,2613,2022,5,209,,Active,,,https://www.redfin.com/OH/Columbus/1430-E-Rich-St-43205/home/178719830,CBRMLS,224032652,N,Y,39.9592405,-82.9611406
MLS Listing,,Single Family Residential,5381 Deforest Dr,Columbus,OH,43232,240000,4,2.0,Madison,1200,7840,1970,5,200,,Active,,,https://www.redfin.com/OH/Columbus/5381-Deforest-Dr-43232/home/75685335,CBRMLS,224032649,N,Y,39.9079543,-82.8566641
MLS Listing,,Single Family Residential,5350 Mendon Ct,Columbus,OH,43232,279999,4,2.5,,1698,5662,1996,5,165,,Active,,,https://www.redfin.com/OH/Columbus/5350-Mendon-Ct-43232/home/79510615,CBRMLS,224032647,N,Y,39.9171162,-82.84654
MLS Listing,,Single Family Residential,1128 E 24th Ave,Columbus,OH,43211,90000,3,1.0,,979,4791,1948,5,92,,Active,,,https://www.redfin.com/OH/Columbus/1128-E-24th-Ave-43211/home/75660087,CBRMLS,224032640,N,Y,40.006907,-82.9786546
MLS Listing,,Single Family Residential,3421 Kenlawn St,Columbus,OH,43224,259900,3,2.0,,988,6098,1958,5,263,,Active,,,https://www.redfin.com/OH/Columbus/3421-Kenlawn-St-43224/home/79737472,CBRMLS,224032639,N,Y,40.0370997,-82.9682297
MLS Listing,,Single Family Residential,1855 Franklin Park S,Columbus,OH,43205,469900,5,1.5,,2575,6098,1920,5,182,,Pre On-Market,,,https://www.redfin.com/OH/Columbus/1855-Franklin-Park-S-43205/home/75667236,CBRMLS,224032636,N,Y,39.9628361,-82.9505339
MLS Listing,,Single Family Residential,2159 Waldorf Rd,Columbus,OH,43229,349000,4,2.5,,2460,7405,1968,5,142,,Active,,,https://www.redfin.com/OH/Columbus/2159-Waldorf-Rd-43229/home/79550843,CBRMLS,224032635,N,Y,40.0689935,-82.9608291
MLS Listing,,Condo/Co-op,6254 Glenabby Dr #2,Westerville,OH,43081,399900,4,3.0,,2137,1742,2005,5,187,327,Active,,,https://www.redfin.com/OH/Westerville/6254-Glenabby-Dr-43081/unit-2/home/79496005,CBRMLS,224032630,N,Y,40.0901439,-82.8494129
MLS Listing,,Mobile/Manufactured Home,4379 Wesley Trail Trl,Columbus,OH,43207,149000,3,2.0,Hamilton,1865,,1997,5,80,415,Active,,,https://www.redfin.com/OH/Obetz/4379-Wesley-Trl-43207/home/192542857,CBRMLS,224032631,N,Y,39.8716602,-82.9798913
MLS Listing,,Single Family Residential,5664 Matuka Dr,Columbus,OH,43232,300000,3,2.5,,1704,6098,2002,5,176,,Pre On-Market,September-28-2024 01:00 PM,September-28-2024 03:00 PM,https://www.redfin.com/OH/Columbus/5664-Matuka-Dr-43232/home/79609341,CBRMLS,224032628,N,Y,39.9122783,-82.8442295
MLS Listing,,Single Family Residential,6272 Chelmsford Sq E,Columbus,OH,43229,265000,3,2.0,,1352,7405,1964,5,196,,Pre On-Market,,,https://www.redfin.com/OH/Columbus/6272-Chelmsford-Sq-E-43229/home/79544916,CBRMLS,224032622,N,Y,40.0951215,-82.9768048
MLS Listing,,Condo/Co-op,4696 Tarryton Ct S Unit 7-1H,Columbus,OH,43228,77000,1,1.0,Prairie,784,871,1967,5,98,273,Active,,,https://www.redfin.com/OH/Columbus/4696-Tarryton-Ct-S-43228/unit-7-1H/home/100768378,CBRMLS,224032621,N,Y,39.9549633,-83.1260328
MLS Listing,,Single Family Residential,2516 Hickory Pine Ln,Grove City,OH,43123,259000,2,2.5,,1335,3049,2005,5,194,80,Active,September-19-2024 05:00 PM,September-19-2024 07:00 PM,https://www.redfin.com/OH/Grove-City/2516-Hickory-Pine-Ln-43123/home/79599971,CBRMLS,224032611,N,Y,39.9012449,-83.1094149
MLS Listing,,Single Family Residential,8800 Shillington Dr,Powell,OH,43065,499999,4,2.5,,3150,12196,1989,5,159,,Pre On-Market,September-19-2024 04:30 PM,September-19-2024 07:30 PM,https://www.redfin.com/OH/Powell/8800-Shillington-Dr-43065/home/79517495,CBRMLS,224032606,N,Y,40.1356264,-83.0805666
MLS Listing,,Single Family Residential,2841 Gablewood Dr,Columbus,OH,43219,379900,3,2.5,,1688,7405,2007,5,225,,Active,,,https://www.redfin.com/OH/Columbus/2841-Gablewood-Dr-43219/home/79667258,CBRMLS,224032601,N,Y,40.0300548,-82.9240367
MLS Listing,,Single Family Residential,379 Beecher Rd,Columbus,OH,43230,609998,5,3.5,Mifflin,4100,15681,1995,5,149,10,Active,,,https://www.redfin.com/OH/Columbus/379-Beecher-Rd-43230/home/79684306,CBRMLS,224032596,N,Y,40.0458929,-82.8684187
MLS Listing,,Single Family Residential,428 Postle Blvd,Columbus,OH,43228,391000,4,2.5,Prairie,2062,7405,2024,5,190,,Active,September-21-2024 01:00 PM,September-21-2024 03:00 PM,https://www.redfin.com/OH/Columbus/428-Postle-Blvd-43228/home/192540830,CBRMLS,224032593,N,Y,39.9431499,-83.1360928
MLS Listing,,Single Family Residential,4388 Dublin Rd,Columbus,OH,43221,3200000,4,3.5,Norwich,4938,122403,1935,5,648,38,Pre On-Market,,,https://www.redfin.com/OH/Columbus/4388-Dublin-Rd-43221/home/79543535,CBRMLS,224032588,N,Y,40.0524028,-83.0984509
MLS Listing,,Single Family Residential,475 E Beck St,Columbus,OH,43206,699900,3,2.5,,1650,4356,1900,5,424,,Active,,,https://www.redfin.com/OH/Columbus/475-E-Beck-St-43206/home/75625926,CBRMLS,224032585,N,Y,39.949995,-82.9851204
MLS Listing,,Single Family Residential,6567 Bowery Peak Ln,Westerville,OH,43081,549999,4,2.5,,2336,7405,2023,5,235,33,Active,,,https://www.redfin.com/OH/Westerville/6567-Bowery-Peak-Ln-43081/home/185064153,CBRMLS,224032584,N,Y,40.114248,-82.862194
MLS Listing,,Single Family Residential,3155 Hamilton Ave,Columbus,OH,43224,290000,3,1.0,,1148,5662,1952,5,253,,Active,,,https://www.redfin.com/OH/Columbus/3155-Hamilton-Ave-43224/home/79554841,CBRMLS,224032575,N,Y,40.0307952,-82.9779337
MLS Listing,,Single Family Residential,74 S Weyant Ave,Columbus,OH,43213,209900,3,1.5,,1162,5227,1951,5,181,,Active,,,https://www.redfin.com/OH/Columbus/74-S-Weyant-Ave-43213/home/75661282,CBRMLS,224032567,N,Y,39.9710143,-82.9067026
MLS Listing,,Single Family Residential,2899 Bryden Rd,Columbus,OH,43209,365000,3,1.5,,1441,8276,1950,5,253,,Active,,,https://www.redfin.com/OH/Columbus/2899-Bryden-Rd-43209/home/75660881,CBRMLS,224032565,N,Y,39.9584513,-82.9213466
MLS Listing,,Single Family Residential,5709 Firwood Pl,Columbus,OH,43229,390000,4,2.5,,2561,8712,1965,5,152,,Pre On-Market,September-22-2024 01:00 PM,September-22-2024 03:00 PM,https://www.redfin.com/OH/Columbus/5709-Firwood-Pl-43229/home/79477327,CBRMLS,224032563,N,Y,40.0830892,-82.9820671
MLS Listing,,Single Family Residential,2444 Bancroft St,Columbus,OH,43211,69680,3,1.0,,686,6969,1945,5,102,,Active,,,https://www.redfin.com/OH/Columbus/2444-Bancroft-St-43211/home/100737470,CBRMLS,224032559,N,Y,40.0174469,-82.9625142
MLS Listing,,Single Family Residential,36 N Gift St,Columbus,OH,43215,185000,2,1.0,,1600,3049,1900,5,116,,Active,,,https://www.redfin.com/OH/Columbus/36-N-Gift-St-43215/home/75669253,CBRMLS,224032556,N,Y,39.9613036,-83.015708
MLS Listing,,Single Family Residential,298 Clarendon Ave,Columbus,OH,43223,229900,3,2.0,,1548,5227,1920,5,149,,Active,,,https://www.redfin.com/OH/Columbus/298-Clarendon-Ave-43223/home/79520360,CBRMLS,224032476,N,Y,39.9494552,-83.0584485
MLS Listing,,Condo/Co-op,6385 Nottinghill Trail Dr #1,Canal Winchester,OH,43110,227000,2,1.5,,1632,435,2003,5,139,190,Active,,,https://www.redfin.com/OH/Canal-Winchester/6385-Nottinghill-Trail-Dr-43110/unit-1/home/100707934,CBRMLS,224032533,N,Y,39.8817004,-82.8244324
MLS Listing,,Single Family Residential,126 S Wheatland Ave,Columbus,OH,43204,174900,3,2.0,,1672,4356,1900,5,105,,Active,,,https://www.redfin.com/OH/Columbus/126-S-Wheatland-Ave-43204/home/75593802,CBRMLS,224032532,N,Y,39.9527146,-83.0615895
MLS Listing,,Single Family Residential,3002 Crocker Run Rd,Grove City,OH,43123,305000,3,2.5,,1552,5662,1999,5,197,,Active,,,https://www.redfin.com/OH/Grove-City/3002-Crocker-Run-Rd-43123/home/79541418,CBRMLS,224032530,N,Y,39.9152118,-83.0739994
MLS Listing,,Single Family Residential,1262 Fair Ave,Columbus,OH,43205,453000,4,3.0,,2083,3049,1890,5,217,,Active,,,https://www.redfin.com/OH/Columbus/1262-Fair-Ave-43205/home/79630712,CBRMLS,224032528,N,Y,39.9640701,-82.966666
MLS Listing,,Single Family Residential,2881 Morality Dr,Columbus,OH,43231,369900,4,3.5,,1743,5662,2001,5,212,,Active,,,https://www.redfin.com/OH/Columbus/2881-Morality-Dr-43231/home/100782491,CBRMLS,224032527,N,Y,40.0698968,-82.9417039
MLS Listing,,Single Family Residential,3968 Middlemore Dr,Columbus,OH,43219,375000,4,3.0,,2150,6098,2007,5,174,65,Active,September-22-2024 02:00 PM,September-22-2024 04:00 PM,https://www.redfin.com/OH/Columbus/3968-Middlemore-Dr-43219/home/100714642,CBRMLS,224032525,N,Y,40.0298018,-82.908316
MLS Listing,,Condo/Co-op,5763 Albany Grn,Westerville,OH,43081,264900,2,2.5,,1526,1306,1997,5,174,295,Active,,,https://www.redfin.com/OH/Westerville/5763-Albany-Grn-43081/home/75722798,CBRMLS,224032524,N,Y,40.0776219,-82.8681451
MLS Listing,,Single Family Residential,5022 Cheviot Dr,Columbus,OH,43220,399900,4,2.5,,2013,8276,1968,5,199,,Active,,,https://www.redfin.com/OH/Columbus/5022-Cheviot-Dr-43220/home/79640355,CBRMLS,224032153,N,Y,40.0611436,-83.0506764
MLS Listing,,Condo/Co-op,4351 Seahorse Ln,Groveport,OH,43125,172000,2,1.0,,805,871,2003,5,214,270,Active,,,https://www.redfin.com/OH/Groveport/4351-Seahorse-Ln-43125/home/100707826,CBRMLS,224031231,N,Y,39.8887173,-82.8729374
MLS Listing,,Single Family Residential,208 E Markison Ave,Columbus,OH,43207,354900,3,1.0,,1366,5227,1926,5,260,,Active,,,https://www.redfin.com/OH/Columbus/208-E-Markison-Ave-43207/home/79525637,CBRMLS,224032252,N,Y,39.9313603,-82.9901824
MLS Listing,,Condo/Co-op,5265 Berrywood Dr #5265,Columbus,OH,43220,250000,2,1.5,,1500,871,1984,5,167,383,Active,,,https://www.redfin.com/OH/Columbus/5265-Berrywood-Dr-43220/unit-5265/home/79564944,CBRMLS,224032148,N,Y,40.064568,-83.063835
MLS Listing,,Single Family Residential,2356 Eastcleft Dr,Upper Arlington,OH,43221,995000,4,3.5,,3400,18295,2018,5,293,,Active,,,https://www.redfin.com/OH/Columbus/2356-Eastcleft-Dr-43221/home/100757207,CBRMLS,224032328,N,Y,40.0215765,-83.0765184
MLS Listing,,Condo/Co-op,591 Olentangy Woods Dr,Columbus,OH,43235,399900,3,4.0,,1920,1306,1999,5,208,275,Active,September-22-2024 01:00 PM,September-22-2024 03:00 PM,https://www.redfin.com/OH/Columbus/591-Olentangy-Woods-Dr-43235/home/79567052,CBRMLS,224032231,N,Y,40.0638325,-83.0361798
MLS Listing,,Single Family Residential,1167 Northwest Blvd,Columbus,OH,43212,675000,3,2.0,,1680,7405,1929,5,402,,Active,,,https://www.redfin.com/OH/Columbus/1167-Northwest-Blvd-43212/home/79509759,CBRMLS,224032102,N,Y,39.982408,-83.0357514
MLS Listing,,Condo/Co-op,944 Shaula Dr,Columbus,OH,43240,386000,3,3.5,Orange,2275,36154,2005,5,170,365,Active,,,https://www.redfin.com/OH/Columbus/944-Shaula-Dr-43240/home/70238735,CBRMLS,224032256,N,Y,40.1569884,-82.9935574
MLS Listing,,Condo/Co-op,5589 Mesa Falls St #15,Dublin,OH,43016,274900,2,2.5,,1288,435,2006,5,213,259,Active,,,https://www.redfin.com/OH/Dublin/5589-Mesa-Falls-St-43016/unit-15/home/75718713,CBRMLS,224032204,N,Y,40.0572024,-83.1710478
MLS Listing,,Single Family Residential,6000 Chesterton Sq E,Columbus,OH,43229,290000,3,2.0,,1212,7405,1962,5,239,,Active,,,https://www.redfin.com/OH/Columbus/6000-Chesterton-Sq-E-43229/home/79517910,CBRMLS,224032133,N,Y,40.0895056,-82.9772097
MLS Listing,,Single Family Residential,1999 Schrive Dr,Hilliard,OH,43026,339900,3,2.5,,1797,10890,2002,5,189,20,Active,,,https://www.redfin.com/OH/Hilliard/1999-Schrive-Dr-43026/home/79699024,CBRMLS,224031873,N,Y,39.9920951,-83.1639061
MLS Listing,,Condo/Co-op,8177 Overcup Dr,Blacklick,OH,43004,239900,2,2.5,,1282,435,2007,5,187,289,Active,,,https://www.redfin.com/OH/Blacklick/8177-Overcup-Dr-43004/home/100718908,CBRMLS,224032025,N,Y,39.9921447,-82.7848476
MLS Listing,,Single Family Residential,178 W 1st Ave,Columbus,OH,43201,750000,3,2.5,,2670,4791,1900,5,281,,Active,,,https://www.redfin.com/OH/Columbus/178-W-1st-Ave-43201/home/79719623,CBRMLS,224031904,N,Y,39.9804928,-83.0091574
MLS Listing,,Single Family Residential,404 E Maynard Ave,Columbus,OH,43202,260000,2,2.0,,1040,2613,1900,5,250,,Active,,,https://www.redfin.com/OH/Columbus/404-E-Maynard-Ave-43202/home/79597801,CBRMLS,224031969,N,Y,40.011252,-82.9995208
MLS Listing,,Single Family Residential,1442 S 4th St,Columbus,OH,43207,359900,3,2.0,,1620,3920,1918,5,222,,Active,,,https://www.redfin.com/OH/Columbus/1442-S-4th-St-43207/home/79483630,CBRMLS,224032375,N,Y,39.9329482,-82.9925301
MLS Listing,,Single Family Residential,6816 Shadow Dr,Westerville,OH,43081,485000,4,2.5,,3043,11761,2001,5,159,,Active,,,https://www.redfin.com/OH/Westerville/6816-Shadow-Dr-43081/home/75722841,CBRMLS,224032050,N,Y,40.0953215,-82.839249
MLS Listing,,Condo/Co-op,7757 Hansgrove Ct,Dublin,OH,43016,230000,2,1.5,,1024,435,1982,5,225,210,Active,,,https://www.redfin.com/OH/Dublin/7757-Hansgrove-Ct-43016/home/75649154,CBRMLS,224032046,N,Y,40.1249654,-83.0873122
MLS Listing,,Single Family Residential,255 S Princeton Ave,Columbus,OH,43223,240000,3,1.0,,1152,3920,1908,5,208,,Active,,,https://www.redfin.com/OH/Columbus/255-S-Princeton-Ave-43223/home/75628094,CBRMLS,224032297,N,Y,39.9529323,-83.0338412
MLS Listing,,Condo/Co-op,765 Parkgrove Way,Lewis Center,OH,43035,249900,2,2.0,,1344,62290,1997,5,186,200,Active,,,https://www.redfin.com/OH/Lewis-Center/765-Parkgrove-Way-43035/home/70261445,CBRMLS,224032492,N,Y,40.1502061,-82.9996352
MLS Listing,,Single Family Residential,1138 Devlin Ct,Columbus,OH,43228,359900,4,2.5,,1488,9147,1994,5,242,,Active,,,https://www.redfin.com/OH/Columbus/1138-Devlin-Ct-43228/home/79670596,CBRMLS,224031149,N,Y,39.9744387,-83.1617362
MLS Listing,,Condo/Co-op,2562 Scioto View Ln Unit F,Columbus,OH,43221,249900,3,1.5,Perry,1265,435,1970,5,198,411,Active,,,https://www.redfin.com/OH/Columbus/2562-Scioto-View-Ln-43221/unit-F/home/100716034,CBRMLS,224032369,N,Y,40.0057033,-83.0837182
MLS Listing,,Single Family Residential,879 S Hampton Rd,Columbus,OH,43227,155000,3,1.0,,864,7405,1952,5,179,,Active,September-22-2024 01:00 PM,September-22-2024 03:00 PM,https://www.redfin.com/OH/Columbus/879-S-Hampton-Rd-43227/home/79628636,CBRMLS,224032258,N,Y,39.9536132,-82.9114186
MLS Listing,,Single Family Residential,4858 Widner St,Columbus,OH,43220,399900,4,2.0,,1639,8712,1971,5,244,,Active,,,https://www.redfin.com/OH/Columbus/4858-Widner-St-43220/home/79567582,CBRMLS,224032013,N,Y,40.0567497,-83.0604047
MLS Listing,,Condo/Co-op,4760 Crazy Horse Ln #3,Westerville,OH,43081,249900,2,2.5,,1983,871,1974,5,126,750,Active,September-22-2024 01:00 AM,September-22-2024 03:00 PM,https://www.redfin.com/OH/Westerville/4760-Crazy-Horse-Ln-43081/unit-3/home/100778732,CBRMLS,224032161,N,Y,40.0873432,-82.888237
MLS Listing,,Single Family Residential,4520 Zeller Rd,Columbus,OH,43214,535000,3,2.0,,1729,10454,1938,5,309,,Active,,,https://www.redfin.com/OH/Columbus/4520-Zeller-Rd-43214/home/75628624,CBRMLS,224032413,N,Y,40.0538014,-83.0246197
MLS Listing,,Condo/Co-op,1557 Lafayette Dr Unit B,Columbus,OH,43220,230000,2,1.5,,1075,1306,1966,5,214,490,Active,,,https://www.redfin.com/OH/Columbus/1557-Lafayette-Dr-43220/unit-B/home/79498354,CBRMLS,224032160,N,Y,40.0482,-83.062443
MLS Listing,,Single Family Residential,1203 Streamview Dr,Blacklick,OH,43004,329900,3,2.5,Jefferson,1350,7405,2003,5,244,20,Active,,,https://www.redfin.com/OH/Blacklick/1203-Streamview-Dr-43004/home/100703932,CBRMLS,224031550,N,Y,40.0100451,-82.7940743
MLS Listing,,Condo/Co-op,544 S Front St #110,Columbus,OH,43215,315000,2,2.5,,1110,13939,1920,5,284,365,Active,,,https://www.redfin.com/OH/Columbus/544-S-Front-St-43215/unit-110/home/79611994,CBRMLS,224032505,N,Y,39.9505581,-82.9999285
MLS Listing,,Single Family Residential,2059 Sawbury Blvd,Columbus,OH,43235,414900,3,2.5,,2100,10454,1979,5,198,,Active,,,https://www.redfin.com/OH/Columbus/2059-Sawbury-Blvd-43235/home/79518313,CBRMLS,224031722,N,Y,40.1134708,-83.0707213
MLS Listing,,Condo/Co-op,796 Timber Way Dr Unit 15B,Columbus,OH,43085,189900,2,2.0,,980,871,1986,5,194,305,Active,,,https://www.redfin.com/OH/Columbus/796-Timber-Way-Dr-43085/unit-15B/home/100780216,CBRMLS,224032066,N,Y,40.1207188,-82.9957064
MLS Listing,,Single Family Residential,1751 E Cooke Rd,Columbus,OH,43224,220000,3,1.0,,980,9583,1955,5,224,,Active,,,https://www.redfin.com/OH/Columbus/1751-E-Cooke-Rd-43224/home/79559980,CBRMLS,224032364,N,Y,40.0450259,-82.9687499
MLS Listing,,Single Family Residential,3997 Sweet Shadow Ave,Columbus,OH,43230,334900,3,2.5,,1542,3920,2006,5,217,127,Active,,,https://www.redfin.com/OH/Columbus/3997-Sweet-Shadow-Ave-43230/home/75716756,CBRMLS,224030929,N,Y,40.0612353,-82.8545931
MLS Listing,,Condo/Co-op,535 W 1st Ave #103,Columbus,OH,43215,287500,1,1.0,,837,1306,2006,5,343,307,Active,,,https://www.redfin.com/OH/Columbus/535-W-1st-Ave-43215/unit-103/home/75718810,CBRMLS,224032062,N,Y,39.9805875,-83.0189307
MLS Listing,,Single Family Residential,365 S Roys Ave,Columbus,OH,43204,249900,3,1.0,,1971,4791,1951,5,127,,Active,,,https://www.redfin.com/OH/Columbus/365-S-Roys-Ave-43204/home/79581991,CBRMLS,224032432,N,Y,39.9471324,-83.0772595
MLS Listing,,Single Family Residential,1381 Zollinger Rd,Columbus,OH,43221,525000,4,3.0,,1968,13503,1959,5,267,,Active,,,https://www.redfin.com/OH/Columbus/1381-Zollinger-Rd-43221/home/79686167,CBRMLS,224032072,N,Y,40.0188353,-83.0489394
MLS Listing,,Condo/Co-op,10 Hanford St,Columbus,OH,43206,249900,2,1.0,,1080,435,1920,6,231,303,Active,September-22-2024 12:00 PM,September-22-2024 02:00 PM,https://www.redfin.com/OH/Columbus/10-Hanford-St-43206/home/75621187,CBRMLS,224032518,N,Y,39.9369539,-82.9955247
MLS Listing,,Condo/Co-op,1963 Camino Ln Unit 15C,Hilliard,OH,43026,244900,2,2.5,,1024,435,1992,6,239,314,Active,,,https://www.redfin.com/OH/Hilliard/1963-Camino-Ln-43026/unit-15C/home/100772588,CBRMLS,224032516,N,Y,39.9911842,-83.1560514
MLS Listing,,Single Family Residential,725 Summertree Ln,Westerville,OH,43081,475000,4,2.5,,2270,8712,1989,6,209,,Pre On-Market,,,https://www.redfin.com/OH/Westerville/725-Summertree-Ln-43081/home/75650939,CBRMLS,224032515,N,Y,40.1307606,-82.9978821
MLS Listing,,Single Family Residential,869 Chittenden Ave,Columbus,OH,43211,169000,3,1.5,,1296,4356,2002,6,130,,Active,,,https://www.redfin.com/OH/Columbus/869-Chittenden-Ave-43211/home/79571726,CBRMLS,224032507,N,Y,39.9950295,-82.9831748
MLS Listing,,Single Family Residential,1599 Case Rd,Columbus,OH,43224,255000,3,2.0,,1080,8276,1959,6,236,,Active,,,https://www.redfin.com/OH/Columbus/1599-Case-Rd-43224/home/79522042,CBRMLS,224032498,N,Y,40.0484014,-82.9737751
MLS Listing,,Single Family Residential,1537 Chauncy Rd,Columbus,OH,43219,149900,2,1.0,,729,4791,1953,6,206,,Active,,,https://www.redfin.com/OH/Columbus/1537-Chauncy-Rd-43219/home/75630151,CBRMLS,224032494,N,Y,39.998924,-82.9635964
MLS Listing,,Single Family Residential,2518 Kreber Ave,Columbus,OH,43204,219900,3,2.0,,988,6098,1957,6,223,,Active,,,https://www.redfin.com/OH/Columbus/2518-Kreber-Ave-43204/home/75597524,CBRMLS,224032491,N,Y,39.9358264,-83.0644072
MLS Listing,,Single Family Residential,390 S Harris Ave,Columbus,OH,43204,149995,3,1.0,,1064,4356,1930,6,141,,Active,,,https://www.redfin.com/OH/Columbus/390-S-Harris-Ave-43204/home/75591048,CBRMLS,224032486,N,Y,39.9469296,-83.0719867
MLS Listing,,Condo/Co-op,3661 Hilliard Station Rd,Hilliard,OH,43026,169900,1,1.0,,912,871,1988,6,186,217,Active,,,https://www.redfin.com/OH/Hilliard/3661-Hilliard-Station-Rd-43026/home/75701721,CBRMLS,224032479,N,Y,40.021752,-83.1103836
MLS Listing,,Condo/Co-op,100 E Gay St #206,Columbus,OH,43215,264900,1,1.0,,882,8712,2006,6,300,424,Active,,,https://www.redfin.com/OH/Columbus/100-E-Gay-St-43215/unit-206/home/79705811,CBRMLS,224032478,N,Y,39.9642762,-82.9977787
MLS Listing,,Condo/Co-op,2831 Acarie Dr,Columbus,OH,43219,305000,2,2.5,,1792,1306,2006,6,170,201,Active,,,https://www.redfin.com/OH/Columbus/2831-Acarie-Dr-43219/home/79476768,CBRMLS,224032463,N,Y,40.0315015,-82.9050513
MLS Listing,,Single Family Residential,581 Crescent Rd,Columbus,OH,43204,230000,3,1.0,,1232,6534,1940,6,187,,Active,,,https://www.redfin.com/OH/Columbus/581-Crescent-Rd-43204/home/75675090,CBRMLS,224032458,N,Y,39.9425424,-83.0809262
MLS Listing,,Condo/Co-op,1299 Woodbrook Ln #225,Columbus,OH,43223,119000,2,1.5,,1024,435,1969,6,116,214,Active,,,https://www.redfin.com/OH/Columbus/1299-Woodbrook-Ln-43223/unit-225/home/100745366,CBRMLS,224032457,N,Y,39.9288641,-83.0599041
MLS Listing,,Vacant Land,3210 E 5th Ave,Columbus,OH,43219,45000,,,,1240,6098,1900,6,36,,Active,,,https://www.redfin.com/OH/Columbus/3210-E-5th-Ave-43219/home/79574805,CBRMLS,224032452,N,Y,39.9849373,-82.9179239
MLS Listing,,Single Family Residential,6370 E Marinelli Dr,Columbus,OH,43228,354900,3,2.5,Norwich,1635,2178,2024,6,217,190,Active,September-21-2024 12:00 PM,September-21-2024 05:00 PM,https://www.redfin.com/OH/Columbus/6370-Marinelli-Dr-S-43228/home/192524033,CBRMLS,224032448,N,Y,39.9790924,-83.1767846
MLS Listing,,Multi-Family (2-4 Unit),1786-1788 E Rich St,Columbus,OH,43205,425000,,,,2538,6534,1909,6,167,,Active,,,https://www.redfin.com/OH/Columbus/1786-1788-E-Rich-St-43205/home/192523376,CBRMLS,224032428,N,Y,39.959153,-82.951691
MLS Listing,,Condo/Co-op,5849 Edge Of Village Vlg,Westerville,OH,43081,260000,2,2.5,,1526,871,2001,6,170,295,Pre On-Market,,,https://www.redfin.com/OH/Westerville/5849-Edge-of-Vlg-43081/home/79655744,CBRMLS,224032416,N,Y,40.078361,-82.8655821
MLS Listing,,Multi-Family (2-4 Unit),1418-1422 Miller Ave,Columbus,OH,43206,350000,4,,,1792,7405,1950,6,195,,Active,,,https://www.redfin.com/OH/Columbus/1418-1422-Miller-Ave-43206/home/192523186,CBRMLS,224032415,N,Y,39.936593,-82.962704
MLS Listing,,Single Family Residential,1453 Burnley Sq N,Columbus,OH,43229,239900,4,2.0,,1492,7405,1963,6,161,,Pre On-Market,September-22-2024 02:00 PM,September-22-2024 04:00 PM,https://www.redfin.com/OH/Columbus/1453-Burnley-Sq-N-43229/home/79554646,CBRMLS,224032411,N,Y,40.0920925,-82.9779503
MLS Listing,,Single Family Residential,2469 Nedra St #19,Grove City,OH,43123,58000,3,1.0,,980,,1972,6,59,585,Active,,,https://www.redfin.com/OH/Grove-City/2469-Nedra-St-43123/unit-19/home/192523098,CBRMLS,224032410,N,Y,39.9071475,-83.071179
MLS Listing,,Single Family Residential,554 Hanford St,Columbus,OH,43206,159900,3,1.0,,1156,3920,1919,6,138,,Active,,,https://www.redfin.com/OH/Columbus/554-Hanford-St-43206/home/100732919,CBRMLS,224032405,N,Y,39.9363248,-82.9805836
MLS Listing,,Single Family Residential,1274 S Pearl St,Columbus,OH,43206,259900,2,1.0,,874,1742,1930,6,297,,Active,,,https://www.redfin.com/OH/Columbus/1274-S-Pearl-St-43206/home/79565362,CBRMLS,224032403,N,Y,39.9362123,-82.9951024
MLS Listing,,Condo/Co-op,2994 Glenloch Cir,Dublin,OH,43017,289000,3,2.0,Perry,1507,,1997,6,192,250,Pre On-Market,,,https://www.redfin.com/OH/Dublin/2994-Glenloch-Cir-43017/home/79725360,CBRMLS,224032400,N,Y,40.0955708,-83.0958749
MLS Listing,,Vacant Land,0 London Groveport Rd,Lockbourne,OH,43137,59000,,,Hamilton,,171190,,6,,,Active,,,https://www.redfin.com/OH/Lockbourne/0-London-Groveport-Rd-43137/home/192519010,CBRMLS,224032395,N,Y,39.8295388,-82.982727
MLS Listing,,Multi-Family (2-4 Unit),904 Kingsford Rd,Columbus,OH,43204,299900,4,,,1704,7405,1972,6,176,,Active,,,https://www.redfin.com/OH/Columbus/904-Kingsford-Rd-43204/home/75663653,CBRMLS,224032391,N,Y,39.9352058,-83.0949739
MLS Listing,,Multi-Family (2-4 Unit),886 Kingsford Rd,Columbus,OH,43204,299900,4,,,1704,7405,1972,6,176,,Active,,,https://www.redfin.com/OH/Columbus/886-Kingsford-Rd-43204/home/75653656,CBRMLS,224032388,N,Y,39.935535,-83.094955
MLS Listing,,Multi-Family (2-4 Unit),880 Kingsford Rd,Columbus,OH,43204,299900,4,,,1704,7405,1971,6,176,,Active,,,https://www.redfin.com/OH/Columbus/880-Kingsford-Rd-43204/home/79766299,CBRMLS,224032384,N,Y,39.9357,-83.094945
MLS Listing,,Single Family Residential,2017 Ferris Rd,Columbus,OH,43224,200000,3,1.0,Clinton,1121,6534,1956,6,178,,Active,,,https://www.redfin.com/OH/Columbus/2017-Ferris-Rd-43224/home/75682175,CBRMLS,224032383,N,Y,40.050001,-82.9623449
MLS Listing,,Multi-Family (2-4 Unit),840 Kingsford Rd,Columbus,OH,43204,299900,4,,,1656,7405,1968,6,181,,Active,,,https://www.redfin.com/OH/Columbus/840-Kingsford-Rd-43204/home/100742211,CBRMLS,224032380,N,Y,39.9365185,-83.0948792
MLS Listing,,Condo/Co-op,422 Fenway Rd Unit B,Columbus,OH,43214,299900,3,2.5,,2009,1306,1978,6,149,480,Active,,,https://www.redfin.com/OH/Columbus/422-Fenway-Rd-43214/unit-B/home/100746427,CBRMLS,224032378,N,Y,40.0686607,-83.030781
MLS Listing,,Multi-Family (2-4 Unit),800 Kingsford Rd,Columbus,OH,43204,299900,4,,,1656,7405,1966,6,181,,Active,,,https://www.redfin.com/OH/Columbus/800-Kingsford-Rd-43204/home/100742209,CBRMLS,224032373,N,Y,39.9373463,-83.094852
MLS Listing,,Single Family Residential,1446 Cordell Ave,Columbus,OH,43211,80000,2,1.0,,1024,4356,1927,6,78,,Active,,,https://www.redfin.com/OH/Columbus/1446-Cordell-Ave-43211/home/75673796,CBRMLS,224032370,N,Y,40.0115915,-82.9708577
MLS Listing,,Condo/Co-op,2582 Scioto View Ln Unit H,Columbus,OH,43221,250000,2,1.5,Perry,1056,435,1970,6,237,365,Active,,,https://www.redfin.com/OH/Columbus/2582-Scioto-View-Ln-43221/unit-H/home/100716042,CBRMLS,224032365,N,Y,40.0061051,-83.084276
MLS Listing,,Multi-Family (2-4 Unit),1544-1546 Granville St,Columbus,OH,43203,325000,,,,3174,3920,1900,6,102,,Active,,,https://www.redfin.com/OH/Columbus/1544-1546-Granville-St-43203/home/192516478,CBRMLS,224032358,N,Y,39.973472,-82.960914
MLS Listing,,Single Family Residential,2280 Velma Ave,Columbus,OH,43211,179900,2,1.0,,760,5662,1955,6,237,,Active,,,https://www.redfin.com/OH/Columbus/2280-Velma-Ave-43211/home/79573636,CBRMLS,224032355,N,Y,40.0113613,-82.9881435
MLS Listing,,Single Family Residential,2197 Mcguffey Rd,Columbus,OH,43211,179900,4,1.0,,1216,4791,1948,6,148,,Active,,,https://www.redfin.com/OH/Columbus/2197-McGuffey-Rd-43211/home/75721456,CBRMLS,224032356,N,Y,40.0103915,-82.9820131
MLS Listing,,Single Family Residential,94 Wisconsin Ave,Columbus,OH,43222,494900,4,3.5,,2348,3049,2024,6,211,,Active,,,https://www.redfin.com/OH/Columbus/94-Wisconsin-Ave-43222/home/79750641,CBRMLS,224032353,N,Y,39.9602934,-83.0330203
MLS Listing,,Vacant Land,500 Kimball Pl,Columbus,OH,43205,69000,,,,,4356,,6,,,Active,,,https://www.redfin.com/OH/Columbus/500-Kimball-Pl-43205/home/79559122,CBRMLS,224032349,N,Y,39.9560258,-82.9632316
MLS Listing,,Single Family Residential,5912 Alturas Way,Hilliard,OH,43026,435000,3,2.5,,1696,7405,1999,6,256,6,Active,September-22-2024 02:00 PM,September-22-2024 04:00 PM,https://www.redfin.com/OH/Hilliard/5912-Alturas-Way-43026/home/100774231,CBRMLS,224032348,N,Y,40.0126047,-83.1724997
MLS Listing,,Single Family Residential,930 S Front St,Columbus,OH,43206,369000,2,1.0,,1275,5227,1900,6,289,,Pre On-Market,September-21-2024 01:00 PM,September-21-2024 03:00 PM,https://www.redfin.com/OH/Columbus/930-S-Front-St-43206/home/79476961,CBRMLS,224032347,N,Y,39.9429512,-82.9983416
MLS Listing,,Condo/Co-op,4398 Hammerton Dr Unit 16C,Columbus,OH,43228,209900,2,2.0,,900,1742,1990,6,233,230,Active,,,https://www.redfin.com/OH/Columbus/4398-Hammerton-Dr-43228/unit-16C/home/75694930,CBRMLS,224032344,N,Y,39.923641,-83.110912
MLS Listing,,Condo/Co-op,1314 Allington Ln,Columbus,OH,43240,355000,2,2.0,Orange,1440,,2005,6,247,399,Active,,,https://www.redfin.com/OH/Columbus/1314-Allington-Ln-43240/home/70238630,CBRMLS,224032337,N,Y,40.1539472,-82.9828325
MLS Listing,,Single Family Residential,4326 Maize Rd,Columbus,OH,43224,279900,4,1.5,,1528,8712,1959,6,183,,Active,,,https://www.redfin.com/OH/Columbus/4326-Maize-Rd-43224/home/75675526,CBRMLS,224032408,N,Y,40.054113,-82.9875557
MLS Listing,,Single Family Residential,1585 Myrtle Ave,Columbus,OH,43211,180000,2,1.0,,984,3920,1920,6,183,,Active,,,https://www.redfin.com/OH/Columbus/1585-Myrtle-Ave-43211/home/79538255,CBRMLS,224032329,N,Y,40.0169877,-82.9680912
MLS Listing,,Single Family Residential,248 Bluejay Dr,Columbus,OH,43235,479900,4,2.5,,2569,11761,1984,6,187,,Active,,,https://www.redfin.com/OH/Columbus/248-Bluejay-Dr-43235/home/75715084,CBRMLS,224032214,N,Y,40.1366714,-83.023691
MLS Listing,,Condo/Co-op,5404 Bennington Woods Ct,Columbus,OH,43220,350000,3,2.5,,1696,1742,1979,6,206,325,Active,,,https://www.redfin.com/OH/Columbus/5404-Bennington-Woods-Ct-43220/home/79486690,CBRMLS,224032076,N,Y,40.0649646,-83.101014
MLS Listing,,Single Family Residential,1610 S Champion Ave,Columbus,OH,43207,199900,3,1.0,,1044,6098,1954,6,191,,Active,,,https://www.redfin.com/OH/Columbus/1610-S-Champion-Ave-43207/home/79579557,CBRMLS,224032280,N,Y,39.9319181,-82.9711515
MLS Listing,,Single Family Residential,2104 Sale Rd,Columbus,OH,43224,199000,2,1.0,Clinton,864,6534,1925,6,230,,Active,,,https://www.redfin.com/OH/Columbus/2104-Sale-Rd-43224/home/75682129,CBRMLS,224032008,N,Y,40.0493169,-82.959822
MLS Listing,,Single Family Residential,7869 Antonio Ln,Blacklick,OH,43004,320000,3,2.0,,1351,6534,2003,6,237,15,Active,,,https://www.redfin.com/OH/Blacklick/7869-Antonio-Ln-43004/home/100705515,CBRMLS,224031943,N,Y,39.9957348,-82.7945411
MLS Listing,,Multi-Family (2-4 Unit),432-434 Stoddart Ave,Columbus,OH,43205,490000,6,,,2520,4356,1900,6,194,,Active,,,https://www.redfin.com/OH/Columbus/432-434-Stoddart-Ave-43205/home/192458444,CBRMLS,224032059,N,Y,39.958333,-82.953638
MLS Listing,,Single Family Residential,3210 Framington Dr,Columbus,OH,43224,304900,3,1.5,,1380,8276,1976,6,221,,Active,,,https://www.redfin.com/OH/Columbus/3210-Framington-Dr-43224/home/79566342,CBRMLS,224031878,N,Y,40.0345666,-82.9444001
MLS Listing,,Single Family Residential,1771 Fishinger Rd,Columbus,OH,43221,460000,3,2.0,,1374,13939,1953,6,335,,Active,,,https://www.redfin.com/OH/Columbus/1771-Fishinger-Rd-43221/home/79510681,CBRMLS,224032286,N,Y,40.0278032,-83.0615784
MLS Listing,,Single Family Residential,3224 Colony Hill Ln,Columbus,OH,43204,240000,2,1.0,,884,7405,1983,6,271,,Active,,,https://www.redfin.com/OH/Columbus/3224-Colony-Hill-Ln-43204/home/79515657,CBRMLS,224031319,N,Y,39.9796766,-83.0894613
MLS Listing,,Single Family Residential,1990 Chatfield Rd,Upper Arlington,OH,43221,1700000,4,4.5,,4744,8276,1935,6,358,,Active,September-18-2024 09:30 AM,September-18-2024 11:00 AM,https://www.redfin.com/OH/Columbus/1990-Chatfield-Rd-43221/home/75606460,CBRMLS,224032032,N,Y,40.0050662,-83.0631238
MLS Listing,,Single Family Residential,157 Schryver Rd,Columbus,OH,43207,178000,3,1.0,,924,6098,1960,6,193,,Active,September-22-2024 01:00 PM,September-22-2024 03:00 PM,https://www.redfin.com/OH/Columbus/157-Schryver-Rd-43207/home/79636200,CBRMLS,224031512,N,Y,39.9035409,-82.9909934
MLS Listing,,Single Family Residential,2172 Fairfax Rd,Upper Arlington,OH,43221,1649000,4,3.5,,4958,10018,1930,6,333,,Active,,,https://www.redfin.com/OH/Columbus/2172-Fairfax-Rd-43221/home/79632042,CBRMLS,224032026,N,Y,40.0004255,-83.0640627
MLS Listing,,Single Family Residential,286 Meditation Ln,Columbus,OH,43235,599900,3,2.5,,2288,17424,1980,6,262,19,Active,,,https://www.redfin.com/OH/Columbus/286-Meditation-Ln-43235/home/79538680,CBRMLS,224031882,N,Y,40.1184793,-83.0233305
MLS Listing,,Single Family Residential,4668 Scenic Dr,Columbus,OH,43214,989900,4,3.0,,3445,19602,1954,6,287,,Active,,,https://www.redfin.com/OH/Columbus/4668-Scenic-Dr-43214/home/79735650,CBRMLS,224031975,N,Y,40.0566191,-83.0264436
MLS Listing,,Single Family Residential,578 E Tulane Rd,Columbus,OH,43202,349900,3,1.5,,1152,6098,1922,6,304,,Active,,,https://www.redfin.com/OH/Columbus/578-E-Tulane-Rd-43202/home/79738613,CBRMLS,224031695,N,Y,40.0227805,-82.9974745
MLS Listing,,Single Family Residential,7043 Olentangy River Rd,Columbus,OH,43235,495000,4,2.5,,2300,77101,1975,6,215,,Active,,,https://www.redfin.com/OH/Columbus/7043-Olentangy-River-Rd-43235/home/75698261,CBRMLS,224032247,N,Y,40.1081614,-83.0380046
MLS Listing,,Single Family Residential,50 S Roys Ave,Columbus,OH,43204,329900,3,2.0,,1494,4791,1927,6,221,,Active,,,https://www.redfin.com/OH/Columbus/50-S-Roys-Ave-43204/home/75659052,CBRMLS,224032269,N,Y,39.9536653,-83.077248
MLS Listing,,Single Family Residential,3047 Fayburrow Dr,Reynoldsburg,OH,43068,312999,3,3.0,Montgomery,1854,6098,1995,6,169,,Active,,,https://www.redfin.com/OH/Reynoldsburg/3047-Fayburrow-Dr-43068/home/70634505,CBRMLS,224031858,N,Y,39.9215136,-82.8120972
MLS Listing,,Single Family Residential,4128 Mcallister Ave,Columbus,OH,43227,185000,3,1.0,,952,5662,1950,6,194,,Active,,,https://www.redfin.com/OH/Columbus/4128-McAllister-Ave-43227/home/79553735,CBRMLS,224032001,N,Y,39.9550947,-82.8881893
MLS Listing,,Single Family Residential,5556 Madrid Dr,Westerville,OH,43081,299000,4,2.0,Blendon,1404,7840,1961,7,213,,Active,,,https://www.redfin.com/OH/Westerville/5556-Madrid-Dr-43081/home/79647544,CBRMLS,224032316,N,Y,40.0863729,-82.920491
MLS Listing,,Single Family Residential,2681 Grasmere Ave,Columbus,OH,43211,179900,3,1.5,,1064,6098,1946,7,169,,Active,,,https://www.redfin.com/OH/Columbus/2681-Grasmere-Ave-43211/home/75595199,CBRMLS,224025863,N,Y,40.0203177,-82.9831167
MLS Listing,,Single Family Residential,554 Pierce Ave,Columbus,OH,43213,210000,4,1.0,,1364,5662,1942,7,154,,Active,,,https://www.redfin.com/OH/Columbus/554-Pierce-Ave-43213/home/75608313,CBRMLS,224032296,N,Y,39.9632196,-82.8822704
MLS Listing,,Single Family Residential,2588 Nona Rd,Columbus,OH,43207,160000,3,1.0,,896,7405,1962,7,179,,Active,,,https://www.redfin.com/OH/Columbus/2588-Nona-Rd-43207/home/75632048,CBRMLS,224032294,N,Y,39.9135822,-82.9488663
MLS Listing,,Single Family Residential,501 Fairway Blvd,Columbus,OH,43213,595000,4,3.0,,3391,68389,1976,7,175,,Active,,,https://www.redfin.com/OH/Columbus/501-Fairway-Blvd-43213/home/79490192,CBRMLS,224032293,N,Y,39.9662435,-82.8656632
MLS Listing,,Mobile/Manufactured Home,2407 Bluff Run Dr,Grove City,OH,43123,100000,3,2.0,,980,,1999,7,102,470,Active,,,https://www.redfin.com/OH/Grove-City/2407-Bluff-Run-Dr-43123/home/192503992,CBRMLS,224032292,N,Y,39.9156297,-83.0585036
MLS Listing,,Single Family Residential,88 N Roys Ave,Columbus,OH,43204,274900,3,2.5,,1352,5227,1929,7,203,,Active,September-21-2024 11:00 AM,September-21-2024 01:00 PM,https://www.redfin.com/OH/Columbus/88-N-Roys-Ave-43204/home/75625997,CBRMLS,224032290,N,Y,39.95666,-83.0779754
MLS Listing,,Single Family Residential,754 Linwood Ave,Columbus,OH,43205,409000,4,2.0,,2235,5662,1910,7,183,,Active,,,https://www.redfin.com/OH/Columbus/754-Linwood-Ave-43205/home/75658183,CBRMLS,224032273,N,Y,39.9504461,-82.9655649
MLS Listing,,Condo/Co-op,7365 Kirkdale Dr Unit 12B,Blacklick,OH,43004,195900,2,1.5,,896,435,1994,7,219,237,Active,September-22-2024 01:00 PM,September-22-2024 03:00 PM,https://www.redfin.com/OH/Blacklick/7365-Kirkdale-Dr-43004/unit-12B/home/100748558,CBRMLS,224032271,N,Y,39.9857613,-82.8087559
MLS Listing,,Single Family Residential,139 S Princeton Ave,Columbus,OH,43222,57000,2,1.0,,1034,3920,1900,7,55,,Active,,,https://www.redfin.com/OH/Columbus/139-S-Princeton-Ave-43222/home/79576544,CBRMLS,224032266,N,Y,39.9552227,-83.0344459
MLS Listing,,Condo/Co-op,168 Collier Ridge Dr,Columbus,OH,43235,363000,3,3.0,,1621,2178,2000,7,224,370,Active,,,https://www.redfin.com/OH/Columbus/168-Collier-Ridge-Dr-43235/home/79577515,CBRMLS,224032259,N,Y,40.1259466,-83.0120679
MLS Listing,,Single Family Residential,5452 Seclusion Dr,Westerville,OH,43081,815000,3,3.0,,2536,9147,2023,7,321,264,Active,September-29-2024 01:00 PM,September-29-2024 04:00 PM,https://www.redfin.com/OH/Westerville/5452-Seclusion-Dr-43081/home/192495646,CBRMLS,224032249,N,Y,40.0976148,-82.8709361
MLS Listing,,Single Family Residential,123 Nashoba Ave,Columbus,OH,43223,220000,3,1.0,,1200,2613,1925,7,183,,Active,,,https://www.redfin.com/OH/Columbus/123-Nashoba-Ave-43223/home/100736155,CBRMLS,224032243,N,Y,39.9534376,-83.0516058
MLS Listing,,Single Family Residential,4438 Marland Dr,Columbus,OH,43224,285000,3,2.0,,1624,7405,1959,7,175,,Active,,,https://www.redfin.com/OH/Columbus/4438-Marland-Dr-43224/home/75598479,CBRMLS,224032239,N,Y,40.0563285,-82.9895467
MLS Listing,,Single Family Residential,2794 Rosedale Ave,Columbus,OH,43204,234900,2,1.5,,1948,7405,1958,7,121,,Active,,,https://www.redfin.com/OH/Columbus/2794-Rosedale-Ave-43204/home/75681423,CBRMLS,224032238,N,Y,39.9340652,-83.0716974
MLS Listing,,Single Family Residential,782 S Wayne Ave,Columbus,OH,43204,135000,2,1.5,Columbus,792,5227,1928,7,170,,Active,,,https://www.redfin.com/OH/Columbus/782-S-Wayne-Ave-43204/home/79520075,CBRMLS,224032224,N,Y,39.93926,-83.0621798
MLS Listing,,Single Family Residential,204 Springbrook Dr,Columbus,OH,43230,891000,5,3.5,Mifflin,5563,15245,1997,7,160,8,Active,,,https://www.redfin.com/OH/Columbus/204-Springbrook-Dr-43230/home/100752975,CBRMLS,224032222,N,Y,40.0326929,-82.8731923
MLS Listing,,Single Family Residential,2108 Minnesota Ave,Columbus,OH,43211,89900,3,1.0,Mifflin,1195,6969,1930,7,75,,Active,,,https://www.redfin.com/OH/Columbus/2108-Minnesota-Ave-43211/home/79611933,CBRMLS,224032215,N,Y,40.0196393,-82.9543357
MLS Listing,,Single Family Residential,1786 Rivermont Rd,Columbus,OH,43223,214000,3,1.0,,838,8276,1971,7,255,,Active,,,https://www.redfin.com/OH/Columbus/1786-Rivermont-Rd-43223/home/79658732,CBRMLS,224032201,N,Y,39.9176177,-83.0879182
MLS Listing,,Single Family Residential,3451 Ontario St,Columbus,OH,43224,224900,3,1.0,,925,5227,1953,7,243,,Active,,,https://www.redfin.com/OH/Columbus/3451-Ontario-St-43224/home/79533716,CBRMLS,224032200,N,Y,40.0372117,-82.9748964
MLS Listing,,Single Family Residential,1376 E 19th Ave,Columbus,OH,43211,129900,2,1.0,,810,4356,1942,7,160,,Active,,,https://www.redfin.com/OH/Columbus/1376-E-19th-Ave-43211/home/75723284,CBRMLS,224032198,N,Y,40.0022712,-82.9709804
MLS Listing,,Single Family Residential,3204 Whitehead Rd,Columbus,OH,43204,180000,2,1.0,,1182,9583,1956,7,152,,Active,,,https://www.redfin.com/OH/Columbus/3204-Whitehead-Rd-43204/home/79541485,CBRMLS,224032199,N,Y,39.9425437,-83.084141
MLS Listing,,Condo/Co-op,60 E Spring St #601,Columbus,OH,43215,2371300,3,4.5,,4822,4791,2005,7,492,448,Active,,,https://www.redfin.com/OH/Columbus/60-E-Spring-St-43215/unit-601/home/100712225,CBRMLS,224032191,N,Y,39.9667933,-82.9997937
MLS Listing,,Single Family Residential,331 Postle Blvd,Columbus,OH,43228,374900,4,2.5,Prairie,1906,6098,2024,7,197,,Active,September-21-2024 01:00 PM,September-21-2024 03:00 PM,https://www.redfin.com/OH/Columbus/331-Postle-Blvd-43228/home/192472372,CBRMLS,224032190,N,Y,39.9449745,-83.1362763
MLS Listing,,Condo/Co-op,964 Charleston Way Dr Unit 10C,Westerville,OH,43081,239900,2,2.5,,1056,435,1994,7,227,220,Active,,,https://www.redfin.com/OH/Westerville/964-Charleston-Way-Dr-43081/unit-10C/home/79706063,CBRMLS,224031875,N,Y,40.1334297,-82.991848
MLS Listing,,Single Family Residential,2696 Lane Rd,Upper Arlington,OH,43220,875000,4,2.5,,2850,13939,1969,7,307,,Active,,,https://www.redfin.com/OH/Columbus/2696-Lane-Rd-43220/home/79517934,CBRMLS,224031829,N,Y,40.0479821,-83.0897836
MLS Listing,,Single Family Residential,2483 Shrewsbury Rd,Columbus,OH,43221,379900,3,2.0,,1000,7405,1954,7,380,,Active,,,https://www.redfin.com/OH/Columbus/2483-Shrewsbury-Rd-43221/home/75639123,CBRMLS,224031801,N,Y,40.0261871,-83.0812168
MLS Listing,,Condo/Co-op,3145 Griggsview Ct,Columbus,OH,43221,289900,2,2.0,,1670,2178,1980,7,174,526,Active,,,https://www.redfin.com/OH/Columbus/3145-Griggsview-Ct-43221/home/75614908,CBRMLS,224031989,N,Y,40.0212228,-83.100971
