SALE TYPE,SOLD DATE,PROPERTY TYPE,ADDRESS,CITY,STATE OR PROVINCE,ZIP OR POSTAL CODE,PRICE,BEDS,BATHS,LOCATION,SQUARE FEET,LOT SIZE,YEAR BUILT,DAYS ON MARKET,$/SQUARE FEET,HOA/MONTH,STATUS,NEXT OPEN HOUSE START TIME,NEXT OPEN HOUSE END TIME,URL (SEE https://www.redfin.com/buy-a-home/comparative-market-analysis FOR INFO ON PRICING),SOURCE,MLS#,FAVORITE,INTERESTED,LATITUDE,LONGITUDE
MLS Listing,,Single Family Residential,6710 Silver Saddle Rd,Flagstaff,AZ,86004,1250000,6,4.0,Doney Park West,3846,104108,1986,47,325,,Active,,,https://www.redfin.com/AZ/Flagstaff/6710-Silver-Saddle-Rd-86004/home/116657384,NAZMLS,197791,N,Y,35.2690263,-111.5293574
MLS Listing,,Vacant Land,19 W Cedar Ave #8,Flagstaff,AZ,86001,444000,,,North West City,,10800,,152,,,Active,,,https://www.redfin.com/AZ/Flagstaff/19-W-Cedar-Ave-86001/unit-8/home/190547077,NAZMLS,196433,N,Y,35.212911,-111.643215
MLS Listing,,Single Family Residential,531 N Valerian Ln Lot 21,Flagstaff,AZ,86004,920673,4,3.5,Canyon Del Rio,2631,6000,2024,1,350,90,Active,,,https://www.redfin.com/AZ/Flagstaff/531-N-Valerian-Ln-86004/unit-21/home/192583959,NAZMLS,198326,N,Y,35.192681,-111.613135
MLS Listing,,Single Family Residential,2687 N Carefree Cir,Flagstaff,AZ,86004,1225000,4,3.0,EVERGREEN,3587,11761,1988,1,342,54,Active,,,https://www.redfin.com/AZ/Flagstaff/2687-N-Carefree-Cir-86004/home/116699756,ARMLS,6758121,N,Y,35.205608,-111.5885443
MLS Listing,,Condo/Co-op,5805 E Bear Paw Dr #12148,Flagstaff,AZ,86004,399000,1,1.5,Continental Cntry Clb,1069,958,1988,1,373,297,Active,,,https://www.redfin.com/AZ/Flagstaff/5805-E-Bear-Paw-Dr-86004/unit-12148/home/170310200,NAZMLS,198324,N,Y,35.2026153,-111.5733178
MLS Listing,,Townhouse,1326 E Trevor Way,Flagstaff,AZ,86001,655900,4,4.0,Rio Homes,2123,2396,2005,1,309,242,Active,,,https://www.redfin.com/AZ/Flagstaff/1326-E-Trevor-Way-86001/home/116892181,NAZMLS,198323,N,Y,35.1840434,-111.6396667
MLS Listing,,Townhouse,2510 E Eva Loop,Flagstaff,AZ,86004,425000,3,2.0,Lower Greenlaw,1358,2309,1991,1,313,165,Active,,,https://www.redfin.com/AZ/Flagstaff/2510-E-Eva-Loop-86004/home/116833166,NAZMLS,198315,N,Y,35.2161807,-111.609681
MLS Listing,,Single Family Residential,2261 W Mission Timber Cir,Flagstaff,AZ,86001,669000,4,2.5,Presidio,1936,3877,2020,2,346,29,Active,,,https://www.redfin.com/AZ/Flagstaff/2261-W-Mission-Timber-Cir-86001/home/116924210,NAZMLS,198313,N,Y,35.1833472,-111.685595
MLS Listing,,Single Family Residential,7298 Golden Eagle Dr,Flagstaff,AZ,86004,825000,3,2.0,Doney Park East,1600,107767,2020,3,516,,Active,,,https://www.redfin.com/AZ/Flagstaff/7298-Golden-Eagle-Dr-86004/home/116286488,NAZMLS,198312,N,Y,35.2663568,-111.5190383
MLS Listing,,Single Family Residential,3112 Pioneer Trl,Flagstaff,AZ,86005,750000,2,2.0,Lake Mary Meadows,1216,109703,2008,3,617,32,Active,,,https://www.redfin.com/AZ/Flagstaff/3112-Pioneer-Trl-86005/home/116241742,NAZMLS,198309,N,Y,35.0916127,-111.6290654
MLS Listing,,Single Family Residential,3295 Toho Trl,Flagstaff,AZ,86005,550000,3,2.0,Kachina Village,1296,12632,1995,4,424,,Active,,,https://www.redfin.com/AZ/Flagstaff/3295-Toho-Trl-86005/home/116408858,ARMLS,6757275,N,Y,35.0903319,-111.700729
MLS Listing,,Mobile/Manufactured Home,1794 W Stephen Dr,Flagstaff,AZ,86001,469000,3,2.0,West Village Est,1512,5009,2005,4,310,72,Active,,,https://www.redfin.com/AZ/Flagstaff/1794-W-Stephen-Dr-86001/home/116808786,NAZMLS,198304,N,Y,35.1913441,-111.6745644
MLS Listing,,Vacant Land,3101 W Sacred Mountain Rd Lot 1,Flagstaff,AZ,86001,619000,,,Northridge/Westridge,,220849,,4,,,Active,,,https://www.redfin.com/AZ/Flagstaff/3101-W-Sacred-Mountain-Rd-86001/unit-1/home/192544351,NAZMLS,198302,N,Y,35.220554,-111.67066
MLS Listing,,Mobile/Manufactured Home,2239 W Alaska Ave,Flagstaff,AZ,86001,515000,4,2.0,Railroad Springs,1539,9583,2000,4,335,63,Active,,,https://www.redfin.com/AZ/Flagstaff/2239-W-Alaska-Ave-86001/home/116683701,NAZMLS,198299,N,Y,35.1927907,-111.679295
MLS Listing,,Condo/Co-op,3850 N Fanning Dr Unit E4,Flagstaff,AZ,86004,425000,4,2.0,Swiss Manor,1441,1306,1979,4,295,117,Active,,,https://www.redfin.com/AZ/Flagstaff/3850-N-Fanning-Dr-86004/unit-E4/home/192213702,NAZMLS,198297,N,Y,35.2201286,-111.5950065
MLS Listing,,Single Family Residential,2717 E Byrds View Dr,Flagstaff,AZ,86005,3950000,4,4.5,Pine Canyon,3698,30100,2020,4,1068,265,Active,,,https://www.redfin.com/AZ/Flagstaff/2717-E-Byrds-View-Dr-86005/home/117332372,NAZMLS,198296,N,Y,35.1583522,-111.6336302
MLS Listing,,Condo/Co-op,4800 W Braided Rein,Flagstaff,AZ,86005,629900,3,2.0,Flagstaff Ranch,1811,1829,2021,5,348,637,Active,,,https://www.redfin.com/AZ/Flagstaff/4800-W-Braided-Rein-86005/home/161584680,NAZMLS,198294,N,Y,35.1792648,-111.718642
MLS Listing,,Single Family Residential,8330 Koch Field Rd,Flagstaff,AZ,86004,949000,4,3.0,Doney Park East,2861,110207,1980,5,332,,Active,,,https://www.redfin.com/AZ/Flagstaff/8330-Koch-Field-Rd-86004/home/116196860,NAZMLS,198293,N,Y,35.259064,-111.5252408
MLS Listing,,Single Family Residential,1270 W University Heights Dr S,Flagstaff,AZ,86005,1100000,6,3.0,University Heights,3218,16030,1984,5,342,,Active,,,https://www.redfin.com/AZ/Flagstaff/1270-W-University-Heights-Dr-S-86005/home/116399552,NAZMLS,198291,N,Y,35.1684698,-111.6767423
MLS Listing,,Mobile/Manufactured Home,9000 N Us Hwy 89 #22,Flagstaff,AZ,86004,92900,2,2.0,Doney Park North,950,,2000,5,98,,Active,,,https://www.redfin.com/AZ/Flagstaff/9000-U-S-89-86004/unit-22/home/188780248,NAZMLS,198289,N,Y,35.2711286,-111.5461286
MLS Listing,,Single Family Residential,2792 Kona Trl,Flagstaff,AZ,86005,580000,3,2.0,Kachina Village,1300,12591,1994,5,446,,Active,,,https://www.redfin.com/AZ/Flagstaff/2792-Kona-Trl-86005/home/116649641,NAZMLS,198288,N,Y,35.0971425,-111.6969123
MLS Listing,,Single Family Residential,2256 E Cricket Ln,Flagstaff,AZ,86004,698000,4,2.0,Continental Cntry Clb,2163,15750,1973,5,323,,Active,,,https://www.redfin.com/AZ/Flagstaff/2256-E-Cricket-Ln-86004/home/116126613,NAZMLS,198286,N,Y,35.1984785,-111.5786955
MLS Listing,,Single Family Residential,610 E Kristi Ln,Flagstaff,AZ,86005,749000,3,2.5,Bennett/Lanewood Est,1734,12458,1991,5,432,,Active,,,https://www.redfin.com/AZ/Flagstaff/610-E-Kristi-Ln-86005/home/116731871,NAZMLS,198280,N,Y,35.1547314,-111.6601993
MLS Listing,,Single Family Residential,12935 Glen Dr,Flagstaff,AZ,86004,800000,3,2.0,Doney Park East,1467,234135,1989,5,545,,Active,,,https://www.redfin.com/AZ/Flagstaff/12935-Glen-Dr-86004/home/116588484,NAZMLS,198262,N,Y,35.3267225,-111.5532612
MLS Listing,,Mobile/Manufactured Home,5100 Brandis Way,Flagstaff,AZ,86004,900000,3,2.0,Timberline Area Pocket,1600,196151,2024,6,563,,Active,,,https://www.redfin.com/AZ/Flagstaff/5100-Brandis-Way-86004/home/116565267,NAZMLS,198275,N,Y,35.3282885,-111.5594951
MLS Listing,,Single Family Residential,3843 S Wagon Trl,Flagstaff,AZ,86005,824500,3,2.0,Ponderosa Trails,1995,13068,2012,6,413,3,Active,,,https://www.redfin.com/AZ/Flagstaff/3843-S-Wagon-Trl-86005/home/116525389,NAZMLS,198273,N,Y,35.1615371,-111.6698431
MLS Listing,,Condo/Co-op,207 Beaver St #402,Flagstaff,AZ,86001,870000,3,2.0,Flagstaff Townsite,1411,,2023,6,617,270,Active,,,https://www.redfin.com/AZ/Flagstaff/207-S-Beaver-St-86001/unit-402/home/177209493,NAZMLS,198270,N,Y,35.1951139,-111.651529
MLS Listing,,Townhouse,9144 W Slate Mountain Trl,Bellemont,AZ,86015,399000,2,1.5,Bellemont,1173,3484,2004,6,340,120,Active,,,https://www.redfin.com/AZ/Bellemont/9144-W-Slate-Mountain-Trl-86015/home/116483207,NAZMLS,198268,N,Y,35.2313698,-111.8105366
MLS Listing,,Single Family Residential,515 N Valerian Ln Lot 19,Flagstaff,AZ,86004,919869,5,3.0,Canyon Del Rio,2443,6098,2024,6,377,90,Active,,,https://www.redfin.com/AZ/Flagstaff/515-N-Valerian-Ln-86004/unit-19/home/192498839,NAZMLS,198267,N,Y,35.19235,-111.613132
MLS Listing,,Single Family Residential,2749 S Vega St Lot 34,Flagstaff,AZ,86001,779250,4,3.0,Timber Sky,2009,5246,2023,6,388,66,Active,,,https://www.redfin.com/AZ/Flagstaff/2749-S-Vega-St-86001/unit-34/home/187694376,NAZMLS,198265,N,Y,35.185917,-111.69796
MLS Listing,,Vacant Land,4403 E Coburn Dr #87,Flagstaff,AZ,86004,349000,,,Elk Run,,15725,,7,,36,Active,,,https://www.redfin.com/AZ/Flagstaff/4403-E-Coburn-Dr-86004/unit-87/home/192461642,NAZMLS,198260,N,Y,35.203163,-111.595826
MLS Listing,,Single Family Residential,2782 Andrew Douglass,Flagstaff,AZ,86005,3950000,4,4.5,Forest Highlands,6100,55757,1999,7,648,1410,Active,,,https://www.redfin.com/AZ/Flagstaff/2782-Andrew-Douglass-86005/home/116521191,NAZMLS,198256,N,Y,35.115056,-111.6906052
MLS Listing,,Condo/Co-op,310 E Birch Ave #311,Flagstaff,AZ,86001,893700,2,2.0,Flagstaff Old Town,1281,23522,2025,8,698,375,Active,,,https://www.redfin.com/AZ/Flagstaff/310-E-Birch-Ave-86001/unit-311/home/192442839,NAZMLS,198232,N,Y,35.1983548,-111.6445592
MLS Listing,,Condo/Co-op,310 E Birch Ave #404,Flagstaff,AZ,86001,699900,1,1.0,Flagstaff Old Town,704,23522,2025,8,994,375,Active,,,https://www.redfin.com/AZ/Flagstaff/310-E-Birch-Ave-86001/unit-404/home/192442798,NAZMLS,198231,N,Y,35.1983548,-111.6445592
MLS Listing,,Condo/Co-op,310 E Birch Ave #101,Flagstaff,AZ,86001,645400,1,1.0,Flagstaff Old Town,727,23522,2025,8,888,375,Active,,,https://www.redfin.com/AZ/Flagstaff/310-E-Birch-Ave-86001/unit-101/home/192442697,NAZMLS,198230,N,Y,35.1983548,-111.6445592
MLS Listing,,Condo/Co-op,310 E Birch Ave #201,Flagstaff,AZ,86001,783900,2,2.0,Flagstaff Old Town,1226,23522,2025,8,639,375,Active,,,https://www.redfin.com/AZ/Flagstaff/310-E-Birch-Ave-86001/unit-201/home/192442616,NAZMLS,198229,N,Y,35.1983548,-111.6445592
MLS Listing,,Single Family Residential,633 Inland Shores Dr,Flagstaff,AZ,86004,1350000,4,3.0,Lakeside Acres,3204,45564,1989,8,421,53,Active,,,https://www.redfin.com/AZ/Flagstaff/633-N-Inland-Shores-Dr-86004/home/116630615,NAZMLS,198228,N,Y,35.185958,-111.5935278
MLS Listing,,Mobile/Manufactured Home,2924 Mesa Trl,Flagstaff,AZ,86001,455000,3,2.0,Kachina Village,1560,9148,1998,8,292,,Active,,,https://www.redfin.com/AZ/Flagstaff/2924-Mesa-Trl-86005/home/116072769,NAZMLS,198227,N,Y,35.097969,-111.6881655
MLS Listing,,Townhouse,3199 S Beringer Ln,Flagstaff,AZ,86005,724999,3,2.5,Pinnacle Pines,2113,3659,2017,8,343,216,Active,,,https://www.redfin.com/AZ/Flagstaff/3199-S-Beringer-Ln-86005/home/117332665,NAZMLS,198225,N,Y,35.1642394,-111.651499
MLS Listing,,Vacant Land,7462 E Open Sky Rd,Flagstaff,AZ,86004,650000,,,Doney Park East,,403365,,8,,,Active,,,https://www.redfin.com/AZ/Flagstaff/7462-E-Open-Sky-Rd-86004/home/192439626,NAZMLS,198224,N,Y,35.274919,-111.516607
MLS Listing,,Vacant Land,0000 Silver Saddle Rd,Flagstaff,AZ,86004,750000,,,Doney Park East,,545371,,8,,,Active,,,https://www.redfin.com/AZ/Unknown/Silver-Saddle-Rd-86004/home/192439379,NAZMLS,198223,N,Y,35.268697,-111.518653
MLS Listing,,Single Family Residential,2521 N Main St,Flagstaff,AZ,86004,429000,2,1.0,Sunnyside,1028,6098,1945,8,417,,Active,,,https://www.redfin.com/AZ/Flagstaff/2521-N-Main-St-86004/home/116215731,NAZMLS,198060,N,Y,35.2134716,-111.6183988
MLS Listing,,Single Family Residential,3031 W Brenda Loop,Flagstaff,AZ,86001,618000,3,2.0,Cheshire/Peak View,1252,7062,1985,9,494,,Active,,,https://www.redfin.com/AZ/Flagstaff/3031-W-Brenda-Loop-86001/home/116514105,NAZMLS,198217,N,Y,35.2351283,-111.6708469
MLS Listing,,Single Family Residential,933 N Fox Hill Rd,Flagstaff,AZ,86004,950000,5,2.5,Amberwood,2784,11029,1996,9,341,18,Active,,,https://www.redfin.com/AZ/Flagstaff/933-N-Fox-Hill-Rd-86004/home/116762324,NAZMLS,198216,N,Y,35.1850054,-111.5812823
MLS Listing,,Single Family Residential,2896 W Patio Del Presidio,Flagstaff,AZ,86001,729000,3,2.5,Presidio,2136,4225,2015,10,341,29,Active,,,https://www.redfin.com/AZ/Flagstaff/2896-W-Patio-del-Presidio-86001/home/116929048,NAZMLS,198206,N,Y,35.1846091,-111.6897737
MLS Listing,,Condo/Co-op,3200 S Litzler Dr Unit 23-239,Flagstaff,AZ,86005,345000,2,2.0,University Heights,900,871,1999,11,383,249,Active,,,https://www.redfin.com/AZ/Flagstaff/3200-S-Litzler-Dr-86001/unit-23239/home/192105743,NAZMLS,198198,N,Y,35.1709622,-111.6687789
MLS Listing,,Single Family Residential,2430 S Polaris Way,Flagstaff,AZ,86001,1250000,3,2.5,Timber Sky,2553,12153,2020,11,490,66,Active,,,https://www.redfin.com/AZ/Flagstaff/2430-S-Polaris-Way-86001/home/167190266,NAZMLS,198197,N,Y,35.1866637,-111.6979182
MLS Listing,,Single Family Residential,3509 E Sparrow Ave,Flagstaff,AZ,86004,1300000,4,3.0,Falcon Ridge,3442,27051,1993,11,378,,Active,,,https://www.redfin.com/AZ/Flagstaff/3509-E-Sparrow-Ave-86004/home/116690565,NAZMLS,198194,N,Y,35.199156,-111.6048576
MLS Listing,,Townhouse,782 E Sterling Ln,Flagstaff,AZ,86005,789900,4,2.5,Pinnacle Pines,2374,3269,2018,11,333,226,Active,,,https://www.redfin.com/AZ/Flagstaff/782-E-Sterling-Ln-86005/home/117332524,NAZMLS,198192,N,Y,35.1648258,-111.651439
MLS Listing,,Single Family Residential,2624 W Kiltie Ln,Flagstaff,AZ,86005,1650000,5,3.5,Equestrian Estates,3123,47480,2015,12,528,18,Active,,,https://www.redfin.com/AZ/Flagstaff/2624-W-Kiltie-Ln-86005/home/117330885,NAZMLS,198189,N,Y,35.1777986,-111.691105
MLS Listing,,Single Family Residential,380 N Valerian Ln Lot 41,Flagstaff,AZ,86004,955883,5,3.0,Canyon Del Rio,2443,6059,2025,12,391,90,Active,,,https://www.redfin.com/AZ/Flagstaff/380-N-Valerian-Ln-86004/unit-41/home/192382490,NAZMLS,198188,N,Y,35.190952,-111.612478
MLS Listing,,Single Family Residential,539 N Valerian Ln Lot 22,Flagstaff,AZ,86004,898738,5,3.0,Canyon Del Rio,2443,6059,2025,12,368,90,Active,,,https://www.redfin.com/AZ/Flagstaff/539-N-Valerian-Ln-86004/unit-22/home/192382438,NAZMLS,198187,N,Y,35.192846,-111.613136
MLS Listing,,Mobile/Manufactured Home,9000 Us-89 #17,Flagstaff,AZ,86004,249000,3,2.0,MaCann Estates/Elden Springs,1792,,1994,12,139,,Active,,,https://www.redfin.com/AZ/Flagstaff/9000-U-S-89-86004/unit-17/home/192379022,NAZMLS,198184,N,Y,35.2711286,-111.5461286
MLS Listing,,Townhouse,1759 W Legend Trl,Flagstaff,AZ,86001,575000,3,2.5,Boulder Pointe,1299,2352,2002,12,443,130,Active,,,https://www.redfin.com/AZ/Flagstaff/1759-W-Legend-Trl-86001/home/116681361,NAZMLS,198183,N,Y,35.1791737,-111.6773341
MLS Listing,,Single Family Residential,2453 W Bruce Balle Dr,Flagstaff,AZ,86001,595000,2,2.0,Presidio,1460,2000,2019,12,408,28,Active,,,https://www.redfin.com/AZ/Flagstaff/2453-W-Bruce-Balle-Dr-86001/home/116930033,NAZMLS,198182,N,Y,35.181623,-111.686368
MLS Listing,,Single Family Residential,491 E Twelve Oaks Dr,Flagstaff,AZ,86005,850000,4,2.75,Foxwood,2049,7009,2004,12,415,13,Active,,,https://www.redfin.com/AZ/Flagstaff/491-E-Twelve-Oaks-Dr-86005/home/116500902,NAZMLS,198179,N,Y,35.1581065,-111.6625558
MLS Listing,,Single Family Residential,4680 Alpine Dr,Bellemont,AZ,86015,689000,4,2.5,Bellemont,1896,10019,2003,12,363,61,Active,,,https://www.redfin.com/AZ/Bellemont/4680-Alpine-Dr-86015/home/116511972,NAZMLS,198178,N,Y,35.236646,-111.808169
MLS Listing,,Single Family Residential,705 Kiowa,Flagstaff,AZ,86005,525000,3,2.0,Mountainaire,1440,12015,1969,13,365,,Active,,,https://www.redfin.com/AZ/Flagstaff/705-Kiowa-86005/home/116893946,NAZMLS,198174,N,Y,35.0863129,-111.663181
MLS Listing,,Single Family Residential,1440 Pumphouse Cir,Flagstaff,AZ,86005,4300000,4,4.0,Highland Meadows,5500,218715,2009,13,782,134,Active,,,https://www.redfin.com/AZ/Flagstaff/1440-Pumphouse-Cir-86005/home/116834086,NAZMLS,198173,N,Y,35.1022147,-111.6766966
MLS Listing,,Single Family Residential,7071 W Dreamview Trl,Flagstaff,AZ,86001,1350000,4,2.0,Fort Valley/Baderville,2400,87874,2024,13,563,,Active,,,https://www.redfin.com/AZ/Flagstaff/7071-W-Dreamview-Trl-86001/home/192322572,NAZMLS,198172,N,Y,35.2656949,-111.7246728
MLS Listing,,Single Family Residential,2667 Cottonrose Ln,Flagstaff,AZ,86005,1288000,3,3.0,Juniper Point,2057,11678,2024,14,626,50,Active,,,https://www.redfin.com/AZ/Flagstaff/2667-S-Cottonrose-Ln-86005/home/184846263,NAZMLS,198137,N,Y,35.1666498,-111.6413682
MLS Listing,,Single Family Residential,3950 S Marble Canyon Trl,Flagstaff,AZ,86005,789000,3,3.0,Ponderosa Trails,2174,7405,2003,14,363,15,Active,,,https://www.redfin.com/AZ/Flagstaff/3950-S-Marble-Canyon-Trl-86005/home/116696549,NAZMLS,198165,N,Y,35.1604138,-111.6697021
MLS Listing,,Condo/Co-op,4343 E Soliere Ave #1045,Flagstaff,AZ,86004,475375,3,2.0,Timberline Place Condos,1275,1306,1999,15,373,280,Active,,,https://www.redfin.com/AZ/Flagstaff/4343-E-Soliere-Ave-86004/unit-1045/home/116502072,NAZMLS,198163,N,Y,35.2111605,-111.5893297
MLS Listing,,Single Family Residential,5160 E Hawthorne Dr,Flagstaff,AZ,86004,875000,4,3.0,Continental Cntry Clb,2190,16248,1978,15,400,54,Active,,,https://www.redfin.com/AZ/Flagstaff/5160-E-Hawthorne-Dr-86004/home/116528441,NAZMLS,198115,N,Y,35.1955492,-111.5862278
MLS Listing,,Vacant Land,2 Twin Arrows,Flagstaff,AZ,86004,375000,,,East Rural,,217800,,15,,,Active,,,https://www.redfin.com/AZ/Flagstaff/2-TWIN-ARROWS-Opas-86004/home/181239317,NAZMLS,198162,N,Y,35.1589632,-111.2721043
MLS Listing,,Mobile/Manufactured Home,2134 Chuska Ovi,Flagstaff,AZ,86005,223250,2,1.0,Kachina Village,600,9897,1968,16,372,,Active,,,https://www.redfin.com/AZ/Flagstaff/2134-Chuska-Ovi-86005/home/116597613,NAZMLS,197601,N,Y,35.1059106,-111.6890185
MLS Listing,,Single Family Residential,526 N Charles Rd,Flagstaff,AZ,86001,1450000,4,4.0,Pinecrest/Cherry Hill,2814,8364,1965,18,515,,Active,,,https://www.redfin.com/AZ/Flagstaff/526-N-Charles-Rd-86001/home/116161021,NAZMLS,198142,N,Y,35.200034,-111.640463
MLS Listing,,Mobile/Manufactured Home,2500 W Route 66 Unit 67,Flagstaff,AZ,86001,84900,2,1.0,North West City,728,,1992,18,117,,Active,,,https://www.redfin.com/AZ/Flagstaff/2500-West-Route-66-86001/unit-67/home/177196018,NAZMLS,198135,N,Y,35.1892719,-111.6876758
MLS Listing,,Single Family Residential,3846 S Big Sky Trl,Flagstaff,AZ,86005,740000,4,2.5,Ponderosa Trails,1860,7212,2001,18,398,15,Active,,,https://www.redfin.com/AZ/Flagstaff/3846-S-Big-Sky-Trl-86005/home/116519256,NAZMLS,198133,N,Y,35.1607115,-111.671345
MLS Listing,,Single Family Residential,5120 E Hawthorne Dr,Flagstaff,AZ,86004,890000,4,2.75,Continental Cntry Clb,2471,12937,1988,18,360,56,Active,,,https://www.redfin.com/AZ/Flagstaff/5120-E-Hawthorne-Dr-86004/home/116127006,NAZMLS,198128,N,Y,35.194439,-111.5879071
MLS Listing,,Single Family Residential,3786 S Sutter Creek Trl,Flagstaff,AZ,86005,783000,4,2.0,Ponderosa Trails,1838,7405,1999,18,426,15,Active,,,https://www.redfin.com/AZ/Flagstaff/3786-S-Sutter-Creek-Trl-86005/home/116762054,NAZMLS,198127,N,Y,35.1632407,-111.666189
MLS Listing,,Single Family Residential,3038 Dawa Ovi,Flagstaff,AZ,86005,809999,3,2.0,Kachina Village,1947,47762,1999,18,416,,Active,,,https://www.redfin.com/AZ/Flagstaff/3038-Dawa-Ovi-86005/home/116106314,NAZMLS,198126,N,Y,35.0927542,-111.694535
MLS Listing,,Mobile/Manufactured Home,9000 Hwy 89 #10,Flagstaff,AZ,86004,134900,3,2.0,Doney Park North,1152,,1992,18,117,,Active,,,https://www.redfin.com/AZ/Flagstaff/9000-U-S-89-86004/unit-10/home/192292631,NAZMLS,198087,N,Y,35.2711286,-111.5461286
MLS Listing,,Single Family Residential,5550 Lene Ln,Flagstaff,AZ,86004,850000,5,2.0,North Peak,2760,109335,1985,19,308,,Active,,,https://www.redfin.com/AZ/Flagstaff/5550-Lene-Ln-86004/home/116768427,NAZMLS,198124,N,Y,35.2469133,-111.5497767
MLS Listing,,Single Family Residential,9508 W Hashknife Trl,Flagstaff,AZ,86001,1650000,5,4.0,Fort Valley/Baderville,4476,87120,2007,19,369,,Active,,,https://www.redfin.com/AZ/Flagstaff/9508-W-Hashknife-Trl-86001/home/116660169,NAZMLS,198109,N,Y,35.2521508,-111.7541483
MLS Listing,,Single Family Residential,11955 Hamilton Way,Flagstaff,AZ,86004,750000,3,2.0,Timberline Area Pocket,2108,110642,1981,19,356,,Active,,,https://www.redfin.com/AZ/Flagstaff/11955-Hamilton-Way-86004/home/116636904,NAZMLS,198108,N,Y,35.312526,-111.5503508
MLS Listing,,Mobile/Manufactured Home,2050 Adirondack Ave,Flagstaff,AZ,86001,465000,3,2.0,Railroad Springs,1201,6970,2001,19,387,21,Active,,,https://www.redfin.com/AZ/Flagstaff/2050-W-Adirondack-Ave-86001/home/116274096,NAZMLS,198107,N,Y,35.1939414,-111.6765864
MLS Listing,,Single Family Residential,3222 Bear Howard,Flagstaff,AZ,86005,2295000,4,3.0,Forest Highlands,3334,19602,2000,19,688,1410,Active,,,https://www.redfin.com/AZ/Flagstaff/3222-Bear-Howard-86005/home/116412932,NAZMLS,198106,N,Y,35.1055424,-111.692194
MLS Listing,,Vacant Land,3456 Laurie Ln #9,Flagstaff,AZ,86005,2890000,,,Forest Highlands,,435818,,19,,750,Active,,,https://www.redfin.com/AZ/Flagstaff/3456-Laurie-Ln-86005/unit-9/home/192285657,NAZMLS,198102,N,Y,35.097046,-111.715342
MLS Listing,,Single Family Residential,3531 S Amanda St,Flagstaff,AZ,86005,629900,3,2.0,University Heights,1487,6970,1994,19,424,,Active,,,https://www.redfin.com/AZ/Flagstaff/3531-S-Amanda-St-86005/home/116245510,NAZMLS,197734,N,Y,35.1720174,-111.6817565
MLS Listing,,Townhouse,2531 W Josselyn Dr,Flagstaff,AZ,86001,700000,4,3.0,Presidio,2332,2309,2018,19,300,29,Active,,,https://www.redfin.com/AZ/Flagstaff/2531-W-Josselyn-Dr-86001/home/116930764,NAZMLS,198099,N,Y,35.1816136,-111.6889555
MLS Listing,,Mobile/Manufactured Home,4724 E Lowell Dr,Flagstaff,AZ,86004,425000,3,2.0,Timberview Village,1599,6000,2000,20,266,38,Active,,,https://www.redfin.com/AZ/Flagstaff/4724-E-Lowell-Dr-86004/home/161706642,NAZMLS,198086,N,Y,35.2305409,-111.5749739
MLS Listing,,Single Family Residential,6070 E Treadway Trl,Flagstaff,AZ,86004,949000,4,2.5,Timberline Area Pocket,2662,108900,1997,20,356,,Active,,,https://www.redfin.com/AZ/Flagstaff/6070-E-Treadway-Trl-86004/home/116633312,NAZMLS,198085,N,Y,35.2945814,-111.5410311
MLS Listing,,Townhouse,12230 Solid Rock Dr,Bellemont,AZ,86015,465000,3,2.5,Bellemont,1686,1655,2022,21,276,106,Active,,,https://www.redfin.com/AZ/Bellemont/12230-Solid-Rock-Dr-86015/home/178758704,NAZMLS,198081,N,Y,35.23885,-111.819208
MLS Listing,,Condo/Co-op,1200 S Riordan Rnch,Flagstaff,AZ,85001,285000,1,1.0,Other Areas,520,,1990,21,548,237,Active,,,https://www.redfin.com/AZ/Flagstaff/1200-S-Riordan-Ranch-St-86001/home/186091086,WMMLS,251717,N,Y,35.1885584,-111.6592953
MLS Listing,,Vacant Land,5330 N Nordica Loop,Flagstaff,AZ,86004,623750,,,Lakeside Acres,,45738,,22,,54,Active,,,https://www.redfin.com/AZ/Flagstaff/5330-N-Nordica-Loop-86004/home/116703961,NAZMLS,198079,N,Y,35.183708,-111.586658
MLS Listing,,Condo/Co-op,1385 W University Ave #101,Flagstaff,AZ,86001,357000,2,2.0,Woodlands Area,906,871,1995,22,394,221,Active,,,https://www.redfin.com/AZ/Flagstaff/1385-W-University-Ave-86001/unit-101/home/116487832,NAZMLS,198077,N,Y,35.1836971,-111.6733294
MLS Listing,,Single Family Residential,10420 Palomino Rd,Flagstaff,AZ,86004,509000,3,2.0,Cosnino Road Area,1316,44867,1980,24,387,9,Active,,,https://www.redfin.com/AZ/Flagstaff/10420-E-Palomino-Rd-86004/home/116445221,NAZMLS,198068,N,Y,35.219721,-111.464448
MLS Listing,,Single Family Residential,2402 W Cj Dr,Flagstaff,AZ,86001,749000,3,2.5,Presidio,2128,34848,2019,24,352,29,Active,,,https://www.redfin.com/AZ/Flagstaff/2402-W-Cj-Dr-86001/home/116924379,NAZMLS,198063,N,Y,35.1826151,-111.6860783
MLS Listing,,Single Family Residential,2720 N Fremont Blvd,Flagstaff,AZ,86001,639900,3,2.0,Cheshire/Peak View,1360,8712,1972,25,471,,Active,,,https://www.redfin.com/AZ/Flagstaff/2720-N-Fremont-Blvd-86001/home/116628692,NAZMLS,198057,N,Y,35.2317117,-111.6688953
MLS Listing,,Single Family Residential,2761 W Pico Del Monte Cir,Flagstaff,AZ,86001,635000,3,2.5,Presidio,1667,3485,2016,25,381,29,Active,September-21-2024 12:00 PM,September-21-2024 02:00 PM,https://www.redfin.com/AZ/Flagstaff/2761-W-Pico-del-Monte-Cir-86001/home/116929466,NAZMLS,198055,N,Y,35.1857123,-111.6890446
MLS Listing,,Townhouse,4027 N Goodwin Cir,Flagstaff,AZ,86004,514000,3,3.0,Elk Run,1427,1002,1985,25,360,403,Active,,,https://www.redfin.com/AZ/Flagstaff/4027-N-Goodwin-Cir-86004/home/116821098,NAZMLS,198054,N,Y,35.204143,-111.594147
MLS Listing,,Single Family Residential,4615 W Braided Rein --,Flagstaff,AZ,86005,1450000,3,2.5,ASPEN SHADOWS AMENDED,2953,8772,2004,25,491,1120,Active,,,https://www.redfin.com/AZ/Flagstaff/4615-W-Braided-Rein-86005/home/116285250,ARMLS,6747690,N,Y,35.1790047,-111.7151758
MLS Listing,,Single Family Residential,2462 S Polaris Way,Flagstaff,AZ,86001,1399000,5,4.5,Timber Sky,3168,13939,2021,25,442,66,Active,,,https://www.redfin.com/AZ/Flagstaff/2462-S-Polaris-Way-86001/home/167190270,NAZMLS,198052,N,Y,35.1861245,-111.6989691
MLS Listing,,Single Family Residential,1901 E Linda Vista Dr,Flagstaff,AZ,86004,785000,4,2.5,Shadow Mountain,2098,7527,1972,26,374,,Active,,,https://www.redfin.com/AZ/Flagstaff/1901-E-Linda-Vista-Dr-86004/home/167189375,NAZMLS,198044,N,Y,35.2218267,-111.6167628
MLS Listing,,Single Family Residential,25 E Ridgecrest Dr,Flagstaff,AZ,86001,405000,2,1.0,Pine Knoll,936,6578,1955,26,433,,Active,,,https://www.redfin.com/AZ/Flagstaff/25-E-Ridgecrest-Dr-86001/home/116689641,NAZMLS,198043,N,Y,35.1826335,-111.6439867
MLS Listing,,Single Family Residential,3040 S Solitaires Canyon Dr,Flagstaff,AZ,86005,3500000,4,4.5,Pine Canyon,3832,14418,2018,26,913,265,Active,,,https://www.redfin.com/AZ/Flagstaff/3040-S-Solitaries-Canyon-Dr-86005/home/117332447,NAZMLS,198041,N,Y,35.160131,-111.6306699
MLS Listing,,Condo/Co-op,2993 S Tourmaline Dr #34,Flagstaff,AZ,86005,1485000,3,3.5,Pine Canyon,1891,1558,2023,26,785,680,Active,,,https://www.redfin.com/AZ/Flagstaff/2993-S-Tourmaline-Dr-86005/unit-34/home/161726384,NAZMLS,198024,N,Y,35.1647219,-111.6415599
MLS Listing,,Vacant Land,,Flagstaff,AZ,86005,815000,,,,,26136,,27,,265,Active,,,https://www.redfin.com/AZ/Flagstaff/Undisclosed-address-86005/home/176017907,ARMLS,6746866,N,Y,35.159064,-111.646955
MLS Listing,,Vacant Land,1590 E Castle Hills Dr,Flagstaff,AZ,86005,815000,,,Pine Canyon,,26136,,27,,265,Active,,,https://www.redfin.com/AZ/Flagstaff/1590-E-Castle-Hills-Dr-86005/home/116073713,NAZMLS,198036,N,Y,35.159064,-111.646955
MLS Listing,,Vacant Land,7330 Slayton Ranch Rd,Flagstaff,AZ,86004,196000,,,Hutton/Slayton,,52707,,27,,,Active,,,https://www.redfin.com/AZ/Flagstaff/7330-Slayton-Ranch-Rd-86004/home/116847800,NAZMLS,198034,N,Y,35.244155,-111.482204
MLS Listing,,Vacant Land,6 Potato Tank,Flagstaff,AZ,86001,299900,,,Fort Valley/Baderville,,109604,,28,,,Active,,,https://www.redfin.com/AZ/Flagstaff/6-Potato-Tank-86001/home/170315303,NAZMLS,198030,N,Y,35.490145,-111.911149
MLS Listing,,Mobile/Manufactured Home,5392 Big Game Trl,Flagstaff,AZ,86001,105000,0,,South West City,550,50399,1957,29,191,,Active,,,https://www.redfin.com/AZ/Flagstaff/5392-Big-Game-Trl-86005/home/116853891,NAZMLS,198023,N,Y,35.0603842,-111.5564026
MLS Listing,,Mobile/Manufactured Home,1450 W Kaibab Ln #43,Flagstaff,AZ,86001,150000,3,2.0,W. Rt. 66/Industirial,1428,,1988,29,105,,Active,,,https://www.redfin.com/AZ/Flagstaff/1450-W-Kaibab-Ln-86001/unit-43/home/192148825,NAZMLS,198019,N,Y,35.1893955,-111.6703478
MLS Listing,,Single Family Residential,2520 E Linda Vista Dr,Flagstaff,AZ,86004,825000,4,3.0,Swiss Manor,2141,18731,1995,29,385,,Active,,,https://www.redfin.com/AZ/Flagstaff/2520-E-Linda-Vista-Dr-86004/home/116350455,NAZMLS,198016,N,Y,35.2218962,-111.6062566
MLS Listing,,Vacant Land,9290 Ranch At The Peaks Way #12,Flagstaff,AZ,86001,385000,,,Ranch at the Peaks/Snowbowl Ranches,,89951,,29,,,Active,,,https://www.redfin.com/AZ/Flagstaff/9290-Ranch-at-The-Peaks-Way-86001/unit-12/home/170346000,NAZMLS,198014,N,Y,35.278699,-111.730391
MLS Listing,,Condo/Co-op,3200 S Litzler Dr Unit 16-111,Flagstaff,AZ,86005,375000,2,2.0,University Heights,906,871,1998,29,414,249,Active,,,https://www.redfin.com/AZ/Flagstaff/3200-S-Litzler-Dr-86001/unit-16111/home/192102625,NAZMLS,198012,N,Y,35.1709622,-111.6687789
MLS Listing,,Single Family Residential,416 S Agassiz St,Flagstaff,AZ,86001,549900,3,2.0,NORMAL SCHOOL ADDITION,1331,6980,1965,29,413,,Active,,,https://www.redfin.com/AZ/Flagstaff/416-S-Wc-Riles-St-86001/home/116729626,ARMLS,6745252,N,Y,35.191747,-111.6489304
MLS Listing,,Single Family Residential,3520 W Lead Rope,Flagstaff,AZ,86005,1100000,3,3.5,Flagstaff Ranch,2601,6098,2018,31,423,222,Active,,,https://www.redfin.com/AZ/Flagstaff/3520-W-Lead-Rope-86005/home/116879036,NAZMLS,198003,N,Y,35.174423,-111.7034799
MLS Listing,,Single Family Residential,7769 Emily Way,Flagstaff,AZ,86004,700000,3,2.0,Doney Park East,2053,108900,2006,31,341,,Active,,,https://www.redfin.com/AZ/Flagstaff/7769-Emily-Way-86004/home/116519926,NAZMLS,197999,N,Y,35.289159,-111.510642
MLS Listing,,Single Family Residential,6140 N Harvest Rd,Flagstaff,AZ,86004,750000,5,3.0,Smokerise,3179,7013,1975,32,236,,Active,,,https://www.redfin.com/AZ/Flagstaff/6140-N-Harvest-Rd-86004/home/116407311,NAZMLS,197998,N,Y,35.2367331,-111.5709045
MLS Listing,,Multi-Family (2-4 Unit),114 & 116 N Park St,Flagstaff,AZ,86001,1000000,,,Flagstaff Townsite,2520,,1951,32,397,,Active,,,https://www.redfin.com/AZ/Flagstaff/114-N-Park-St-86001/home/192108369,NAZMLS,197995,N,Y,35.2006888,-111.6538451
MLS Listing,,Townhouse,4000 E Village Cir,Flagstaff,AZ,86004,569000,3,2.5,Elk Run,1510,3935,1994,32,377,195,Active,,,https://www.redfin.com/AZ/Flagstaff/4000-E-Village-Cir-86004/home/116405204,NAZMLS,197987,N,Y,35.209851,-111.594504
MLS Listing,,Single Family Residential,3628 W Altair Way,Flagstaff,AZ,86001,975000,3,2.0,Timber Sky,1715,6665,2022,32,569,60,Active,,,https://www.redfin.com/AZ/Flagstaff/3628-W-Altair-Way-86001/home/167190174,NAZMLS,197983,N,Y,35.189378,-111.698776
MLS Listing,,Vacant Land,8225 Harmony Ln,Flagstaff,AZ,86001,385000,,,Ranch at the Peaks/Snowbowl Ranches,,87251,,32,,,Active,,,https://www.redfin.com/AZ/Flagstaff/8225-N-Harmony-Ln-86001/home/116610447,NAZMLS,197982,N,Y,35.270121,-111.725203
MLS Listing,,Single Family Residential,8622 Jupiter Dr,Flagstaff,AZ,86004,959000,4,3.0,Doney Park East,3209,111339,2018,32,299,,Active,,,https://www.redfin.com/AZ/Flagstaff/8622-Jupiter-Dr-86004/home/116082548,NAZMLS,197981,N,Y,35.26997,-111.495803
MLS Listing,,Single Family Residential,6260 N Dodge Ave,Flagstaff,AZ,86004,425000,4,1.75,Smokerise,1352,6970,1978,32,314,,Active,,,https://www.redfin.com/AZ/Flagstaff/6260-N-Dodge-Ave-86004/home/161730020,NAZMLS,197911,N,Y,35.2379208,-111.5684307
MLS Listing,,Mobile/Manufactured Home,1450 W Kaibab Ln #109,Flagstaff,AZ,86001,95000,2,1.0,W. Rt. 66/Industirial,756,436,1992,33,126,,Active,,,https://www.redfin.com/AZ/Flagstaff/1450-W-Kaibab-Ln-86001/unit-109/home/192105234,NAZMLS,197970,N,Y,35.1893955,-111.6703478
MLS Listing,,Single Family Residential,5910 Velvet Valley Ln,Flagstaff,AZ,86004,1250000,3,2.0,Cosnino Road Area,4006,108900,2007,33,312,,Active,,,https://www.redfin.com/AZ/Flagstaff/5910-Velvet-Valley-Rd-86004/home/116701261,NAZMLS,197968,N,Y,35.2230409,-111.4547049
MLS Listing,,Townhouse,4450 W Arabian Trl,Flagstaff,AZ,86005,1149900,3,3.0,Flagstaff Ranch,2506,273,2017,34,459,359,Active,,,https://www.redfin.com/AZ/Flagstaff/4450-W-Arabian-Trl-86005/home/117333564,NAZMLS,197962,N,Y,35.177238,-111.711063
MLS Listing,,Single Family Residential,2460 S Pinyon Jay Dr #24,Flagstaff,AZ,86005,2548000,3,3.5,Pine Canyon,3221,16846,2025,34,791,265,Active,,,https://www.redfin.com/AZ/Flagstaff/2460-S-Pinyon-Jay-Dr-86004/unit-24/home/192068693,NAZMLS,197959,N,Y,35.1677652,-111.6309682
MLS Listing,,Single Family Residential,2476 S Pinyon Jay Dr #23,Flagstaff,AZ,86005,2379400,3,3.5,Pine Canyon,2637,17024,2025,34,902,265,Active,,,https://www.redfin.com/AZ/Flagstaff/2476-S-Pinyon-Jay-Dr-86004/unit-23/home/192064863,NAZMLS,197955,N,Y,35.167355,-111.630742
MLS Listing,,Single Family Residential,2189 William Palmer,Flagstaff,AZ,86005,2275000,4,4.5,Forest Highlands,3525,13373,1992,35,645,1410,Active,,,https://www.redfin.com/AZ/Flagstaff/2189-William-Palmer-86005/home/116505009,NAZMLS,197950,N,Y,35.1054744,-111.7074754
MLS Listing,,Vacant Land,8914 Ranch AT The Peaks Way #16,Flagstaff,AZ,86001,375000,,,RANCH AT THE PEAKS PHASE 1,,87314,,35,,25,Active,,,https://www.redfin.com/AZ/Flagstaff/8914-Ranch-at-The-Peaks-Way-86001/unit-16/home/173926939,ARMLS,6743238,N,Y,35.276555,-111.729986
MLS Listing,,Single Family Residential,7371 W Dreamview Trl,Flagstaff,AZ,86001,1375000,3,2.5,Fort Valley/Baderville,3787,87120,2004,36,363,,Active,,,https://www.redfin.com/AZ/Flagstaff/7371-W-Dreamview-Trl-86001/home/116894082,NAZMLS,197938,N,Y,35.2651411,-111.7297606
MLS Listing,,Single Family Residential,2465 W Pollo Cir,Flagstaff,AZ,86001,720000,4,2.5,Presidio,2129,2875,2018,36,338,29,Active,,,https://www.redfin.com/AZ/Flagstaff/2465-W-Pollo-Cir-86001/home/116929636,NAZMLS,197935,N,Y,35.1844214,-111.6871154
MLS Listing,,Single Family Residential,1445 E Mackenzie Dr,Flagstaff,AZ,86001,634900,4,3.0,Flagstaff,2229,,2005,36,285,,Active,,,https://www.redfin.com/AZ/Flagstaff/1445-E-Mackenzie-Dr-86001/home/116720779,YAR,20243423,N,Y,35.1843249,-111.6381743
MLS Listing,,Single Family Residential,8355 N Stony Mountain Way,Flagstaff,AZ,86001,1250000,4,3.0,Fort Valley/Baderville,2471,108851,1985,37,506,,Active,,,https://www.redfin.com/AZ/Flagstaff/8355-N-Stony-Mountain-Way-86001/home/116632922,NAZMLS,197932,N,Y,35.2714015,-111.7264032
MLS Listing,,Condo/Co-op,3009 S Tourmaline Dr #22,Flagstaff,AZ,86005,1575000,3,3.5,Pine Canyon,1860,2178,2022,38,847,680,Active,,,https://www.redfin.com/AZ/Flagstaff/3009-S-Tourmaline-Dr-86005/unit-22/home/161619346,NAZMLS,197930,N,Y,35.1638487,-111.6415655
MLS Listing,,Single Family Residential,738 Comanche,Flagstaff,AZ,86005,654000,4,2.0,Mountainaire,1755,4792,2024,38,373,,Active,,,https://www.redfin.com/AZ/Flagstaff/738-Comanche-St-86001/home/192019807,NAZMLS,197928,N,Y,35.0853622,-111.6528992
MLS Listing,,Single Family Residential,3875 S Flagstaff Ranch Rd,Flagstaff,AZ,86005,2260000,5,4.5,Flagstaff Ranch,3511,13068,2019,38,644,222,Active,,,https://www.redfin.com/AZ/Flagstaff/3875-S-Flagstaff-Ranch-Rd-86005/home/116304648,NAZMLS,197925,N,Y,35.1779568,-111.7113959
MLS Listing,,Single Family Residential,4180 Lariat Loop,Flagstaff,AZ,86005,1600000,3,3.5,Flagstaff Ranch,3347,7623,2025,39,478,922,Active,,,https://www.redfin.com/AZ/Flagstaff/4180-S-Lariat-Loop-86005/home/116682018,NAZMLS,197923,N,Y,35.1720961,-111.702548
MLS Listing,,Single Family Residential,2350 N Country Club Dr,Flagstaff,AZ,86004,1300000,6,3.0,Continental Cntry Clb,3515,12632,1990,39,370,,Active,,,https://www.redfin.com/AZ/Flagstaff/2350-N-Country-Club-Dr-86004/home/116168519,NAZMLS,197921,N,Y,35.1976461,-111.5788902
MLS Listing,,Mobile/Manufactured Home,105 Comanche St,Flagstaff,AZ,86005,214000,2,1.0,Mountainaire,960,9148,2001,39,223,,Active,,,https://www.redfin.com/AZ/Flagstaff/105-Comanche-86005/home/116735904,NAZMLS,197909,N,Y,35.0855167,-111.6527276
MLS Listing,,Other,309 N Humphreys St,Flagstaff,AZ,86001,1850000,,,Flagstaff Townsite,3648,,1943,40,507,,Active,,,https://www.redfin.com/AZ/Flagstaff/309-N-Humphreys-St-86001/home/116814596,NAZMLS,197899,N,Y,35.2014514,-111.6500534
MLS Listing,,Single Family Residential,1894 E Myrtlewood Ct #151,Flagstaff,AZ,86005,3750000,5,4.5,Pine Canyon,5303,37284,2017,40,707,265,Active,,,https://www.redfin.com/AZ/Flagstaff/1894-E-Myrtlewood-Ct-86005/unit-151/home/185851986,NAZMLS,197897,N,Y,35.1548693,-111.6420843
MLS Listing,,Single Family Residential,3251 S Tehama Cir,Flagstaff,AZ,86005,2350000,5,4.0,Pine Canyon,3167,17859,2003,40,742,265,Active,,,https://www.redfin.com/AZ/Flagstaff/3251-S-Tehama-Cir-86005/home/116550511,NAZMLS,197895,N,Y,35.1592208,-111.6449313
MLS Listing,,Single Family Residential,2795 E Hemberg Dr,Flagstaff,AZ,86004,835000,5,3.5,Swiss Manor,2447,8712,1993,40,341,,Active,,,https://www.redfin.com/AZ/Flagstaff/2795-E-Hemberg-Dr-86004/home/116533393,NAZMLS,197893,N,Y,35.2221095,-111.6024699
MLS Listing,,Single Family Residential,8235 Jupiter Dr,Flagstaff,AZ,86004,636500,3,2.0,Doney Park East,1432,109336,1993,40,444,,Active,,,https://www.redfin.com/AZ/Flagstaff/8235-Jupiter-Dr-86004/home/116658209,NAZMLS,197890,N,Y,35.2717189,-111.5030363
MLS Listing,,Vacant Land,1948 E Bare Oak Loop #115,Flagstaff,AZ,86005,889000,,,Pine Canyon,,20909,,41,,265,Active,,,https://www.redfin.com/AZ/Flagstaff/1948-E-Bare-Oak-Loop-86005/unit-115/home/173932034,NAZMLS,197881,N,Y,35.153923,-111.639892
MLS Listing,,Vacant Land,1615 E Morgan Run Dr #58,Flagstaff,AZ,86005,525000,,,Pine Canyon,,22216,,41,,265,Active,,,https://www.redfin.com/AZ/Flagstaff/1615-E-Morgan-Run-86005/unit-58/home/173686972,NAZMLS,197880,N,Y,35.161193,-111.64467
MLS Listing,,Single Family Residential,5920 Wildflower Rd,Flagstaff,AZ,86004,699000,2,2.0,Townsend Winona Valley,1359,108029,1984,41,514,,Active,,,https://www.redfin.com/AZ/Flagstaff/5920-Wildflower-Rd-86004/home/116067935,NAZMLS,197877,N,Y,35.2234555,-111.4570496
MLS Listing,,Townhouse,1774 N Blue Spruce Cir,Flagstaff,AZ,86001,635000,3,2.5,NoHo,1697,2408,2000,42,374,176,Active,,,https://www.redfin.com/AZ/Flagstaff/1774-N-Blue-Spruce-Cir-86001/home/116747328,NAZMLS,197869,N,Y,35.214696,-111.6442493
MLS Listing,,Mobile/Manufactured Home,8895 Bugle Trl,Flagstaff,AZ,86004,415000,4,2.0,Doney Park East,1456,1102007,1996,42,285,,Active,,,https://www.redfin.com/AZ/Flagstaff/8895-E-Bugle-Trl-86004/home/116659937,NAZMLS,197714,N,Y,35.2190184,-111.4907434
MLS Listing,,Single Family Residential,1600 S River Valley Rd,Flagstaff,AZ,86004,990000,4,4.5,Forest Ridge/Forest Dale,2450,110076,1963,42,404,,Active,,,https://www.redfin.com/AZ/Flagstaff/1600-S-River-Valley-Rd-86004/home/116816536,NAZMLS,197861,N,Y,35.1812471,-111.6095974
MLS Listing,,Single Family Residential,2573 S Owen Way Lot 5,Flagstaff,AZ,86001,1074066,4,3.5,Timber Sky,2719,9919,2025,42,395,66,Active,,,https://www.redfin.com/AZ/Flagstaff/2573-S-Owen-Way-86001/unit-5/home/191953505,NAZMLS,197860,N,Y,35.186855,-111.700995
MLS Listing,,Townhouse,3212 E Copperleaf Ln Lot 44,Flagstaff,AZ,86004,789942,4,4.0,Canyon Del Rio,2370,3500,2024,42,333,170,Active,,,https://www.redfin.com/AZ/Flagstaff/3212-E-Copperleaf-Ln-86004/unit-44/home/191953131,NAZMLS,197859,N,Y,35.193264,-111.610885
MLS Listing,,Vacant Land,5256 Stonehouse Dr #12,Flagstaff,AZ,86005,107000,,,Elk Park Meadows,,57499,,42,,,Active,,,https://www.redfin.com/AZ/Flagstaff/5256-Stonehouse-Dr-86001/unit-12/home/191952018,NAZMLS,197856,N,Y,35.0610353,-111.5577631
MLS Listing,,Vacant Land,21 Fun Valley Rd #21,Flagstaff,AZ,86001,190000,,,Kendrick/Crawley,,278348,,43,,,Active,,,https://www.redfin.com/AZ/Flagstaff/21-Fun-Valley-Rd-86004/unit-21/home/186540687,NAZMLS,197850,N,Y,35.441641,-111.671546
MLS Listing,,Vacant Land,5700 Foster Rd,Flagstaff,AZ,86004,320000,,,Hutchinson Acres,,112995,,43,,,Active,,,https://www.redfin.com/AZ/Flagstaff/5700-Foster-Rd-86004/home/116789736,NAZMLS,197847,N,Y,35.2209717,-111.4941639
MLS Listing,,Single Family Residential,1703 E Singletree Ct,Flagstaff,AZ,86005,1725000,3,3.5,Pine Canyon,2712,12747,2005,44,636,265,Active,,,https://www.redfin.com/AZ/Flagstaff/1703-E-Singletree-Ct-86005/home/116663194,NAZMLS,197821,N,Y,35.164408,-111.642436
MLS Listing,,Vacant Land,30347063 Alpine Rnch,Flagstaff,AZ,86004,225000,,,Leupp/Winona Area,,1309849,,44,,,Active,,,https://www.redfin.com/AZ/Flagstaff/30347063-Alpine-RNCH-Unknown/home/191933989,NAZMLS,197835,N,Y,35.298405,-111.246317
MLS Listing,,Multi-Family (2-4 Unit),2315 N Center St,Flagstaff,AZ,86004,554900,,,Sunnyside,2162,,1963,45,257,,Active,,,https://www.redfin.com/AZ/Flagstaff/2315-N-Center-St-86004/home/116593901,NAZMLS,197825,N,Y,35.2116213,-111.6204398
MLS Listing,,Mobile/Manufactured Home,2280 Hano Trl,Flagstaff,AZ,86001,232700,3,2.0,Kachina Village,964,6917,1979,45,241,,Active,,,https://www.redfin.com/AZ/Flagstaff/2280-Hano-Trl-86005/home/116600068,ARMLS,6739362,N,Y,35.1047245,-111.6892868
MLS Listing,,Single Family Residential,3114 N Tam Oshanter Dr,Flagstaff,AZ,86004,960000,4,2.5,Continental Cntry Clb,2810,15750,1991,46,342,,Active,,,https://www.redfin.com/AZ/Flagstaff/3114-N-Tam-Oshanter-Dr-86004/home/116111424,NAZMLS,197820,N,Y,35.2087082,-111.583299
MLS Listing,,Single Family Residential,2056 N Rain Tree Rd,Flagstaff,AZ,86004,985000,4,3.5,Elk Run,3217,10367,1987,46,306,35,Active,,,https://www.redfin.com/AZ/Flagstaff/2056-N-Rain-Tree-Rd-86004/home/116526354,NAZMLS,197815,N,Y,35.2026565,-111.598346
MLS Listing,,Single Family Residential,4900 S Wildlife Dr,Flagstaff,AZ,86005,476500,2,1.0,Lake Mary Road,1344,24786,1956,46,355,,Active,,,https://www.redfin.com/AZ/Flagstaff/4900-S-Wildlife-Dr-86005/home/116698618,NAZMLS,197814,N,Y,35.1360098,-111.6150917
MLS Listing,,Single Family Residential,4635 Canyon Loop,Flagstaff,AZ,86005,999900,4,2.0,Kachina Village,2496,43560,2018,47,401,,Active,,,https://www.redfin.com/AZ/Flagstaff/4635-Canyon-Loop-86005/home/116687071,NAZMLS,197811,N,Y,35.088747,-111.689142
MLS Listing,,Single Family Residential,1776 N Wood Hollow Way,Flagstaff,AZ,86004,1199999,3,3.0,Continental Cntry Clb,3274,3274,1985,47,367,54,Active,,,https://www.redfin.com/AZ/Flagstaff/1776-N-Wood-Hollow-Way-86004/home/116106338,NAZMLS,197805,N,Y,35.1983446,-111.5931894
MLS Listing,,Single Family Residential,3550 S Balsawood Ct #112,Flagstaff,AZ,86005,3890000,5,4.5,Pine Canyon,5014,17004,2004,47,776,265,Active,,,https://www.redfin.com/AZ/Flagstaff/3550-S-Balsawood-Ct-86005/unit-112/home/191902500,NAZMLS,197802,N,Y,35.1537696,-111.6409012
MLS Listing,,Single Family Residential,2779 Happy Trails Dr,Flagstaff,AZ,86005,1550000,6,6.0,Lake Mary Road,4796,56192,2018,47,323,,Active,September-21-2024 10:00 AM,September-21-2024 01:00 PM,https://www.redfin.com/AZ/Flagstaff/2779-Happy-Trails-Dr-86005/home/116608554,NAZMLS,197543,N,Y,35.0968449,-111.582927
MLS Listing,,Single Family Residential,2749 W Adirondack Ave,Flagstaff,AZ,86001,975000,4,3.0,Crestview,2400,8067,2020,47,406,30,Active,,,https://www.redfin.com/AZ/Flagstaff/2749-W-Adirondack-Ave-86001/home/161727856,NAZMLS,197780,N,Y,35.1949361,-111.68576
MLS Listing,,Vacant Land,7015 Pettistree Ln,Flagstaff,AZ,86001,200000,,,Fort Valley/Baderville,,86423,,47,,,Active,,,https://www.redfin.com/AZ/Flagstaff/7015-Pettistree-Ln-86001/home/116103559,NAZMLS,197792,N,Y,35.260351,-111.723199
MLS Listing,,Single Family Residential,823 W Clay Ave,Flagstaff,AZ,86001,675000,6,2.5,Flagstaff Townsite,2422,13400,1935,48,279,,Active,,,https://www.redfin.com/AZ/Flagstaff/823-W-Clay-Ave-86001/home/116818541,ARMLS,6738092,N,Y,35.195633,-111.6605296
MLS Listing,,Condo/Co-op,3200 S Litzler Dr Unit 9-237,Flagstaff,AZ,86005,345000,2,2.0,University Heights,776,784,1998,48,445,249,Active,,,https://www.redfin.com/AZ/Flagstaff/3200-S-Litzler-Dr-86001/unit-9-237/home/191886243,NAZMLS,197789,N,Y,35.1709622,-111.6687789
MLS Listing,,Single Family Residential,300 W Silver Spruce Ave,Flagstaff,AZ,86001,689000,3,2.0,NoHo,1352,6710,1974,48,510,,Active,,,https://www.redfin.com/AZ/Flagstaff/300-W-Silver-Spruce-Ave-86001/home/116158792,NAZMLS,197764,N,Y,35.2164845,-111.6463552
MLS Listing,,Single Family Residential,6025 E Peaks Pkwy,Flagstaff,AZ,86004,449500,2,1.0,Fernwood Estates Unit 1,1001,45302,1979,48,449,,Active,,,https://www.redfin.com/AZ/Flagstaff/6025-E-Peaks-Pkwy-86004/home/116610895,ARMLS,6737905,N,Y,35.3251698,-111.5421329
MLS Listing,,Condo/Co-op,1185 W University Ave #212,Flagstaff,AZ,86001,310000,1,1.0,Woodlands Area,682,653,1999,48,455,191,Active,,,https://www.redfin.com/AZ/Flagstaff/1185-W-University-Ave-86001/unit-212/home/116810360,NAZMLS,197784,N,Y,35.183699,-111.670656
MLS Listing,,Townhouse,2552 W Clement Cir,Flagstaff,AZ,86001,675000,4,3.0,Presidio,1960,2439,2018,48,344,29,Active,,,https://www.redfin.com/AZ/Flagstaff/2552-W-Clement-Cir-86001/home/116930326,NAZMLS,197782,N,Y,35.1827542,-111.6867998
MLS Listing,,Single Family Residential,495 W Old Territory Trl,Flagstaff,AZ,86005,799900,3,2.5,Ponderosa Trails,2338,6970,2014,49,342,15,Active,,,https://www.redfin.com/AZ/Flagstaff/495-W-Old-Territory-Trl-86005/home/116703469,NAZMLS,197775,N,Y,35.16152,-111.6718
MLS Listing,,Single Family Residential,10730 N Linda Ln,Flagstaff,AZ,86004,1499999,4,4.5,Timberline Area Pocket,4285,170987,1988,50,350,,Active,,,https://www.redfin.com/AZ/Flagstaff/10730-N-Linda-Ln-86004/home/117336015,NAZMLS,197774,N,Y,35.2946638,-111.5531695
MLS Listing,,Condo/Co-op,2406 E 4th Ave #2412,Flagstaff,AZ,86004,800000,4,4.5,Sunnyside,1824,3000,2018,51,439,17,Active,,,https://www.redfin.com/AZ/Flagstaff/2406-E-4th-Ave-86004/unit-2412/home/191850323,NAZMLS,197762,N,Y,35.2090466,-111.6144311
MLS Listing,,Multi-Family (2-4 Unit),1705 N West St,Flagstaff,AZ,86004,1099900,,,Sunnyside,,,2024,53,,,Active,,,https://www.redfin.com/AZ/Flagstaff/1705-N-West-St-86004/home/116106729,NAZMLS,197738,N,Y,35.2041512,-111.6214567
MLS Listing,,Single Family Residential,3291 S Little Dr,Flagstaff,AZ,86005,899000,4,2.5,University Heights,3077,14682,1979,53,292,,Active,,,https://www.redfin.com/AZ/Flagstaff/3291-S-Little-Dr-86005/home/116122715,NAZMLS,197736,N,Y,35.1708025,-111.6715317
MLS Listing,,Single Family Residential,3457 Awatobi Ovi,Flagstaff,AZ,86001,599900,4,3.0,Kachina Village,2160,13504,1984,53,278,,Active,,,https://www.redfin.com/AZ/Flagstaff/3457-Awatobi-Ovi-86005/home/116833343,NAZMLS,197650,N,Y,35.0869521,-111.6920989
MLS Listing,,Townhouse,2426 N Earle Dr,Flagstaff,AZ,86004,575000,3,2.5,Elk Run,1762,1525,1992,54,326,403,Active,,,https://www.redfin.com/AZ/Flagstaff/2426-N-Earle-Dr-86004/home/116593580,NAZMLS,197733,N,Y,35.2041154,-111.5924334
MLS Listing,,Single Family Residential,4840 E Gandalf Ln,Flagstaff,AZ,86004,5999000,4,5.0,Forest Ridge/Forest Dale,5411,161172,2024,54,1109,58,Active,,,https://www.redfin.com/AZ/Flagstaff/4840-E-Gandalf-Ln-86004/home/116724258,NAZMLS,197728,N,Y,35.185246,-111.59777
MLS Listing,,Condo/Co-op,3200 S Litzler Dr #8134,Flagstaff,AZ,86005,348900,2,2.0,University Heights,776,,1998,54,450,249,Active,,,https://www.redfin.com/AZ/Flagstaff/3200-S-Litzler-Dr-86001/unit-8134/home/191800228,NAZMLS,197722,N,Y,35.1709622,-111.6687789
MLS Listing,,Single Family Residential,3659 Tonowanda --,Flagstaff,AZ,86005,349700,2,1.0,Mountanaire,1061,14722,1961,54,330,,Active,,,https://www.redfin.com/AZ/Flagstaff/3659-Tonowanda-86005/home/116735743,ARMLS,6735628,N,Y,35.0844834,-111.6673184
MLS Listing,,Single Family Residential,6105 Deer Dr,Flagstaff,AZ,86004,465000,3,1.0,Fernwood,1152,43778,1980,54,404,,Active,,,https://www.redfin.com/AZ/Flagstaff/6105-Deer-Dr-86004/home/116437654,NAZMLS,197713,N,Y,35.3227608,-111.5403585
MLS Listing,,Single Family Residential,473 E Clover Creek Dr,Flagstaff,AZ,86005,930000,4,2.5,Foxwood,2326,9627,2016,54,400,13,Active,,,https://www.redfin.com/AZ/Flagstaff/473-E-Clover-Creek-Dr-86005/home/116891503,NAZMLS,197711,N,Y,35.1575625,-111.6636078
MLS Listing,,Townhouse,6656 N Snowflake Dr,Flagstaff,AZ,86004,379000,3,1.5,Christmas Tree,1453,3671,1980,54,261,,Active,,,https://www.redfin.com/AZ/Flagstaff/6656-N-Snowflake-Dr-86004/home/116173961,NAZMLS,197700,N,Y,35.2393026,-111.5739932
MLS Listing,,Single Family Residential,2607 E Matterhorn Dr,Flagstaff,AZ,86004,945000,5,3.5,Swiss Manor,2878,9583,1987,57,328,,Active,,,https://www.redfin.com/AZ/Flagstaff/2607-E-Matterhorn-Dr-86004/home/116491491,NAZMLS,197692,N,Y,35.2237943,-111.6047512
MLS Listing,,Condo/Co-op,3022 S Clubhouse Cir #57,Flagstaff,AZ,86005,1558000,3,3.0,Pine Canyon,2142,1742,2025,58,727,680,Active,,,https://www.redfin.com/AZ/Flagstaff/3022-S-Clubhouse-Cir-86005/unit-57/home/161619410,NAZMLS,197683,N,Y,35.1654748,-111.6399793
MLS Listing,,Townhouse,2527 W Josselyn Dr,Flagstaff,AZ,86001,700000,4,3.0,Presidio,2332,2178,2018,58,300,29,Active,,,https://www.redfin.com/AZ/Flagstaff/2527-W-Josselyn-Dr-86001/home/116930780,NAZMLS,197682,N,Y,35.1816171,-111.6888246
MLS Listing,,Single Family Residential,1405 N Rim Dr,Flagstaff,AZ,86001,621000,3,2.0,NoHo,1100,5499,1946,59,565,,Active,,,https://www.redfin.com/AZ/Flagstaff/1405-N-Rim-Dr-86001/home/116565265,NAZMLS,197676,N,Y,35.2111178,-111.6480921
MLS Listing,,Townhouse,302 W Oak Ave #3,Flagstaff,AZ,86001,598000,2,2.5,MT ELDEN ADDITION,1085,875,2024,60,551,180,Active,,,https://www.redfin.com/AZ/Flagstaff/302-W-Oak-Ave-86001/unit-3/home/191732553,ARMLS,6733268,N,Y,35.2126541,-111.6455544
MLS Listing,,Townhouse,302 W Oak Ave #2,Flagstaff,AZ,86001,605000,2,2.5,MT ELDEN ADDITION,1098,875,2024,60,551,180,Active,,,https://www.redfin.com/AZ/Flagstaff/302-W-Oak-Ave-86001/unit-2/home/191727502,ARMLS,6733260,N,Y,35.2126541,-111.6455544
MLS Listing,,Condo/Co-op,1385 W University Ave Unit 11-182,Flagstaff,AZ,86001,369000,2,2.0,Woodlands Area,906,871,1995,60,407,221,Active,,,https://www.redfin.com/AZ/Flagstaff/1385-W-University-Ave-86001/unit-11-182/home/188049441,NAZMLS,197648,N,Y,35.181863,-111.6718489
MLS Listing,,Single Family Residential,8935 Marys Dr,Flagstaff,AZ,86004,657000,4,2.0,Doney Park West,1640,106286,1988,61,401,,Active,,,https://www.redfin.com/AZ/Flagstaff/8935-Marys-Dr-86004/home/116438293,NAZMLS,197640,N,Y,35.2684993,-111.5308303
MLS Listing,,Single Family Residential,2814 S Fossil Creek Ln,Flagstaff,AZ,86001,565000,3,2.5,Presidio,1710,2100,2013,61,330,67,Active,,,https://www.redfin.com/AZ/Flagstaff/2814-S-Fossil-Creek-Ln-86001/home/116698336,NAZMLS,197638,N,Y,35.184724,-111.6871602
MLS Listing,,Mobile/Manufactured Home,5570 Foster Rd,Flagstaff,AZ,86004,435000,3,2.0,Mountain Vw Ranchos,1598,87120,1997,61,272,,Active,,,https://www.redfin.com/AZ/Flagstaff/5570-Foster-Rd-86004/home/116530112,NAZMLS,197637,N,Y,35.2197422,-111.4930432
MLS Listing,,Single Family Residential,10280 E Wapiti Trl,Flagstaff,AZ,86004,1275000,6,5.0,Cosnino Road Area,4776,217800,1998,61,267,,Active,,,https://www.redfin.com/AZ/Flagstaff/10280-E-Wapiti-Trl-86004/home/116425379,NAZMLS,197636,N,Y,35.196053,-111.466198
MLS Listing,,Single Family Residential,1850 S River Valley Rd,Flagstaff,AZ,86004,700000,3,1.0,Forest Ridge/Forest Dale,1200,152460,1965,62,583,,Active,,,https://www.redfin.com/AZ/Flagstaff/1850-S-River-Valley-Rd-86004/home/116300524,NAZMLS,197631,N,Y,35.178298,-111.611384
MLS Listing,,Single Family Residential,3866 S Clubhouse Cir #259,Flagstaff,AZ,86005,5995000,5,4.5,Pine Canyon,6522,28314,2008,62,919,245,Active,,,https://www.redfin.com/AZ/Flagstaff/3866-S-Clubhouse-Cir-86005/unit-259/home/172518916,NAZMLS,197621,N,Y,35.158931,-111.636866
MLS Listing,,Single Family Residential,116 S O Leary St,Flagstaff,AZ,86001,1199900,5,2.0,Southside/ Brannen,2442,7536,1936,63,491,,Active,,,https://www.redfin.com/AZ/Flagstaff/116-S-O-Leary-St-86001/home/188058633,NAZMLS,197613,N,Y,35.1939947,-111.6469563
MLS Listing,,Vacant Land,9107 Solar Rd,Flagstaff,AZ,86004,325000,,,Slayton Ranch Est,,125452,,63,,,Active,,,https://www.redfin.com/AZ/Flagstaff/9107-Solar-Rd-86004/home/116181837,NAZMLS,197611,N,Y,35.2692484,-111.4874305
MLS Listing,,Mobile/Manufactured Home,5250 N Us Hwy 89 #156,Flagstaff,AZ,86004,220000,3,2.0,Smokerise,1369,,2023,63,161,,Active,,,https://www.redfin.com/AZ/Flagstaff/5250-U-S-89-86004/unit-156/home/191606690,NAZMLS,197610,N,Y,35.2291832,-111.5756134
MLS Listing,,Single Family Residential,3354 W Lyra Way Lot 26,Flagstaff,AZ,86001,745401,3,2.0,Timber Sky,1793,5663,2024,63,416,66,Active,,,https://www.redfin.com/AZ/Flagstaff/3354-W-Lyra-WAY-Unknown/unit-26/home/191604833,NAZMLS,197609,N,Y,35.185573,-111.697155
MLS Listing,,Single Family Residential,2808 N Erin Way,Flagstaff,AZ,86001,650000,3,2.0,Cheshire/Peak View,1566,8886,1985,63,415,,Active,,,https://www.redfin.com/AZ/Flagstaff/2808-N-Erin-Way-86001/home/116397820,NAZMLS,197608,N,Y,35.2342335,-111.6732224
MLS Listing,,Single Family Residential,8420 Slayton Ranch Rd,Flagstaff,AZ,86004,1095000,2,3.0,Hutton/Slayton,2691,98010,2012,63,407,,Active,,,https://www.redfin.com/AZ/Flagstaff/8420-Slayton-Ranch-Rd-86004/home/116300115,NAZMLS,197603,N,Y,35.258935,-111.488678
MLS Listing,,Mobile/Manufactured Home,2684 Wepo Trl,Flagstaff,AZ,86005,200925,2,1.0,Kachina Village,896,7070,1979,64,224,,Active,,,https://www.redfin.com/AZ/Flagstaff/2684-Wepo-Trl-86005/home/116356076,NAZMLS,197599,N,Y,35.0979085,-111.689547
MLS Listing,,Vacant Land,2319 Keams Canyon Trl #1166,Flagstaff,AZ,86005,191425,,,Kachina Village,,5401,,64,,,Active,,,https://www.redfin.com/AZ/Flagstaff/2319-Keams-Canyon-Trl-86005/unit-1166/home/191594356,NAZMLS,197598,N,Y,35.1033203,-111.6859836
MLS Listing,,Vacant Land,2496 Kachina Trl #957,Flagstaff,AZ,86005,210425,,,Kachina Village,,8712,,64,,,Active,,,https://www.redfin.com/AZ/Flagstaff/2496-Kachina-Trl-86001/unit-957/home/191594334,NAZMLS,197596,N,Y,35.1009032,-111.6916793
MLS Listing,,Single Family Residential,1725 S Ax Handle Way,Flagstaff,AZ,86001,1050000,4,2.5,Boulder Pointe,2554,12178,2005,64,411,11,Active,,,https://www.redfin.com/AZ/Flagstaff/1725-Ax-Handle-Way-86001/home/116776786,NAZMLS,197593,N,Y,35.1837644,-111.6825814
MLS Listing,,Mobile/Manufactured Home,9745 Carl Rd,Flagstaff,AZ,86004,440000,2,1.0,Hutton/Slayton,900,100624,1985,65,489,,Active,,,https://www.redfin.com/AZ/Flagstaff/9745-Carl-Rd-86004/home/116749119,NAZMLS,197587,N,Y,35.251166,-111.476795
MLS Listing,,Mobile/Manufactured Home,1331 E Cir Vw Dr,Flagstaff,AZ,86001,114900,3,2.0,Switzer Mesa/Ridge,1034,4400,1992,65,111,,Active,,,https://www.redfin.com/AZ/Flagstaff/1331-E-Circle-View-Dr-86001/home/116390942,NAZMLS,197475,N,Y,35.196043,-111.633308
MLS Listing,,Vacant Land,3655 S Woodland Hills Dr #366,Flagstaff,AZ,86005,1050000,,,Pine Canyon,,22250,,66,,265,Active,,,https://www.redfin.com/AZ/Flagstaff/3655-S-Woodland-Hills-DR-Unknown/unit-366/home/186795203,NAZMLS,197572,N,Y,35.156558,-111.634808
MLS Listing,,Vacant Land,17 Walking Cane Ranch Rd,Flagstaff,AZ,86004,189000,,,Leupp/Winona Area,,1742400,,66,,,Active,,,https://www.redfin.com/AZ/Flagstaff/17-Walking-Cane-Ranch-Rd-86004/home/116138459,NAZMLS,197571,N,Y,35.252745,-111.301461
MLS Listing,,Single Family Residential,10290 Lundin,Flagstaff,AZ,86004,1100000,3,2.0,Johnson Ranch,2446,43560,2018,66,450,50,Active,,,https://www.redfin.com/AZ/Flagstaff/10290-Lundin-Rd-86004/home/145136994,NAZMLS,197570,N,Y,35.2845045,-111.5406378
MLS Listing,,Townhouse,302 W Oak Ave #1,Flagstaff,AZ,86001,635000,3,2.5,MT ELDEN ADDITION,1213,875,2024,67,523,180,Active,,,https://www.redfin.com/AZ/Flagstaff/302-W-Oak-Ave-86001/unit-1/home/191727496,ARMLS,6730466,N,Y,35.2126541,-111.6455544
MLS Listing,,Vacant Land,703 S Blackbird Roost,Flagstaff,AZ,86001,4600000,,,W. Rt. 66/Industirial,,135559,,67,,,Active,,,https://www.redfin.com/AZ/Flagstaff/703-S-Blackbird-Roost-86001/home/161617377,NAZMLS,197558,N,Y,35.1942656,-111.6616591
MLS Listing,,Single Family Residential,4971 E Retreat Cir,Flagstaff,AZ,86004,539000,2,2.0,Trails End,1025,3354,2021,67,526,25,Active,,,https://www.redfin.com/AZ/Flagstaff/4971-E-Retreat-Cir-86004/home/167192087,NAZMLS,197555,N,Y,35.2390139,-111.5686105
MLS Listing,,Townhouse,1369 S Maricopa St,Flagstaff,AZ,86001,768500,3,2.5,Pine Knoll,2140,4792,2011,68,359,101,Active,,,https://www.redfin.com/AZ/Flagstaff/1369-S-Maricopa-St-86001/home/116097537,NAZMLS,197554,N,Y,35.1826744,-111.6408149
MLS Listing,,Single Family Residential,3555 Zachary Way,Flagstaff,AZ,86001,999999,4,4.0,University Highlands,3307,13127,1995,68,302,,Active,,,https://www.redfin.com/AZ/Flagstaff/3555-S-Zachary-Way-86005/home/116604456,NAZMLS,197547,N,Y,35.1709691,-111.6835164
MLS Listing,,Single Family Residential,4811 W Laskin Trl,Flagstaff,AZ,86001,1025000,5,3.0,Fort Valley/Baderville,3022,74488,2014,68,339,,Active,,,https://www.redfin.com/AZ/Flagstaff/4811-W-Laskin-Trl-86001/home/116712347,NAZMLS,197546,N,Y,35.2665724,-111.7337677
MLS Listing,,Condo/Co-op,1385 W University Ave #148,Flagstaff,AZ,86001,365000,2,2.0,Woodlands Area,906,879,1999,68,403,207,Active,,,https://www.redfin.com/AZ/Flagstaff/1385-W-University-Ave-86001/unit-148/home/116075018,NAZMLS,197531,N,Y,35.1836971,-111.6733294
MLS Listing,,Single Family Residential,11157 N Lilac Ln,Flagstaff,AZ,86004,1100000,5,3.0,Metes and Bounds,2610,110983,2004,68,421,,Active,,,https://www.redfin.com/AZ/Flagstaff/11157-N-Lilac-Ln-86004/home/116305592,ARMLS,6726975,N,Y,35.3009221,-111.5377893
MLS Listing,,Vacant Land,261 W Oak Ave #11,Flagstaff,AZ,86001,400000,,,MT ELDEN ADDITION,,10944,,69,,,Active,,,https://www.redfin.com/AZ/Flagstaff/261-W-Oak-Ave-86001/unit-11/home/191546953,ARMLS,6729582,N,Y,35.211737,-111.645834
MLS Listing,,Condo/Co-op,1385 W University Ave Unit 10-280,Flagstaff,AZ,86001,359000,2,2.0,Woodlands Area,906,871,1999,69,396,221,Active,,,https://www.redfin.com/AZ/Flagstaff/1385-W-University-Ave-86001/unit-10-280/home/191544820,NAZMLS,197535,N,Y,35.1836971,-111.6733294
MLS Listing,,Vacant Land,261 W Oak Ave,Flagstaff,AZ,86001,400000,,,NoHo,,10890,,71,,,Active,,,https://www.redfin.com/AZ/Flagstaff/261-W-Oak-Ave-86001/home/116631502,NAZMLS,197520,N,Y,35.211737,-111.645834
MLS Listing,,Townhouse,997 E Sterling Ln,Flagstaff,AZ,86005,720000,3,2.5,Pinnacle Pines,2106,3485,2006,71,342,226,Active,,,https://www.redfin.com/AZ/Flagstaff/997-E-Sterling-Ln-86005/home/116895814,NAZMLS,197516,N,Y,35.1644316,-111.6492993
MLS Listing,,Vacant Land,5464 E Pumpkin Patch Rd,Flagstaff,AZ,86004,325000,,,Timberline Area Pocket,,217800,,71,,,Active,,,https://www.redfin.com/AZ/Flagstaff/5464-E-Pumpkin-Patch-Rd-86004/home/192242663,NAZMLS,197514,N,Y,35.3352984,-111.5536092
MLS Listing,,Townhouse,3334 S Litzler Dr,Flagstaff,AZ,86005,562400,4,3.5,University Heights,1688,3049,2002,71,333,232,Active,,,https://www.redfin.com/AZ/Flagstaff/3334-S-Litzler-Dr-86005/home/116146364,NAZMLS,197441,N,Y,35.1695315,-111.6683245
MLS Listing,,Single Family Residential,7657 Grace Ct,Flagstaff,AZ,86004,1125000,4,2.5,Rio Rancho/Sunset Vista,2675,100188,2024,72,421,25,Active,,,https://www.redfin.com/AZ/Flagstaff/7657-Grace-Ct-86004/home/116883802,NAZMLS,197431,N,Y,35.249313,-111.489966
MLS Listing,,Single Family Residential,7300 N Snow Bowl Rd,Flagstaff,AZ,86001,2500000,3,2.0,Fort Valley/Baderville,1921,513572,1986,73,1301,,Active,,,https://www.redfin.com/AZ/Flagstaff/7300-N-Snow-Bowl-Rd-86001/home/116307649,NAZMLS,197509,N,Y,35.2633629,-111.7175292
MLS Listing,,Multi-Family (2-4 Unit),601 W Grand Canyon Ave,Flagstaff,AZ,86001,1790000,,,Flagstaff Townsite,3105,,1916,74,576,,Active,,,https://www.redfin.com/AZ/Flagstaff/601-W-Grand-Canyon-Ave-86001/home/191505675,NAZMLS,197490,N,Y,35.1995063,-111.6558899
MLS Listing,,Single Family Residential,603 W Grand Canyon Ave,Flagstaff,AZ,86001,1790000,6,5.0,Flagstaff Townsite,3105,14438,1916,74,576,,Active,,,https://www.redfin.com/AZ/Flagstaff/603-W-Grand-Canyon-Ave-86001/home/171305636,NAZMLS,197487,N,Y,35.19946,-111.6559871
MLS Listing,,Condo/Co-op,3200 S Litzler Dr #10144,Flagstaff,AZ,86005,345000,2,2.0,University Heights,776,787,1998,75,445,249,Active,,,https://www.redfin.com/AZ/Flagstaff/3200-S-Litzler-Dr-86005/unit-10-144/home/116488547,NAZMLS,197471,N,Y,35.1709622,-111.6687789
MLS Listing,,Single Family Residential,8620 E Silver Valley Rd,Flagstaff,AZ,86004,745000,3,2.0,Doney Park West,2589,119616,1987,75,288,,Active,,,https://www.redfin.com/AZ/Flagstaff/8620-Silver-Valley-Rd-86004/home/116707305,NAZMLS,197464,N,Y,35.263979,-111.535693
MLS Listing,,Single Family Residential,7851 Pine Country Ln,Flagstaff,AZ,86004,785000,2,2.0,Doney Park West,1870,216058,1990,76,420,,Active,,,https://www.redfin.com/AZ/Flagstaff/7851-Pine-Country-Ln-86004/home/116695019,NAZMLS,197448,N,Y,35.2519417,-111.5331489
MLS Listing,,Single Family Residential,3009 W Foothills Way,Flagstaff,AZ,86001,875000,3,3.0,Cheshire/Peak View,1876,21954,1985,76,466,,Active,,,https://www.redfin.com/AZ/Flagstaff/3009-W-Foothills-Way-86001/home/116343855,NAZMLS,197436,N,Y,35.2302918,-111.6712224
MLS Listing,,Townhouse,3212 S Marryvale Ln,Flagstaff,AZ,86005,619000,2,1.75,Pinnacle Pines,1410,3920,2012,76,439,226,Active,,,https://www.redfin.com/AZ/Flagstaff/3212-S-Marryvale-Ln-86005/home/116501907,NAZMLS,197443,N,Y,35.1641673,-111.6495286
MLS Listing,,Single Family Residential,310 W Navajo Rd,Flagstaff,AZ,86001,889900,5,3.0,Coconino Estates,1932,8279,1956,76,461,,Active,,,https://www.redfin.com/AZ/Flagstaff/310-W-Navajo-Rd-86001/home/116389802,NAZMLS,197440,N,Y,35.2075364,-111.6487911
MLS Listing,,Single Family Residential,8033 N Harmony Ln,Flagstaff,AZ,86001,1225000,4,3.0,Ranch at the Peaks/Snowbowl Ranches,3180,43124,2025,77,385,,Active,,,https://www.redfin.com/AZ/Flagstaff/8033-N-Harmony-Ln-86001/home/116579723,NAZMLS,197438,N,Y,35.268566,-111.724993
MLS Listing,,Vacant Land,5356 Stonehouse Dr #7,Flagstaff,AZ,86001,195000,,,ELK PARK MEADOWS,,41491,,77,,,Active,,,https://www.redfin.com/AZ/Flagstaff/5356-Stonehouse-Dr-86001/unit-7/home/172695006,ARMLS,6726764,N,Y,35.0620566,-111.5564216
MLS Listing,,Townhouse,4445 E Savannah Cir,Flagstaff,AZ,86004,625000,3,2.5,Continental Cntry Clb,1886,2831,1995,77,331,50,Active,,,https://www.redfin.com/AZ/Flagstaff/4445-E-Savannah-Cir-86004/home/116098279,NAZMLS,197434,N,Y,35.1945621,-111.5953202
MLS Listing,,Single Family Residential,1907 E Arrowhead Ave,Flagstaff,AZ,86004,439000,3,2.0,Sunnyside,1040,4051,1984,77,422,,Active,,,https://www.redfin.com/AZ/Flagstaff/1907-E-Arrowhead-Ave-86004/home/116755211,NAZMLS,197433,N,Y,35.2013076,-111.6203536
MLS Listing,,Condo/Co-op,1650 E Ponderosa Pkwy #312,Flagstaff,AZ,86001,539000,3,2.0,Switzer Mesa/Ridge,1370,1307,2021,78,393,250,Active,,,https://www.redfin.com/AZ/Flagstaff/1650-E-Ponderosa-Pkwy-86001/unit-312/home/178757499,NAZMLS,197416,N,Y,35.198277,-111.6261639
MLS Listing,,Townhouse,2316 N Earle Dr,Flagstaff,AZ,86004,600000,3,2.5,Elk Run Townhouses,1711,1481,1995,78,351,403,Active,,,https://www.redfin.com/AZ/Flagstaff/2316-N-Earle-Dr-86004/home/116593553,ARMLS,6726104,N,Y,35.2030906,-111.5936343
MLS Listing,,Vacant Land,5356 Stonehouse Dr,Flagstaff,AZ,86005,195000,,,Elk Park Meadows,,40193,,78,,,Active,,,https://www.redfin.com/AZ/Flagstaff/5356-Stonehouse-Dr-86005/home/116702921,NAZMLS,197414,N,Y,35.062062,-111.5564326
MLS Listing,,Single Family Residential,23 E Judy St,Flagstaff,AZ,86005,940000,5,4.5,Aspen Trails,2772,7405,1998,79,339,20,Active,,,https://www.redfin.com/AZ/Flagstaff/23-E-Judy-St-86005/home/116157879,NAZMLS,196200,N,Y,35.1591967,-111.665147
MLS Listing,,Townhouse,2501 E Eva Loop,Flagstaff,AZ,86004,434900,3,2.0,Lower Greenlaw,1358,2164,1991,80,320,165,Active,,,https://www.redfin.com/AZ/Flagstaff/2501-E-Eva-Loop-86004/home/116691888,NAZMLS,197250,N,Y,35.2160062,-111.6092399
MLS Listing,,Single Family Residential,3919 N Paradise Rd,Flagstaff,AZ,86001,985000,3,2.5,Paradise Hills,2282,19166,1975,80,432,,Active,,,https://www.redfin.com/AZ/Flagstaff/3919-N-Paradise-Rd-86004/home/116656671,NAZMLS,197405,N,Y,35.2267391,-111.627507
MLS Listing,,Townhouse,1029 E Sterling Ln,Flagstaff,AZ,86005,685000,4,2.5,Pinnacle Pines,2392,3920,2006,82,286,226,Active,,,https://www.redfin.com/AZ/Flagstaff/1029-E-Sterling-Ln-86005/home/116090541,NAZMLS,197142,N,Y,35.1641136,-111.6491007
MLS Listing,,Vacant Land,2531 E Del Rae Dr #189,Flagstaff,AZ,86005,555000,,,ESTATES AT PINE CANYON 2,,16885,,82,,265,Active,,,https://www.redfin.com/AZ/Flagstaff/2531-E-del-Rae-Dr-86005/unit-189/home/172519005,ARMLS,6724446,N,Y,35.1546167,-111.6306921
MLS Listing,,Single Family Residential,8607 W Roundup Trl,Flagstaff,AZ,86001,1350000,4,2.5,Fort Valley/Baderville,3013,86989,2005,82,448,,Active,,,https://www.redfin.com/AZ/Flagstaff/8607-W-Roundup-Trl-86001/home/116705832,NAZMLS,197375,N,Y,35.2541559,-111.7434311
MLS Listing,,Vacant Land,2531 E Del Rae Dr,Flagstaff,AZ,86005,555000,,,Pine Canyon,,16885,,82,,265,Active,,,https://www.redfin.com/AZ/Flagstaff/2531-E-Del-Rae-Dr-86005/home/116290800,NAZMLS,197374,N,Y,35.154661,-111.630568
MLS Listing,,Single Family Residential,2395 S Polaris Way,Flagstaff,AZ,86001,975000,4,2.5,Timber Sky,2443,8364,2021,83,399,66,Active,,,https://www.redfin.com/AZ/Flagstaff/2395-S-Polaris-Way-86001/home/167190229,NAZMLS,197371,N,Y,35.187242,-111.6968988
MLS Listing,,Vacant Land,3484 S Del Mar Ct #168,Flagstaff,AZ,86005,430000,,,Pine Canyon,,18295,,83,,265,Active,,,https://www.redfin.com/AZ/Flagstaff/3484-S-del-Mar-Ct-86005/unit-168/home/170346559,NAZMLS,197361,N,Y,35.152473,-111.63739
MLS Listing,,Single Family Residential,1540 N Mariposa Rd,Flagstaff,AZ,86004,1125000,5,3.75,Continental Cntry Clb,3873,10846,1990,83,290,36,Active,,,https://www.redfin.com/AZ/Flagstaff/1540-N-Mariposa-Rd-86004/home/116123577,NAZMLS,197359,N,Y,35.1944671,-111.5884019
MLS Listing,,Single Family Residential,8570 Yakima Rd,Flagstaff,AZ,86004,600000,3,2.0,Doney Park East,1266,108464,1997,83,474,25,Active,,,https://www.redfin.com/AZ/Flagstaff/8570-Yakima-Rd-86004/home/116359662,NAZMLS,197357,N,Y,35.2810198,-111.4962516
MLS Listing,,Townhouse,1825 N Spencer Cir,Flagstaff,AZ,86004,539000,2,2.0,Continental Cntry Clb,1263,1350,1985,84,427,178,Active,,,https://www.redfin.com/AZ/Flagstaff/1825-N-Spencer-Cir-86004/home/116732728,NAZMLS,197343,N,Y,35.1978599,-111.589739
MLS Listing,,Single Family Residential,3699 S Woodland Hills Dr,Flagstaff,AZ,86005,6995000,5,5.5,PINE CANYON,5900,25700,2024,85,1186,225,Active,,,https://www.redfin.com/AZ/Flagstaff/3699-S-Woodland-Hills-DR-86005/home/180945412,ARMLS,6723410,N,Y,35.15412,-111.635725
MLS Listing,,Single Family Residential,2097 W University Ave,Flagstaff,AZ,86001,915000,5,2.75,Boulder Pointe,2365,10454,2003,85,387,11,Active,,,https://www.redfin.com/AZ/Flagstaff/2097-W-University-Ave-86001/home/116103459,NAZMLS,197320,N,Y,35.1804133,-111.6816066
MLS Listing,,Condo/Co-op,1734 E Mossy Oak Ct #3,Flagstaff,AZ,86005,1475000,3,2.0,Pine Canyon,1812,1437,2008,87,814,680,Active,,,https://www.redfin.com/AZ/Flagstaff/1734-E-Mossy-Oak-Ct-86005/unit-3/home/116146841,NAZMLS,197315,N,Y,35.1634866,-111.6402456
MLS Listing,,Single Family Residential,3770 S Bridle Path,Flagstaff,AZ,86005,2095000,5,3.5,Flagstaff Ranch,3455,39204,2018,87,606,689,Active,,,https://www.redfin.com/AZ/Flagstaff/3770-S-Bridle-Path-86005/home/116894846,NAZMLS,197314,N,Y,35.176297,-111.703253
MLS Listing,,Condo/Co-op,1650 Ponderosa Pkwy #102,Flagstaff,AZ,86001,349000,1,1.0,Switzer Mesa/Ridge,722,697,2020,87,483,250,Active,,,https://www.redfin.com/AZ/Flagstaff/1650-E-Ponderosa-Pkwy-86001/unit-102/home/178757463,NAZMLS,197289,N,Y,35.198277,-111.6261639
MLS Listing,,Single Family Residential,1202 W Davis Way,Flagstaff,AZ,86001,650000,4,2.0,Coconino Estates,1667,9270,1958,88,390,,Active,,,https://www.redfin.com/AZ/Flagstaff/1202-W-Davis-Way-86001/home/116391926,NAZMLS,197304,N,Y,35.2212616,-111.6529139
MLS Listing,,Condo/Co-op,1200 S Riordan Ranch St #21,Flagstaff,AZ,86001,285000,1,1.0,UNIVERSITY MEADOWS CONDOMINIUMS,520,271,1990,88,548,237,Active,,,https://www.redfin.com/AZ/Flagstaff/1200-S-Riordan-Ranch-St-86001/unit-21/home/116746908,ARMLS,6722191,N,Y,35.1885569,-111.6592787
MLS Listing,,Vacant Land,1165 N Worthington Pl #70,Flagstaff,AZ,86001,239900,,,Switzer Mesa/Ridge,,11369,,88,,48,Active,,,https://www.redfin.com/AZ/Flagstaff/1165-N-Worthington-Pl-86001/unit-70/home/191293724,NAZMLS,197290,N,Y,35.2062437,-111.6381594
MLS Listing,,Single Family Residential,0000 N Private Rd,Flagstaff,AZ,86001,1600000,4,2.0,Hart Prairie Area,2255,823821,1994,89,710,,Active,,,https://www.redfin.com/AZ/Flagstaff/0000-N-Private-RD-86001/home/177004717,NAZMLS,197284,N,Y,35.351709,-111.749257
MLS Listing,,Vacant Land,3320 Forest Service Rd 237,Flagstaff,AZ,86005,399000,,,Kachina Village,,25265,,89,,,Active,,,https://www.redfin.com/AZ/Flagstaff/3320-FS-Rd-237-86005/home/170313652,NAZMLS,197282,N,Y,35.088938,-111.687389
MLS Listing,,Single Family Residential,8073 N Harmony Ln,Flagstaff,AZ,86001,1325000,4,3.0,Ranch at the Peaks/Snowbowl Ranches,2969,43560,2025,89,446,,Active,,,https://www.redfin.com/AZ/Flagstaff/8073-N-Harmony-Ln-86001/home/116642240,NAZMLS,197279,N,Y,35.268729,-111.725381
MLS Listing,,Vacant Land,00 Crowley Trl,Flagstaff,AZ,86001,550000,,,Kendrick/Crawley,,217800,,90,,,Active,,,https://www.redfin.com/AZ/Flagstaff/0-Crowley-TER-86001/home/170315408,NAZMLS,197256,N,Y,35.389657,-111.81172
MLS Listing,,Single Family Residential,3596 W Altair Way,Flagstaff,AZ,86001,1025000,4,3.5,Timber Sky,2471,8625,2020,91,415,66,Active,,,https://www.redfin.com/AZ/Flagstaff/3596-W-Altair-Way-86001/home/167190170,NAZMLS,197244,N,Y,35.1895465,-111.6979558
MLS Listing,,Single Family Residential,12006 N Copeland Ln,Flagstaff,AZ,86004,1150000,4,2.5,Timberline Area Pocket,3481,194278,2005,91,330,,Active,,,https://www.redfin.com/AZ/Flagstaff/12006-N-Copeland-Ln-86004/home/116502226,NAZMLS,197239,N,Y,35.3136564,-111.5567408
MLS Listing,,Townhouse,4390 Wild Elk Trl,Flagstaff,AZ,86004,515000,3,2.5,Elk Run,1454,2701,1997,92,354,195,Active,,,https://www.redfin.com/AZ/Flagstaff/4390-E-Wild-Elk-Trl-86004/home/116655984,NAZMLS,197234,N,Y,35.2104811,-111.591463
MLS Listing,,Single Family Residential,4015 E Longley Dr,Flagstaff,AZ,86004,670000,3,2.0,Foxglenn,1520,7700,1982,93,441,,Active,,,https://www.redfin.com/AZ/Flagstaff/4015-E-Longley-Dr-86004/home/116625165,NAZMLS,197222,N,Y,35.196829,-111.599621
MLS Listing,,Condo/Co-op,1385 W University Avenue Ave Unit 11-184,Flagstaff,AZ,86001,365000,2,2.0,Woodlands Area,906,871,2000,95,403,221,Active,,,https://www.redfin.com/AZ/Flagstaff/1385-W-University-Ave-86001/unit-11-184/home/188050253,NAZMLS,197209,N,Y,35.181863,-111.6718489
MLS Listing,,Vacant Land,2190 E Del Rae Dr #217,Flagstaff,AZ,86005,585000,,,Pine Canyon,,17685,,95,,265,Active,,,https://www.redfin.com/AZ/Flagstaff/2190-E-del-Rae-Dr-86005/unit-217/home/178467571,NAZMLS,197203,N,Y,35.152258,-111.635125
MLS Listing,,Townhouse,9054 W Arden Ln,Bellemont,AZ,86015,439000,3,2.5,Bellemont,1516,3103,2005,95,290,100,Active,,,https://www.redfin.com/AZ/Bellemont/9054-W-Arden-Ln-86015/home/116385185,NAZMLS,197202,N,Y,35.2312063,-111.8089646
MLS Listing,,Vacant Land,"0 Snow Bowl Estates 2, Lot 7",Flagstaff,AZ,86001,225000,,,Snowbowl Estates,,243936,,95,,,Active,,,https://www.redfin.com/AZ/Flagstaff/Unknown-86001/home/116636662,NAZMLS,197196,N,Y,35.443637,-111.681447
MLS Listing,,Single Family Residential,10833 Sage Rd,Flagstaff,AZ,86004,1395000,4,3.0,Timberline Area Pocket,2618,106374,2016,96,533,,Active,,,https://www.redfin.com/AZ/Flagstaff/10833-Sage-Rd-86004/home/116590435,NAZMLS,197181,N,Y,35.296149,-111.5562284
MLS Listing,,Townhouse,2800 N Saddleback Way #2,Flagstaff,AZ,86004,599500,2,2.5,Continental Cntry Clb,1905,2091,1985,96,315,312,Active,,,https://www.redfin.com/AZ/Flagstaff/2800-N-Saddleback-Way-86004/unit-2/home/116326843,NAZMLS,197168,N,Y,35.2045331,-111.5817136
MLS Listing,,Single Family Residential,6911 Pettistree Ln,Flagstaff,AZ,86001,550000,1,2.0,Fort Valley/Baderville,1400,86902,2012,96,393,,Active,,,https://www.redfin.com/AZ/Flagstaff/6911-Pettistree-Ln-86001/home/116146675,NAZMLS,197167,N,Y,35.258878,-111.723191
MLS Listing,,Single Family Residential,73 Seneca Dr,Flagstaff,AZ,86005,650000,3,2.0,Pine Dell,1568,15681,1972,97,415,,Active,,,https://www.redfin.com/AZ/Flagstaff/73-Seneca-Dr-86005/home/116408188,NAZMLS,197156,N,Y,35.1665068,-111.6603472
MLS Listing,,Single Family Residential,10194 Lundin Rd,Flagstaff,AZ,86004,745000,3,2.0,Johnson Ranch,1973,71787,2017,97,378,50,Active,,,https://www.redfin.com/AZ/Flagstaff/10194-Lundin-Rd-86004/home/145136991,NAZMLS,197154,N,Y,35.2858737,-111.5413033
MLS Listing,,Condo/Co-op,1650 E Ponderosa Pkwy #327,Flagstaff,AZ,86001,582055,3,2.0,Switzer Mesa/Ridge,1370,,2024,97,425,250,Active,,,https://www.redfin.com/AZ/Flagstaff/1650-E-Ponderosa-Pkwy-86001/unit-327/home/178757538,NAZMLS,197152,N,Y,35.198277,-111.6261639
MLS Listing,,Townhouse,951 E Sterling Ln,Flagstaff,AZ,86005,735000,2,2.5,Pinnacle Pines,2106,,2006,97,349,226,Active,,,https://www.redfin.com/AZ/Flagstaff/951-E-Sterling-Ln-86005/home/116301277,NAZMLS,197089,N,Y,35.1650747,-111.6497215
MLS Listing,,Single Family Residential,9820 Townsend Winona Rd,Flagstaff,AZ,86004,580000,3,2.0,Doney Park East,,1494,1989,97,,,Active,,,https://www.redfin.com/AZ/Flagstaff/9820-Townsend-Winona-Rd-86004/home/116507240,NAZMLS,197116,N,Y,35.2347944,-111.4739797
MLS Listing,,Multi-Family (2-4 Unit),1645 E Mountain View Ave,Flagstaff,AZ,86004,715000,,,Sunnyside,1800,,1997,98,397,,Active,,,https://www.redfin.com/AZ/Flagstaff/1645-E-Mountain-View-Ave-86004/home/116106802,NAZMLS,197145,N,Y,35.2017385,-111.6237547
MLS Listing,,Multi-Family (2-4 Unit),1643 E Mountain View Ave,Flagstaff,AZ,86004,725000,,,Sunnyside,2048,,2001,98,354,,Active,,,https://www.redfin.com/AZ/Flagstaff/1643-E-Mountain-View-Ave-86004/home/116353375,NAZMLS,197144,N,Y,35.2018315,-111.6238798
MLS Listing,,Multi-Family (2-4 Unit),215 W Elm Ave,Flagstaff,AZ,86001,1095000,,,Flagstaff Townsite,2278,,1947,98,481,,Active,,,https://www.redfin.com/AZ/Flagstaff/215-W-Elm-Ave-86001/home/116150741,NAZMLS,197138,N,Y,35.2029916,-111.6500754
MLS Listing,,Single Family Residential,3153 Buffalo Trl,Flagstaff,AZ,86005,639000,3,2.0,Kachina Village,1778,10454,1999,101,359,,Active,,,https://www.redfin.com/AZ/Flagstaff/3153-Buffalo-Trl-86005/home/116322460,NAZMLS,197011,N,Y,35.0884802,-111.7025029
MLS Listing,,Vacant Land,3630 S Lariat Loop #30,Flagstaff,AZ,86005,495000,,,Flagstaff Ranch,,34978,,102,,640,Active,,,https://www.redfin.com/AZ/Flagstaff/3630-Lariat-Loop-86005/unit-30/home/171294218,NAZMLS,197081,N,Y,35.178828,-111.705351
MLS Listing,,Single Family Residential,7025 W Forest Service 9004t Rd. Rd,Flagstaff,AZ,86001,1800000,4,4.5,Hart Prairie Area,3297,217844,2010,103,546,,Active,,,https://www.redfin.com/AZ/Flagstaff/7025-Forest-Service-9004T-Rd-86001/home/116837946,NAZMLS,197072,N,Y,35.354644,-111.725147
MLS Listing,,Single Family Residential,3368 S Clubhouse Cir,Flagstaff,AZ,86005,3100000,4,3.5,Pine Canyon,4465,23683,2007,103,694,265,Active,,,https://www.redfin.com/AZ/Flagstaff/3368-S-Clubhouse-Cir-86005/home/116341329,NAZMLS,197059,N,Y,35.1579902,-111.6437414
MLS Listing,,Vacant Land,8196 Forest Service 510b,Flagstaff,AZ,86004,225000,,,East Rural,,217800,,103,,,Active,,,https://www.redfin.com/AZ/Flagstaff/8196-Forest-Service-510B-Rd-86004/home/116717768,NAZMLS,196774,N,Y,35.225236,-111.50345
MLS Listing,,Vacant Land,2197 N Running Deer St #1,Flagstaff,AZ,86004,399000,,,Walnut Ridge,,27922,,103,,20,Active,,,https://www.redfin.com/AZ/Flagstaff/2197-N-Running-Deer-St-86004/unit-1/home/191056471,NAZMLS,197054,N,Y,35.196314,-111.576145
MLS Listing,,Single Family Residential,5225 Townsend-Winona Rd,Flagstaff,AZ,86004,1750000,4,4.0,Townsend Winona Valley,5104,114040,2003,103,343,,Active,,,https://www.redfin.com/AZ/Flagstaff/5225-Townsend-Winona-Rd-86004/home/116181432,NAZMLS,197049,N,Y,35.2471738,-111.5563258
MLS Listing,,Condo/Co-op,207 Beaver St #302,Flagstaff,AZ,86001,799000,3,2.0,Flagstaff Townsite,1411,,2023,104,566,270,Active,,,https://www.redfin.com/AZ/Flagstaff/207-S-Beaver-St-86001/unit-302/home/177209474,NAZMLS,197034,N,Y,35.1951139,-111.651529
MLS Listing,,Vacant Land,3271 S Tehama Cir #40,Flagstaff,AZ,86005,575000,,,Pine Canyon,,22521,,106,,265,Active,,,https://www.redfin.com/AZ/Flagstaff/3271-S-Tehama-Cir-86005/unit-40/home/173931622,NAZMLS,197000,N,Y,35.158408,-111.64342
MLS Listing,,Mobile/Manufactured Home,2401 W Rt 66 #23,Flagstaff,AZ,86001,225000,2,2.0,North West City,1152,,1984,107,195,,Active,,,https://www.redfin.com/AZ/Flagstaff/2401-West-Route-66-86001/unit-23/home/190932549,NAZMLS,196924,N,Y,35.1872215,-111.6839981
MLS Listing,,Townhouse,1915 Spencer Cir,Flagstaff,AZ,86004,599000,2,2.0,Continental Cntry Clb,1263,958,1983,109,474,178,Active,,,https://www.redfin.com/AZ/Flagstaff/1915-N-Spencer-Cir-86004/home/116323509,NAZMLS,196964,N,Y,35.198421,-111.5894815
MLS Listing,,Single Family Residential,2701 W Lynette Dr,Flagstaff,AZ,86001,614000,3,2.0,Cheshire/Peak View,1683,9300,1971,112,365,,Active,,,https://www.redfin.com/AZ/Flagstaff/2701-W-Lynette-Dr-86001/home/116244686,NAZMLS,196925,N,Y,35.232001,-111.667061
MLS Listing,,Single Family Residential,3009 E Hemberg Dr,Flagstaff,AZ,86004,715000,3,2.5,Swiss Manor,2223,8734,1981,115,322,,Active,,,https://www.redfin.com/AZ/Flagstaff/3009-E-Hemberg-Dr-86004/home/116155875,NAZMLS,196914,N,Y,35.2238289,-111.5991382
MLS Listing,,Single Family Residential,5125 Wade Ln,Flagstaff,AZ,86004,838400,4,3.0,Leupp/Winona Area,3439,173195,2004,115,244,,Active,,,https://www.redfin.com/AZ/Flagstaff/5125-Wade-Ln-86004/home/117331391,NAZMLS,196912,N,Y,35.2116536,-111.4157927
MLS Listing,,Single Family Residential,1782 N Edgewood St,Flagstaff,AZ,86004,999000,4,3.0,Continental Cntry Clb,2870,12914,1987,115,348,39,Active,,,https://www.redfin.com/AZ/Flagstaff/1782-N-Edgewood-St-86004/home/116400210,NAZMLS,196911,N,Y,35.194015,-111.5807433
MLS Listing,,Vacant Land,12899 Stockmens Rd,Flagstaff,AZ,86004,585000,,,Leupp/Winona Area,,100000,,116,,,Active,,,https://www.redfin.com/AZ/Flagstaff/12899-Stockmens-86004/home/116658909,NAZMLS,196886,N,Y,35.1989649,-111.4300714
MLS Listing,,Vacant Land,12901 Stockmens Rd,Flagstaff,AZ,86004,1950000,,,Leupp/Winona Area,,871200,,116,,,Active,,,https://www.redfin.com/AZ/Flagstaff/12901-Stockmens-86004/home/116848508,NAZMLS,196882,N,Y,35.1918696,-111.4366952
MLS Listing,,Single Family Residential,2395 N Colter Dr,Flagstaff,AZ,86004,999000,5,3.0,Walnut Ridge,3195,16117,1999,117,313,21,Active,,,https://www.redfin.com/AZ/Flagstaff/2395-N-Colter-Dr-86004/home/116212119,NAZMLS,196876,N,Y,35.197185,-111.5705156
MLS Listing,,Single Family Residential,5310 E Nordica Loop,Flagstaff,AZ,86004,1650000,5,4.0,Lakeside Acres,3902,48352,1998,117,423,54,Active,,,https://www.redfin.com/AZ/Flagstaff/5310-N-Nordica-Loop-86004/home/116175959,NAZMLS,196874,N,Y,35.1845911,-111.5868459
MLS Listing,,Single Family Residential,2313 N Fremont Blvd,Flagstaff,AZ,86001,1425000,5,4.0,Linwood,3850,48787,1998,118,370,20,Active,,,https://www.redfin.com/AZ/Flagstaff/2313-N-Fremont-Blvd-86001/home/116890307,NAZMLS,196862,N,Y,35.2337295,-111.6781632
MLS Listing,,Vacant Land,000 Highway 89,Flagstaff,AZ,86004,175000,,,East Rural,,377230,,120,,,Active,,,https://www.redfin.com/AZ/Flagstaff/Unknown-86001/home/116380341,NAZMLS,196834,N,Y,35.435491,-111.565546
MLS Listing,,Single Family Residential,7106 W Private Pine Mountain Rd,Flagstaff,AZ,86001,850000,3,2.0,Hart Prairie Area,2040,118265,1998,123,417,25,Active,,,https://www.redfin.com/AZ/Flagstaff/7106-W-Private-Pine-Mountain-Rd-86001/home/116198440,NAZMLS,196811,N,Y,35.333663,-111.7280575
MLS Listing,,Single Family Residential,4241 E Broken Rock Loop,Flagstaff,AZ,86004,1690000,7,5.0,Elk Run,5969,18600,2001,124,283,46,Active,,,https://www.redfin.com/AZ/Flagstaff/4241-E-Broken-Rock-Loop-86004/home/116153781,NAZMLS,196778,N,Y,35.2087162,-111.5906353
MLS Listing,,Single Family Residential,4962 S Topaz Rd,Flagstaff,AZ,86005,1265000,4,3.5,Ponderosa Trails,4218,6970,2006,124,300,16,Active,,,https://www.redfin.com/AZ/Flagstaff/4962-S-Topaz-Rd-86005/home/116308968,NAZMLS,196542,N,Y,35.1547284,-111.6713219
MLS Listing,,Single Family Residential,0 Forest Road 193 St,Flagstaff,AZ,86001,3400000,5,3.0,CUSTOM 43 ACRE RANCH OFF GRID,1748,1853095,1990,125,1945,,Active,,,https://www.redfin.com/AZ/Unknown/Forest-Rd-86001/home/170307779,ARMLS,6706061,N,Y,35.105556,-111.603369
MLS Listing,,Single Family Residential,500 N Skyview St,Flagstaff,AZ,86004,2495000,4,3.0,Lakeside Acres,3747,138520,1985,125,666,54,Active,,,https://www.redfin.com/AZ/Flagstaff/500-N-Sky-View-St-86004/home/116832819,NAZMLS,196769,N,Y,35.1831397,-111.5884257
MLS Listing,,Vacant Land,6812 W Soggy Bottom Ranch Rd,Flagstaff,AZ,86001,620000,,,A1 Mountain Area,,435600,,125,,,Active,,,https://www.redfin.com/AZ/Flagstaff/6812-W-Soggy-Bottom-Rnch-Rd-86005/home/116886030,NAZMLS,196766,N,Y,35.1964671,-111.7693135
MLS Listing,,Townhouse,4410 W Arabian Trl,Flagstaff,AZ,86005,1200000,3,2.5,Flagstaff Ranch,2789,3920,2016,125,430,359,Active,,,https://www.redfin.com/AZ/Flagstaff/4410-W-Arabian-Trl-86005/home/117333623,NAZMLS,196760,N,Y,35.176903,-111.710633
MLS Listing,,Vacant Land,15444 Leupp Rd,Flagstaff,AZ,86004,109000,,,Leupp/Winona Area,,436471,,125,,,Active,,,https://www.redfin.com/AZ/Flagstaff/15444-Leupp-Rd-86004/home/190801238,NAZMLS,196757,N,Y,35.304701,-111.2946454
MLS Listing,,Vacant Land,15448 Leupp Rd,Flagstaff,AZ,86004,125000,,,Leupp/Winona Area,,436471,,125,,,Active,,,https://www.redfin.com/AZ/Flagstaff/15448-Leupp-Rd-86004/home/190800984,NAZMLS,196756,N,Y,35.304701,-111.2946454
MLS Listing,,Single Family Residential,3386 W Lyra Way Lot 32,Flagstaff,AZ,86001,709537,3,2.0,Timber Sky,1793,5662,2024,126,396,66,Active,,,https://www.redfin.com/AZ/Flagstaff/3386-W-Lyra-WAY-Unknown/unit-32/home/190786235,NAZMLS,196748,N,Y,35.185174,-111.695972
MLS Listing,,Mobile/Manufactured Home,1450 W Kaibab Ln #131,Flagstaff,AZ,86001,60000,2,1.5,W. Rt. 66/Industirial,840,3554,1983,130,71,,Active,,,https://www.redfin.com/AZ/Flagstaff/1450-W-Kaibab-Ln-86001/unit-131/home/190601312,NAZMLS,196525,N,Y,35.1893955,-111.6703478
MLS Listing,,Single Family Residential,6970 N Keenan Way,Flagstaff,AZ,86001,1450000,4,3.0,Wing Mountain,3908,87120,2006,131,371,,Active,,,https://www.redfin.com/AZ/Flagstaff/6970-N-Keenan-Way-86001/home/116705839,NAZMLS,196698,N,Y,35.2585664,-111.7414219
MLS Listing,,Vacant Land,0 Forest Road 193 St #0,Flagstaff,AZ,86001,3400000,,,CUSTOM 43 ACRE OFF GRID RANCH,,1853095,,131,,,Active,,,https://www.redfin.com/AZ/Flagstaff/Unknown-86001/home/116680892,ARMLS,6702832,N,Y,35.374815,-111.800454
MLS Listing,,Single Family Residential,2613 S Hydra Ln Lot 15,Flagstaff,AZ,86001,995066,4,3.5,Timber Sky,2631,13939,2024,132,378,66,Active,,,https://www.redfin.com/AZ/Flagstaff/2613-S-Hydra-LN-Unknown/unit-15/home/190726711,NAZMLS,196692,N,Y,35.186252,-111.70075
MLS Listing,,Single Family Residential,3749 S Clubhouse Cir #224,Flagstaff,AZ,86005,3650000,5,5.5,Pine Canyon,4684,28749,2004,132,779,265,Active,,,https://www.redfin.com/AZ/Flagstaff/3749-S-Clubhouse-Cir-86005/unit-224/home/190726637,NAZMLS,196691,N,Y,35.1545596,-111.637169
MLS Listing,,Single Family Residential,2622 S Hydra Ln Lot 1,Flagstaff,AZ,86001,905405,3,2.0,Timber Sky,1715,8381,2024,133,528,66,Active,,,https://www.redfin.com/AZ/Flagstaff/2622-S-Hydra-LN-Unknown/unit-1/home/190032131,NAZMLS,196002,N,Y,35.186226,-111.700088
MLS Listing,,Vacant Land,5622 Velvet Valley Ln,Flagstaff,AZ,86004,190000,,,Flagstaff,,108900,,135,,,Active,,,https://www.redfin.com/AZ/Flagstaff/5622-Velvet-Valley-Rd-86004/home/116446743,CAAR,90251,N,Y,35.2181176,-111.4542789
MLS Listing,,Single Family Residential,4530 E Red Fox Ln,Flagstaff,AZ,86004,1159900,5,2.5,Continental Cntry Clb,3114,12545,1985,135,372,36,Active,,,https://www.redfin.com/AZ/Flagstaff/4530-E-Red-Fox-Ln-86004/home/116492885,NAZMLS,196665,N,Y,35.2010121,-111.5900625
MLS Listing,,Single Family Residential,130 Comanche,Flagstaff,AZ,86005,564900,3,2.0,Mountainaire,1800,4792,1982,137,314,,Active,,,https://www.redfin.com/AZ/Flagstaff/130-Comanche-86005/home/116735893,NAZMLS,196638,N,Y,35.0851364,-111.6532879
MLS Listing,,Single Family Residential,2596 S Cliffview St,Flagstaff,AZ,86001,1125000,4,3.0,Boulder Pointe,2954,18731,1999,137,381,22,Active,,,https://www.redfin.com/AZ/Flagstaff/2596-S-Cliffview-St-86001/home/116166495,NAZMLS,196637,N,Y,35.1776489,-111.6715233
MLS Listing,,Vacant Land,3252 N Chickadee Trl,Flagstaff,AZ,86001,735000,,,Lockett Ranches,,217844,,137,,88,Active,,,https://www.redfin.com/AZ/Flagstaff/3252-N-Chickadee-Trl-86001/home/145136839,NAZMLS,196634,N,Y,35.2255791,-111.6462107
MLS Listing,,Vacant Land,2832 Andrew Douglass,Flagstaff,AZ,86005,1750000,,,Forest Highlands,,43124,,138,,1410,Active,,,https://www.redfin.com/AZ/Flagstaff/2832-Andrew-Douglass-86005/home/116689936,NAZMLS,196614,N,Y,35.11518,-111.69152
MLS Listing,,Vacant Land,2832 Andrew Douglass -- #802,Flagstaff,AZ,86005,1750000,,,Forest Highlands,,43124,,138,,,Active,,,https://www.redfin.com/AZ/Flagstaff/2832-Andrew-Douglass-86005/unit-802/home/170541646,ARMLS,6700026,N,Y,35.11518,-111.69152
MLS Listing,,Single Family Residential,4652 E Northwood Way,Flagstaff,AZ,86004,939000,4,3.0,Continental Cntry Clb,2226,19515,1981,138,422,,Active,,,https://www.redfin.com/AZ/Flagstaff/4652-E-Northwood-Way-86004/home/116535363,NAZMLS,196607,N,Y,35.2104317,-111.5851154
MLS Listing,,Vacant Land,4848 E Hightimber Ln #38,Flagstaff,AZ,86004,349000,,,Continental Cntry Clb,,30917,,139,,54,Active,,,https://www.redfin.com/AZ/Flagstaff/4848-E-Hightimber-Ln-86004/unit-38/home/178996617,NAZMLS,196589,N,Y,35.200577,-111.587105
MLS Listing,,Condo/Co-op,3200 S Litzler Dr Unit 19-225,Flagstaff,AZ,86005,289900,1,1.0,University Heights,562,610,2000,141,516,181,Active,,,https://www.redfin.com/AZ/Flagstaff/3200-S-Litzler-Dr-86001/unit-19-225/home/190628954,NAZMLS,196567,N,Y,35.1709155,-111.6688207
MLS Listing,,Vacant Land,4363 N Quintana Dr,Flagstaff,AZ,86001,829900,,,Lockett Ranches,,174240,,141,,83,Active,,,https://www.redfin.com/AZ/Flagstaff/4363-N-Quintana-Dr-86001/home/116561511,NAZMLS,196562,N,Y,35.2363209,-111.643471
MLS Listing,,Single Family Residential,11548 Cepheus Rd,Bellemont,AZ,86015,619000,3,2.0,Bellemont,1770,6490,2023,145,350,25,Active,,,https://www.redfin.com/AZ/Bellemont/11548-Cepheus-Rd-86015/home/178758879,NAZMLS,196510,N,Y,35.2343289,-111.812366
MLS Listing,,Mobile/Manufactured Home,2500 W Rte 66 -- #6,Flagstaff,AZ,86001,95000,1,1.0,Hidden Hollow MHC,527,130680000,2023,145,180,,Active,,,https://www.redfin.com/AZ/Flagstaff/2500-West-Route-66-86001/unit-6/home/190598293,ARMLS,6696477,N,Y,35.1910621,-111.6888795
MLS Listing,,Single Family Residential,7850 Titan Dr,Flagstaff,AZ,86004,620000,3,2.0,Doney Park East,2649,108726,1996,145,234,,Active,,,https://www.redfin.com/AZ/Flagstaff/7850-Titan-Dr-86004/home/116195510,NAZMLS,196508,N,Y,35.2750622,-111.5091277
MLS Listing,,Single Family Residential,7840 Cowboy Way,Flagstaff,AZ,86004,970000,4,3.5,Doney Park East,3034,105346,2000,146,320,,Active,,,https://www.redfin.com/AZ/Flagstaff/7840-Cowboy-Way-86004/home/116657871,NAZMLS,196506,N,Y,35.262864,-111.5093387
MLS Listing,,Townhouse,5000 E Palomino Ln #24,Flagstaff,AZ,86004,575000,2,2.5,Continental Cntry Clb,1673,1680,1983,146,344,312,Active,September-20-2024 12:00 PM,September-20-2024 02:00 PM,https://www.redfin.com/AZ/Flagstaff/5000-E-Palomino-Ln-86004/unit-24/home/116834403,NAZMLS,196481,N,Y,35.2050297,-111.5829056
MLS Listing,,Single Family Residential,3505 S Lariat Loop,Flagstaff,AZ,86005,1625000,5,4.5,Flagstaff Ranch,4180,30492,2005,147,389,222,Active,,,https://www.redfin.com/AZ/Flagstaff/3505-S-Lariat-Loop-86005/home/116718139,NAZMLS,196490,N,Y,35.1790386,-111.7111144
MLS Listing,,Multi-Family (2-4 Unit),1919 E Arrowhead Ave,Flagstaff,AZ,86004,1250000,,,Sunnyside,3344,,2024,148,374,,Active,,,https://www.redfin.com/AZ/Flagstaff/1919-E-Arrowhead-Ave-86004/home/116783548,NAZMLS,196467,N,Y,35.2012506,-111.6201475
MLS Listing,,Vacant Land,8914 Ranch At The Peaks Way,Flagstaff,AZ,86001,375000,,,Ranch at the Peaks/Snowbowl Ranches,,87294,,151,,25,Active,,,https://www.redfin.com/AZ/Flagstaff/8914-Ranch-At-the-Peaks-Way-86001/home/145136615,NAZMLS,196454,N,Y,35.276555,-111.729986
MLS Listing,,Single Family Residential,11345 Alice Dr,Flagstaff,AZ,86004,534900,3,2.0,Timberline Area Pocket,1808,49223,1973,153,296,,Active,,,https://www.redfin.com/AZ/Flagstaff/11345-N-Alice-Dr-86004/home/116214305,NAZMLS,196431,N,Y,35.3033439,-111.5612514
MLS Listing,,Vacant Land,24380 Condor Rd,Flagstaff,AZ,86001,339999,,,Kendrick/Crawley,,216057,,153,,,Active,,,https://www.redfin.com/AZ/Flagstaff/24380-Condor-Rd-86001/home/116206447,NAZMLS,196429,N,Y,35.4174422,-111.746002
MLS Listing,,Vacant Land,315 Granite Ridge Rnch,Flagstaff,AZ,86001,600000,,,Lockett Ranches,,87120,,153,,197,Active,,,https://www.redfin.com/AZ/Flagstaff/315-Granite-Rdg-86001/home/190540410,NAZMLS,196423,N,Y,35.225477,-111.655721
MLS Listing,,Single Family Residential,12335 N Copeland Ln,Flagstaff,AZ,86004,1100000,3,2.5,Timberline Area Pocket,2376,219542,1991,154,463,,Active,,,https://www.redfin.com/AZ/Flagstaff/12335-N-Copeland-Ln-86004/home/116562327,NAZMLS,196415,N,Y,35.3180532,-111.5564021
MLS Listing,,Single Family Residential,3343 W Lyra Way Lot 6,Flagstaff,AZ,86001,779861,4,3.0,Timber Sky,1985,5227,2024,154,393,66,Active,,,https://www.redfin.com/AZ/Flagstaff/3343-W-Lyra-WAY-Unknown/unit-6/home/190529597,NAZMLS,196405,N,Y,35.185041,-111.697179
MLS Listing,,Vacant Land,7199 N Snow Bowl Rd,Flagstaff,AZ,86001,345000,,,Fort Valley/Baderville,,142876,,156,,,Active,,,https://www.redfin.com/AZ/Flagstaff/7199-N-Snow-Bowl-Rd-86001/home/116512472,NAZMLS,196190,N,Y,35.261574,-111.71992
MLS Listing,,Single Family Residential,580 Choctaw --,Flagstaff,AZ,86005,900000,4,2.5,MOUNTAINAIRE 2,2760,13151,2002,157,326,,Active,,,https://www.redfin.com/AZ/Flagstaff/580-Choctaw-86005/home/116281781,ARMLS,6680113,N,Y,35.0835906,-111.6608333
MLS Listing,,Single Family Residential,3120 E Mount Elden Dr,Flagstaff,AZ,86004,775000,5,2.0,Lower Greenlaw,2025,9148,1956,157,383,,Active,,,https://www.redfin.com/AZ/Flagstaff/3120-E-Mount-Elden-Dr-86004/home/116821733,NAZMLS,196105,N,Y,35.2157762,-111.6016117
MLS Listing,,Single Family Residential,7080 Oakwood Pines Dr,Flagstaff,AZ,86004,1575000,4,2.5,Oakwood Pines,4116,111775,1996,160,383,,Active,,,https://www.redfin.com/AZ/Flagstaff/7080-Oakwood-Pines-Dr-86004/home/116897805,NAZMLS,196343,N,Y,35.2413069,-111.5593496
MLS Listing,,Single Family Residential,2521 W Pollo Cir,Flagstaff,AZ,86001,697000,4,2.5,Presidio,2129,2657,2017,160,327,28,Active,,,https://www.redfin.com/AZ/Flagstaff/2521-W-Pollo-Cir-86001/home/116929681,NAZMLS,196342,N,Y,35.1844172,-111.6850601
