SALE TYPE,SOLD DATE,PROPERTY TYPE,ADDRESS,CITY,STATE OR PROVINCE,ZIP OR POSTAL CODE,PRICE,BEDS,BATHS,LOCATION,SQUARE FEET,LOT SIZE,YEAR BUILT,DAYS ON MARKET,$/SQUARE FEET,HOA/MONTH,STATUS,NEXT OPEN HOUSE START TIME,NEXT OPEN HOUSE END TIME,URL (SEE https://www.redfin.com/buy-a-home/comparative-market-analysis FOR INFO ON PRICING),SOURCE,MLS#,FAVORITE,INTERESTED,LATITUDE,LONGITUDE
MLS Listing,,Townhouse,3741 Stone Barn Dr,Frederick,MD,21704,669000,3,2.5,Frederick,2228,1782,2023,1,300,154,Pre On-Market,,,https://www.redfin.com/MD/Frederick/3741-Stone-Barn-Dr-21704/home/177208784,BRIGHT MLS,MDFR2054300,N,Y,39.332631,-77.36665
MLS Listing,,Townhouse,209 E 4th St,Frederick,MD,21701,450000,3,1.5,DOWNTOWN,1236,2175,1900,1,364,,Pre On-Market,,,https://www.redfin.com/MD/Frederick/209-E-4th-St-21701/home/15227370,BRIGHT MLS,MDFR2054294,N,Y,39.4189425,-77.4066758
MLS Listing,,Townhouse,443 W South St,Frederick,MD,21701,369000,3,1.5,Frederick,1048,1957,1927,2,352,,Pre On-Market,,,https://www.redfin.com/MD/Frederick/443-W-South-St-21701/home/15179646,BRIGHT MLS,MDFR2054200,N,Y,39.411315,-77.4199871
MLS Listing,,Single Family Residential,5200 Maitland Ter,Frederick,MD,21703,833000,3,3.5,Frederick,5135,47045,2013,13,162,75,Active,,,https://www.redfin.com/MD/Frederick/5200-Maitland-Ter-21703/home/22636411,BRIGHT MLS,MDFR2053542,N,Y,39.4118838,-77.486969
MLS Listing,,Townhouse,2225 Bear Den Rd,Frederick,MD,21701,539000,4,3.5,WORMANS MILL,2284,2500,1997,14,236,114,Active,,,https://www.redfin.com/MD/Frederick/2225-Bear-Den-Rd-21701/home/15219028,BRIGHT MLS,MDFR2052566,N,Y,39.4543547,-77.3831106
MLS Listing,,Townhouse,410 Terry Ct Unit B6,Frederick,MD,21701,279000,3,2.0,Frederick,1100,,1984,20,254,355,Active,,,https://www.redfin.com/MD/Frederick/410-Terry-Ct-21701/unit-B6/home/15226403,BRIGHT MLS,MDFR2053430,N,Y,39.4038716,-77.4264715
MLS Listing,,Townhouse,5900 Forum Sq,Frederick,MD,21703,399000,3,2.5,JEFFERSON PLACE,2100,,2017,27,190,306,Active,,,https://www.redfin.com/MD/Frederick/5900-Forum-Sq-21703/home/144250767,BRIGHT MLS,MDFR2052608,N,Y,39.3951,-77.4535889
MLS Listing,,Single Family Residential,1203 Apollo Dr,Frederick,MD,21702,574900,4,2.5,TUSCARORA CREEK,1904,7514,2020,28,302,36,Active,,,https://www.redfin.com/MD/Frederick/1203-Apollo-Dr-21702/home/174680788,BRIGHT MLS,MDFR2052920,N,Y,39.468057,-77.432948
MLS Listing,,Townhouse,9001 Shady Pines Dr,Frederick,MD,21704,649000,5,4.5,VILLAGES OF URBANA,2400,1900,2021,33,270,154,Pre On-Market,,,https://www.redfin.com/MD/Frederick/9001-Shady-Pines-Dr-21704/home/174682101,BRIGHT MLS,MDFR2052942,N,Y,39.3309508,-77.3649302
MLS Listing,,Single Family Residential,6637 Jefferson Blvd,Frederick,MD,21703,500000,4,2.5,BRADDOCK HEIGHTS,1564,13200,1930,35,320,,Active,,,https://www.redfin.com/MD/Frederick/6637-Jefferson-Blvd-21703/home/15214122,BRIGHT MLS,MDFR2052758,N,Y,39.4151789,-77.5061748
MLS Listing,,Townhouse,463 Arwell Ct #463,Frederick,MD,21703,330000,3,1.5,FREDERICK HEIGHTS,1024,1742,1987,39,322,30,Active,,,https://www.redfin.com/MD/Frederick/463-Arwell-Ct-21703/unit-463/home/15222217,BRIGHT MLS,MDFR2050504,N,Y,39.4112112,-77.4471249
MLS Listing,,Single Family Residential,6709 Mount Phillip Rd,Frederick,MD,21703,650000,4,2.5,WEST PARK VILLAGE,2624,5352,2023,105,248,84,Active,,,https://www.redfin.com/MD/Frederick/6709-Mt-Phillip-Rd-21703/home/167611494,BRIGHT MLS,MDFR2049224,N,Y,39.416866,-77.467327
MLS Listing,,Townhouse,3606 Hope Commons Ct,Frederick,MD,21704,515000,4,3.5,VILLAGES OF URBANA,2520,3159,2000,1,204,154,Active,September-21-2024 12:00 PM,September-21-2024 03:00 PM,https://www.redfin.com/MD/Frederick/3606-Hope-Commons-Ct-21704/home/15195647,BRIGHT MLS,MDFR2053250,N,Y,39.3322419,-77.3500857
MLS Listing,,Townhouse,5711 Charstone Ct,Frederick,MD,21703,345000,3,2.0,FARMBROOK,1220,2805,1981,1,283,86,Active,,,https://www.redfin.com/MD/Frederick/5711-Charstone-Ct-21703/home/15206529,BRIGHT MLS,MDFR2053026,N,Y,39.388323,-77.4353335
MLS Listing,,Condo/Co-op,995-D Heather Ridge Dr Unit 4D,Frederick,MD,21702,185000,2,1.0,AMBERTOWNE,,,1981,1,,200,Active,,,https://www.redfin.com/MD/Frederick/995-Heather-Ridge-Dr-21702/unit-4D/home/145936564,BRIGHT MLS,MDFR2054316,N,Y,39.4400067,-77.4140483
MLS Listing,,Single Family Residential,419 Mohican Dr,Frederick,MD,21701,659900,4,3.5,RIVER CREST II,3199,7803,2007,1,206,44,Active,,,https://www.redfin.com/MD/Frederick/419-Mohican-Dr-21701/home/15179373,BRIGHT MLS,MDFR2054324,N,Y,39.4298096,-77.3918418
MLS Listing,,Single Family Residential,202 W South St,Frederick,MD,21701,517000,3,3.0,DOWNTOWN FREDERICK,1635,3675,1880,1,316,,Pre On-Market,,,https://www.redfin.com/MD/Frederick/202-W-South-St-21701/home/15234671,BRIGHT MLS,MDFR2054240,N,Y,39.410733,-77.4151558
MLS Listing,,Single Family Residential,5802 Stonehouse Ct,Frederick,MD,21702,950000,5,3.0,BOOTJACK SPRINGS,3687,150718,2003,1,258,,Pre On-Market,September-21-2024 12:00 PM,September-21-2024 02:00 PM,https://www.redfin.com/MD/Frederick/5802-Stonehouse-Ct-21702/home/15225345,BRIGHT MLS,MDFR2054290,N,Y,39.4675413,-77.4682803
MLS Listing,,Condo/Co-op,2136 Wainwright Ct Unit 2C,Frederick,MD,21702,245000,2,2.0,OLD FARM STATION,1100,,1989,1,223,265,Pre On-Market,,,https://www.redfin.com/MD/Frederick/2136-Wainwright-Ct-21702/unit-2C/home/15222036,BRIGHT MLS,MDFR2054286,N,Y,39.4447049,-77.438742
MLS Listing,,Townhouse,1119 Frontline Dr,Frederick,MD,21703,403000,3,3.5,CATOCTIN RIDGE,1748,2178,2011,1,231,56,Pre On-Market,,,https://www.redfin.com/MD/Frederick/1119-Frontline-Dr-21703/home/18999871,BRIGHT MLS,MDFR2054288,N,Y,39.4152765,-77.4475745
MLS Listing,,Townhouse,1239 Apollo Dr,Frederick,MD,21702,469900,3,3.5,TUSCARORA CREEK,2020,2300,2022,1,233,75,Pre On-Market,,,https://www.redfin.com/MD/Frederick/1239-Apollo-Dr-21702/home/178979094,BRIGHT MLS,MDFR2053810,N,Y,39.468016,-77.435337
MLS Listing,,Townhouse,6686 Canada Goose Ct,Frederick,MD,21703,360000,3,2.0,ROBIN MEADOWS,1622,1600,1993,2,222,114,Active,,,https://www.redfin.com/MD/Frederick/6686-Canada-Goose-Ct-21703/home/15249073,BRIGHT MLS,MDFR2053936,N,Y,39.3726212,-77.4345166
MLS Listing,,Townhouse,121 Harpers Way,Frederick,MD,21702,420000,3,3.0,NORTH CROSSING,1760,2213,1998,2,239,30,Active,September-20-2024 05:00 PM,September-20-2024 07:00 PM,https://www.redfin.com/MD/Frederick/121-Harpers-Way-21702/home/15217918,BRIGHT MLS,MDFR2054102,N,Y,39.4628098,-77.4111828
MLS Listing,,Single Family Residential,6243 Darlington Ct,Frederick,MD,21703,670000,6,3.5,BALLENGER CREEK,3432,9695,1993,2,195,55,Pre On-Market,,,https://www.redfin.com/MD/Frederick/6243-Darlington-Ct-21703/home/15215848,BRIGHT MLS,MDFR2053370,N,Y,39.3863578,-77.4518775
MLS Listing,,Condo/Co-op,1405 Key Pkwy Unit 105 BUILDING C,Frederick,MD,21702,159900,2,1.5,PARKWAY CONDOMINIUMS,,,1982,2,,600,Active,,,https://www.redfin.com/MD/Frederick/1405-Key-Pkwy-21702/unit-105-BUILDING-C/home/192578224,BRIGHT MLS,MDFR2054112,N,Y,39.4253593,-77.4608907
MLS Listing,,Single Family Residential,1316 Hillcrest Dr,Frederick,MD,21703,419900,3,2.5,HILLCREST ORCHARDS,1680,7500,1980,2,250,,Active,,,https://www.redfin.com/MD/Frederick/1316-Hillcrest-Dr-21703/home/15229822,BRIGHT MLS,MDFR2053680,N,Y,39.4122579,-77.454931
MLS Listing,,Townhouse,2202 Bear Den Rd,Frederick,MD,21701,460000,3,3.5,WORMANS MILL,2370,2201,1995,2,194,114,Pre On-Market,,,https://www.redfin.com/MD/Frederick/2202-Bear-Den-Rd-21701/home/15219170,BRIGHT MLS,MDFR2054232,N,Y,39.4540131,-77.3843815
MLS Listing,,Townhouse,6642 Mcgrath Pl,Frederick,MD,21703,435000,4,3.5,WELLINGTON TRACE,2090,1880,2001,2,208,67,Active,,,https://www.redfin.com/MD/Frederick/6642-McGrath-Pl-21703/home/15187772,BRIGHT MLS,MDFR2054226,N,Y,39.368284,-77.436132
MLS Listing,,Single Family Residential,1519 Andover Ln,Frederick,MD,21702,460000,5,2.0,STONEGATE,2045,6098,1977,3,225,,Active,,,https://www.redfin.com/MD/Frederick/1519-Andover-Ln-21702/home/15232562,BRIGHT MLS,MDFR2054184,N,Y,39.4262314,-77.4669977
MLS Listing,,Single Family Residential,9548 Kingston Pl,Frederick,MD,21701,529900,4,2.5,SPRING RIDGE,2308,5537,1999,3,230,96,Pre On-Market,,,https://www.redfin.com/MD/Frederick/9548-Kingston-Pl-21701/home/15189404,BRIGHT MLS,MDFR2054192,N,Y,39.407562,-77.3326229
MLS Listing,,Townhouse,812-B Dunbrooke Ct,Frederick,MD,21701,399990,2,2.0,WORMANS MILL,1543,3365,1992,3,259,301,Pre On-Market,,,https://www.redfin.com/MD/Frederick/812-Dunbrooke-Ct-21701/home/192566381,BRIGHT MLS,MDFR2054194,N,Y,39.450442,-77.3881229
MLS Listing,,Townhouse,2487 5 Shillings Rd,Frederick,MD,21701,405000,2,2.0,WORMANS MILL,1511,3336,1989,4,268,301,Active,,,https://www.redfin.com/MD/Frederick/2487-Five-Shillings-Rd-21701/home/15221680,BRIGHT MLS,MDFR2053784,N,Y,39.453228,-77.3871941
MLS Listing,,Single Family Residential,6581 Whetstone Dr,Frederick,MD,21703,515000,4,2.5,FARMBROOK,2263,6501,1987,4,228,67,Active,,,https://www.redfin.com/MD/Frederick/6581-Whetstone-Dr-21703/home/15205596,BRIGHT MLS,MDFR2053578,N,Y,39.3906039,-77.4387649
MLS Listing,,Townhouse,621 Blandwood Rd,Frederick,MD,21701,515000,4,2.5,EASTCHURCH,2360,2000,2018,4,218,97,Pre On-Market,,,https://www.redfin.com/MD/Frederick/621-Blandwood-Rd-21701/home/109903530,BRIGHT MLS,MDFR2054196,N,Y,39.424314,-77.393275
MLS Listing,,Single Family Residential,603 Hunting Ridge Dr,Frederick,MD,21701,560000,3,2.5,EMERALD FARM,2430,7679,2000,4,230,21,Active,,,https://www.redfin.com/MD/Frederick/603-Hunting-Ridge-Dr-21703/home/15219040,BRIGHT MLS,MDFR2054104,N,Y,39.4104133,-77.4624475
MLS Listing,,Single Family Residential,7800 Baltimore National Pike,Frederick,MD,21702,699000,4,2.5,Frederick,3636,161608,2001,4,192,,Pre On-Market,September-21-2024 12:00 PM,September-21-2024 02:00 PM,https://www.redfin.com/MD/Frederick/7800-Baltimore-National-Pike-21702/home/15186005,BRIGHT MLS,MDFR2054056,N,Y,39.4454967,-77.4989527
MLS Listing,,Single Family Residential,8614 Burnt Hickory Cir,Frederick,MD,21704,495000,3,3.0,BURNT HICKORY,2624,121968,1978,4,189,,Active,,,https://www.redfin.com/MD/Frederick/8614-Burnt-Hickory-Cir-21704/home/15196454,BRIGHT MLS,MDFR2054190,N,Y,39.3030211,-77.3645864
MLS Listing,,Single Family Residential,6648 Jefferson Blvd,Frederick,MD,21703,425000,4,1.5,BRADDOCK HEIGHTS,1996,11325,1912,4,213,,Pre On-Market,,,https://www.redfin.com/MD/Frederick/6648-Jefferson-Blvd-21703/home/15213894,BRIGHT MLS,MDFR2053530,N,Y,39.4159742,-77.506559
MLS Listing,,Single Family Residential,2365 Bear Den Rd,Frederick,MD,21701,499000,3,2.0,WORMANS MILL,2125,4594,1997,4,235,301,Active,,,https://www.redfin.com/MD/Frederick/2365-Bear-Den-Rd-21701/home/15219828,BRIGHT MLS,MDFR2054156,N,Y,39.4536232,-77.3829761
MLS Listing,,Single Family Residential,607 Lindbergh Ct,Frederick,MD,21701,995000,4,3.0,BAKER PARK,3328,15825,1985,5,299,,Active,,,https://www.redfin.com/MD/Frederick/607-Lindbergh-Ct-21701/home/15226381,BRIGHT MLS,MDFR2053634,N,Y,39.4190583,-77.423456
MLS Listing,,Townhouse,2370 Spruce Knob Ter,Frederick,MD,21702,469900,3,3.5,SYCAMORE RIDGE,2078,1710,2023,5,226,70,Pre On-Market,September-21-2024 01:00 PM,September-21-2024 03:00 PM,https://www.redfin.com/MD/Frederick/2370-Spruce-Knob-Ter-21702/home/184721313,BRIGHT MLS,MDFR2054012,N,Y,39.443701,-77.459472
MLS Listing,,Townhouse,8434 Pine Bluff Rd,Frederick,MD,21704,480000,3,3.5,TALLYN RIDGE,2156,1800,2018,5,223,114,Pre On-Market,September-22-2024 10:00 AM,September-22-2024 12:00 PM,https://www.redfin.com/MD/Frederick/8434-Pine-Bluff-Rd-21704/home/145710516,BRIGHT MLS,MDFR2054168,N,Y,39.3867928,-77.3722006
MLS Listing,,Single Family Residential,8701-A Yellow Springs Rd,Frederick,MD,21702,489900,4,2.5,Frederick,2220,31799,1915,5,221,,Active,,,https://www.redfin.com/MD/Frederick/8701-Yellow-Springs-Rd-21702/home/15224081,BRIGHT MLS,MDFR2054164,N,Y,39.4729449,-77.4528748
MLS Listing,,Single Family Residential,401 Geronimo Ct,Frederick,MD,21701,465000,3,2.0,RIVER CREST,1652,12498,2000,5,281,18,Pre On-Market,,,https://www.redfin.com/MD/Frederick/401-Geronimo-Ct-21701/home/15187882,BRIGHT MLS,MDFR2053094,N,Y,39.427767,-77.3967019
MLS Listing,,Townhouse,507 Klineharts Aly,Frederick,MD,21701,539900,5,4.5,DOWNTOWN FREDERICK,2850,2850,2017,5,189,,Active,,,https://www.redfin.com/MD/Frederick/507-Klineharts-Aly-21701/home/18999847,BRIGHT MLS,MDFR2053726,N,Y,39.420937,-77.411629
MLS Listing,,Single Family Residential,402 Potting Shed Way Unit D,Frederick,MD,21702,729990,3,3.0,BLOOMFIELDS,2670,6120,2024,5,273,207,Active,September-20-2024 11:00 AM,September-20-2024 03:00 PM,https://www.redfin.com/MD/Frederick/402-Potting-Shed-Way-21702/home/184721478,BRIGHT MLS,MDFR2054148,N,Y,39.476987,-77.414785
MLS Listing,,Single Family Residential,404 Potting Shed Way Unit C,Frederick,MD,21702,699990,3,3.0,BLOOMFIELDS,2396,8085,2024,5,292,207,Active,September-20-2024 11:00 AM,September-20-2024 03:00 PM,https://www.redfin.com/MD/Frederick/404-Potting-Shed-Way-21702/home/184721479,BRIGHT MLS,MDFR2054142,N,Y,39.476802,-77.415018
MLS Listing,,Condo/Co-op,1612 Rock Creek Dr #10,Frederick,MD,21702,255000,2,2.0,TWIN CREEK PLAZA,1300,,1968,5,196,360,Active,,,https://www.redfin.com/MD/Frederick/1612-Rock-Creek-Dr-21702/unit-10/home/19000005,BRIGHT MLS,MDFR2053944,N,Y,39.423885,-77.435713
MLS Listing,,Single Family Residential,3869 Braveheart Dr,Frederick,MD,21704,745900,4,3.5,URBANA HIGHLANDS,4493,6428,2004,5,166,156,Active,,,https://www.redfin.com/MD/Frederick/3869-Braveheart-Dr-21704/home/15182618,BRIGHT MLS,MDFR2053846,N,Y,39.3398815,-77.3263634
MLS Listing,,Townhouse,9455 Birchwood Ln,Frederick,MD,21701,410000,3,2.5,SPRING RIDGE,1958,1700,1998,6,209,106,Active,,,https://www.redfin.com/MD/Frederick/9455-Birchwood-Ln-21701/home/15188133,BRIGHT MLS,MDFR2053628,N,Y,39.4043521,-77.3362002
MLS Listing,,Condo/Co-op,210 E Second St #301,Frederick,MD,21701,1550000,3,2.5,DOWNTOWN FREDERICK,3094,,2024,6,501,816,Active,,,https://www.redfin.com/MD/Frederick/210-E-2nd-St-21701/unit-301/home/190131859,BRIGHT MLS,MDFR2054036,N,Y,39.4161175,-77.4061905
MLS Listing,,Townhouse,5864 Tami Ter,Frederick,MD,21703,414900,3,2.5,HANNOVER,2400,1826,2006,6,173,96,Pre On-Market,,,https://www.redfin.com/MD/Frederick/5864-Tami-Ter-21703/home/15214911,BRIGHT MLS,MDFR2054088,N,Y,39.3920011,-77.4477495
MLS Listing,,Townhouse,100 E 4th St,Frederick,MD,21701,515000,4,2.5,Frederick,1404,1812,1900,6,367,,Active,,,https://www.redfin.com/MD/Frederick/100-E-4th-St-21701/home/15235409,BRIGHT MLS,MDFR2053898,N,Y,39.4188709,-77.4083544
MLS Listing,,Condo/Co-op,605 Himes Ave #103,Frederick,MD,21703,239990,2,1.5,OVERLOOK,,,1990,6,,328,Active,,,https://www.redfin.com/MD/Frederick/605-Himes-Ave-21703/unit-103/home/15221102,BRIGHT MLS,MDFR2054078,N,Y,39.409212,-77.4455081
MLS Listing,,Single Family Residential,508 Logan St,Frederick,MD,21701,400000,4,2.0,Frederick,1488,5471,1982,6,269,,Pre On-Market,,,https://www.redfin.com/MD/Frederick/508-Logan-St-21701/home/15234339,BRIGHT MLS,MDFR2054068,N,Y,39.4047492,-77.4189059
MLS Listing,,Townhouse,421 Union St,Frederick,MD,21701,485000,4,4.0,RENN QUARTER,1824,1296,2023,6,266,97,Pre On-Market,,,https://www.redfin.com/MD/Frederick/421-Union-St-21701/home/178979324,BRIGHT MLS,MDFR2054072,N,Y,39.419156,-77.386078
MLS Listing,,Single Family Residential,4721 Elmer Derr Rd,Frederick,MD,21703,590000,3,2.5,Frederick,1312,83199,1885,6,450,,Active,,,https://www.redfin.com/MD/Frederick/4721-Elmer-Derr-Rd-21703/home/15215710,BRIGHT MLS,MDFR2053730,N,Y,39.3623859,-77.502986
MLS Listing,,Townhouse,3594 Sprigg Street St S,Frederick,MD,21704,564900,3,3.5,VILLAGES OF URBANA,2204,1624,2012,6,256,154,Pre On-Market,,,https://www.redfin.com/MD/Frederick/3594-Sprigg-St-S-21704/home/15178714,BRIGHT MLS,MDFR2053572,N,Y,39.3312147,-77.3565232
MLS Listing,,Single Family Residential,1511 Trotter,Frederick,MD,21702,735000,3,3.0,KELLERTON,2492,11869,2018,6,295,66,Active,,,https://www.redfin.com/MD/Frederick/1511-Trotter-Pl-21702/home/161821147,BRIGHT MLS,MDFR2053554,N,Y,39.460652,-77.441712
MLS Listing,,Single Family Residential,5644 Etzler Rd,Frederick,MD,21702,599995,3,2.0,Frederick,1872,47916,1988,6,321,,Active,September-22-2024 01:00 PM,September-22-2024 03:00 PM,https://www.redfin.com/MD/Frederick/5644-Etzler-Rd-21702/home/15224830,BRIGHT MLS,MDFR2053522,N,Y,39.4674207,-77.470847
MLS Listing,,Condo/Co-op,2250 Bear Den Rd #311,Frederick,MD,21701,500000,3,3.5,WORMANS MILL,2341,,2005,7,214,518,Active,,,https://www.redfin.com/MD/Frederick/2250-Bear-Den-Rd-21701/unit-311/home/15180922,BRIGHT MLS,MDFR2053740,N,Y,39.4557952,-77.3818339
MLS Listing,,Single Family Residential,8910 Mountainberry Cir,Frederick,MD,21702,665000,4,3.5,Frederick,2732,46174,1979,7,243,,Active,,,https://www.redfin.com/MD/Frederick/8910-Mountainberry-Cir-21702/home/15224577,BRIGHT MLS,MDFR2053042,N,Y,39.4777724,-77.4743786
MLS Listing,,Townhouse,2008 Spring Run Cir,Frederick,MD,21702,449990,4,2.5,TUSCARORA CREEK,1974,2745,2010,7,228,99,Active,,,https://www.redfin.com/MD/Frederick/2008-Spring-Run-Cir-21702/home/15179562,BRIGHT MLS,MDFR2053834,N,Y,39.4677695,-77.4300245
MLS Listing,,Townhouse,2238 Bear Den Rd,Frederick,MD,21701,455000,3,3.0,WORMANS MILL,2153,2200,1996,7,211,85,Pre On-Market,,,https://www.redfin.com/MD/Frederick/2238-Bear-Den-Rd-21701/home/15219474,BRIGHT MLS,MDFR2054028,N,Y,39.4549772,-77.383059
MLS Listing,,Single Family Residential,7 Fairview Ave,Frederick,MD,21701,585000,3,2.0,WESTBROOK,1938,10500,1967,7,302,,Pre On-Market,,,https://www.redfin.com/MD/Frederick/7-Fairview-Ave-21701/home/15235314,BRIGHT MLS,MDFR2054042,N,Y,39.4159152,-77.4315611
MLS Listing,,Condo/Co-op,1618 Blacksmith Way Unit C,Frederick,MD,21702,419329,3,2.5,GAMBRILL GLENN,1774,,,7,236,198,Active,September-21-2024 11:00 AM,September-21-2024 04:45 PM,https://www.redfin.com/MD/Frederick/1618-Blacksmith-Way-21702/unit-C/home/192497015,BRIGHT MLS,MDFR2054044,N,Y,39.4316459,-77.4603549
MLS Listing,,Single Family Residential,2256 W Greenleaf Dr,Frederick,MD,21702,660000,5,3.5,WHITTIER POND,3440,11579,2007,7,192,39,Pre On-Market,September-22-2024 01:00 PM,September-22-2024 03:00 PM,https://www.redfin.com/MD/Frederick/2256-W-Greenleaf-Dr-21702/home/15180150,BRIGHT MLS,MDFR2054040,N,Y,39.4575301,-77.4559541
MLS Listing,,Condo/Co-op,2507 Coach House Way Unit 3B,Frederick,MD,21702,306000,2,2.0,ECHO GLEN,1330,,1999,7,230,294,Pre On-Market,,,https://www.redfin.com/MD/Frederick/2507-Coach-House-Way-21702/unit-3B/home/15217551,BRIGHT MLS,MDFR2053998,N,Y,39.4481102,-77.4499974
MLS Listing,,Single Family Residential,7120 Linganore,Frederick,MD,21701,550000,3,3.0,Frederick,1760,98445,1965,8,313,,Active,September-21-2024 01:00 PM,September-21-2024 03:00 PM,https://www.redfin.com/MD/Frederick/7120-Linganore-Rd-21701/home/15246070,BRIGHT MLS,MDFR2053718,N,Y,39.4282759,-77.3400923
MLS Listing,,Townhouse,3618 Carriage Hill Dr #3618,Frederick,MD,21704,435000,3,2.5,VILLAGES OF URBANA,,1868,2010,8,,289,Active,,,https://www.redfin.com/MD/Frederick/3618-Carriage-Hill-Dr-21704/unit-3618/home/40018790,BRIGHT MLS,MDFR2053246,N,Y,39.3339319,-77.3349015
MLS Listing,,Townhouse,5807 Drawbridge Ct,Frederick,MD,21703,289900,2,1.0,FOXCROFT,915,1395,1984,8,317,95,Active,September-21-2024 12:00 PM,September-21-2024 03:00 PM,https://www.redfin.com/MD/Frederick/5807-Drawbridge-Ct-21703/home/15205547,BRIGHT MLS,MDFR2053674,N,Y,39.3915289,-77.4198945
MLS Listing,,Townhouse,2488 Silver Leaf Dr,Frederick,MD,21702,505000,4,3.5,BLOOMFIELDS,2209,2940,2024,8,229,207,Active,,,https://www.redfin.com/MD/Frederick/2488-Silver-Leaf-Dr-21702/home/190131417,BRIGHT MLS,MDFR2053488,N,Y,39.47594,-77.40484
MLS Listing,,Single Family Residential,2063 Pomona Way,Frederick,MD,21702,524900,4,2.5,TUSCARORA CREEK,1684,7593,2022,8,312,36,Pre On-Market,,,https://www.redfin.com/MD/Frederick/2063-Pomona-Way-21702/home/178979436,BRIGHT MLS,MDFR2053410,N,Y,39.468281,-77.43643
MLS Listing,,Townhouse,5362 Sweet Crabapple Way,Frederick,MD,21703,565000,3,2.5,BALLENGER RUN,2388,3220,2019,8,237,150,Pre On-Market,,,https://www.redfin.com/MD/Frederick/5362-Sweet-Crabapple-Way-21703/home/167628165,BRIGHT MLS,MDFR2053956,N,Y,39.380132,-77.441441
MLS Listing,,Single Family Residential,1600 Bolton St,Frederick,MD,21702,525000,3,2.5,Frederick,1965,8346,1990,9,267,,Pre On-Market,September-29-2024 12:00 PM,September-29-2024 03:00 PM,https://www.redfin.com/MD/Frederick/1600-Bolton-St-21702/home/15232191,BRIGHT MLS,MDFR2053934,N,Y,39.4280732,-77.4294551
MLS Listing,,Single Family Residential,106 Rose Garden Way,Frederick,MD,21702,617500,4,3.5,TASKERS CHANCE,2604,8337,1991,9,237,73,Pre On-Market,,,https://www.redfin.com/MD/Frederick/106-Rose-Garden-Way-21702/home/15222790,BRIGHT MLS,MDFR2053826,N,Y,39.4212147,-77.4394508
MLS Listing,,Single Family Residential,8009 Runnymeade Dr,Frederick,MD,21702,535000,3,2.5,CLOVER HILL,2684,20473,1989,9,199,45,Pre On-Market,,,https://www.redfin.com/MD/Frederick/8009-Runnymeade-Dr-21702/home/15224996,BRIGHT MLS,MDFR2053888,N,Y,39.4549878,-77.4230401
MLS Listing,,Single Family Residential,7022 Ridge Rd,Frederick,MD,21702,1065345,4,4.5,BRADDOCK HEIGHTS,4345,47916,,9,245,,Active,,,https://www.redfin.com/MD/Frederick/7022-Ridge-Rd-21702/home/186087983,BRIGHT MLS,MDFR2053896,N,Y,39.426552,-77.504025
MLS Listing,,Townhouse,225 E Church St,Frederick,MD,21701,625000,3,1.5,HISTORIC FREDERICK CITY,1482,2940,1886,9,422,,Active,,,https://www.redfin.com/MD/Frederick/225-E-Church-St-21701/home/15230350,BRIGHT MLS,MDFR2053632,N,Y,39.4152104,-77.4063336
MLS Listing,,Townhouse,1833 Clancy Ave,Frederick,MD,21702,460000,3,3.5,Frederick,2000,2075,2022,10,230,99,Active,,,https://www.redfin.com/MD/Frederick/1833-Clancy-Ave-21702/home/167611181,BRIGHT MLS,MDFR2053668,N,Y,39.472489,-77.440445
MLS Listing,,Townhouse,5746 Charstone Ct,Frederick,MD,21703,330000,3,1.5,FARMBROOK,1220,2635,1981,11,270,86,Active,,,https://www.redfin.com/MD/Frederick/5746-Charstone-Ct-21703/home/15206508,BRIGHT MLS,MDFR2053606,N,Y,39.3889444,-77.4368037
MLS Listing,,Townhouse,6540 Ellington Way,Frederick,MD,21703,375000,3,3.5,BALLENGER CROSSING,2206,1600,1995,12,170,80,Active,,,https://www.redfin.com/MD/Frederick/6540-Ellington-Way-21703/home/15203653,BRIGHT MLS,MDFR2053746,N,Y,39.3809059,-77.4403906
MLS Listing,,Single Family Residential,1308 W 7th St,Frederick,MD,21702,449000,3,1.5,Frederick,2544,,1957,12,176,,Active,,,https://www.redfin.com/MD/Frederick/1308-W-7th-St-21702/home/15231404,BRIGHT MLS,MDFR2053868,N,Y,39.4297651,-77.4208904
MLS Listing,,Single Family Residential,111 Ice St,Frederick,MD,21701,425000,3,1.5,Frederick,,1280,1997,12,,,Active,,,https://www.redfin.com/MD/Frederick/111-Ice-St-21701/home/15217794,BRIGHT MLS,MDFR2053630,N,Y,39.4114377,-77.4128221
MLS Listing,,Townhouse,23 Degrange St,Frederick,MD,21701,299900,2,2.0,DOWNTOWN FREDERICK,812,7231,1880,12,369,,Active,,,https://www.redfin.com/MD/Frederick/23-Degrange-St-21701/home/144278749,BRIGHT MLS,MDFR2053850,N,Y,39.412469,-77.4181637
MLS Listing,,Single Family Residential,1743 Wheyfield Dr,Frederick,MD,21701,690000,5,3.0,DEARBOUGHT,,10372,1997,12,,58,Active,,,https://www.redfin.com/MD/Frederick/1743-Wheyfield-Dr-21701/home/15218883,BRIGHT MLS,MDFR2053852,N,Y,39.4467115,-77.3718978
MLS Listing,,Townhouse,8208 Red Wing Ct,Frederick,MD,21701,349900,3,2.5,WATERSIDE,1280,1700,1987,12,273,119,Active,,,https://www.redfin.com/MD/Frederick/8208-Red-Wing-Ct-21701/home/15205055,BRIGHT MLS,MDFR2053836,N,Y,39.4540474,-77.3811827
MLS Listing,,Condo/Co-op,813 Stratford Way Unit F,Frederick,MD,21701,239000,2,1.0,FREDERICKTOWNE VILLAGE,1026,,1990,12,233,216,Pre On-Market,,,https://www.redfin.com/MD/Frederick/813-Stratford-Way-21701/unit-F/home/15221495,BRIGHT MLS,MDFR2053832,N,Y,39.4315415,-77.3910532
MLS Listing,,Single Family Residential,5638 Bartonsville Rd,Frederick,MD,21704,360000,3,1.5,Frederick,1387,27442,1930,12,260,,Active,,,https://www.redfin.com/MD/Frederick/5638-Bartonsville-Rd-21704/home/15193720,BRIGHT MLS,MDFR2053800,N,Y,39.3890064,-77.3419301
MLS Listing,,Townhouse,420 Herringbone Way,Frederick,MD,21701,565475,4,3.5,RENN QUARTER,,2112,2024,12,,97,Active,,,https://www.redfin.com/MD/Frederick/420-Herringbone-Way-21701/home/192389699,BRIGHT MLS,MDFR2053806,N,Y,39.4189742,-77.3897125
MLS Listing,,Townhouse,432 Herringbone Way,Frederick,MD,21701,574675,4,3.5,RENN QUARTER,,2112,2024,12,,97,Active,,,https://www.redfin.com/MD/Frederick/432-Herringbone-Way-21701/home/190131670,BRIGHT MLS,MDFR2053798,N,Y,39.4189742,-77.3897125
MLS Listing,,Townhouse,1013 Robin Hill Ter,Frederick,MD,21702,375000,3,2.0,TASKERS CHANCE,1518,1057,2000,12,247,25,Active,,,https://www.redfin.com/MD/Frederick/1013-Robin-Hill-Ter-21702/home/15219299,BRIGHT MLS,MDFR2051804,N,Y,39.4251578,-77.4447831
MLS Listing,,Townhouse,426 Herringbone Way,Frederick,MD,21701,538475,4,3.5,RENN QUARTER,,2112,2024,12,,97,Active,,,https://www.redfin.com/MD/Frederick/426-Herringbone-Way-21701/home/190131667,BRIGHT MLS,MDFR2053794,N,Y,39.4189742,-77.3897125
MLS Listing,,Condo/Co-op,804-K Stratford Way Unit K,Frederick,MD,21701,235000,2,1.0,FREDERICKTOWNE VILLAGE,980,,1989,12,240,216,Active,,,https://www.redfin.com/MD/Frederick/804-Stratford-Way-21701/unit-K/home/15221648,BRIGHT MLS,MDFR2053468,N,Y,39.4305311,-77.3918578
MLS Listing,,Townhouse,3016 Stoners Ford Way,Frederick,MD,21701,550000,3,3.5,MILL ISLAND AT WORMAN'S MILL,3023,2664,2009,13,182,111,Active,September-21-2024 12:00 PM,September-21-2024 02:00 PM,https://www.redfin.com/MD/Frederick/3016-Stoners-Ford-Way-21701/home/15179846,BRIGHT MLS,MDFR2051790,N,Y,39.4599037,-77.3843295
MLS Listing,,Single Family Residential,917 Walnut St,Frederick,MD,21703,400000,3,2.0,LINDEN HILLS,1512,7500,1930,13,265,,Active,,,https://www.redfin.com/MD/Frederick/917-Walnut-St-21703/home/15235515,BRIGHT MLS,MDFR2053454,N,Y,39.4148395,-77.4381726
MLS Listing,,Single Family Residential,9735 Fleetwood Way,Frederick,MD,21701,599000,4,4.5,SPRING RIDGE,2775,10868,2000,13,216,96,Pre On-Market,September-21-2024 12:00 PM,September-21-2024 02:00 PM,https://www.redfin.com/MD/Frederick/9735-Fleetwood-Way-21701/home/15188956,BRIGHT MLS,MDFR2053748,N,Y,39.4086369,-77.3315334
MLS Listing,,Townhouse,332 Marquis St,Frederick,MD,21703,493535,3,3.5,BELLE AIR TOWNHOMES,2339,2000,2024,13,211,69,Active,,,https://www.redfin.com/MD/Frederick/332-Marquis-ST-21703/home/191533623,BRIGHT MLS,MDFR2053756,N,Y,39.367401123046875,-77.46844482421875
MLS Listing,,Single Family Residential,4006 Belgrave Cir,Frederick,MD,21704,975000,4,3.5,VILLAGES OF URBANA,4470,10520,2006,13,218,134,Pre On-Market,September-22-2024 02:00 PM,September-22-2024 03:00 PM,https://www.redfin.com/MD/Frederick/4006-Belgrave-Cir-21704/home/15179940,BRIGHT MLS,MDFR2053672,N,Y,39.3445479,-77.3441692
MLS Listing,,Condo/Co-op,807-D Stratford Way Unit 1300D,Frederick,MD,21701,249500,2,1.0,FREDERICKTOWNE VILLAGE,990,,1987,14,252,297,Active,,,https://www.redfin.com/MD/Frederick/807-Stratford-Way-21701/unit-1300D/home/15223910,BRIGHT MLS,MDFR2053614,N,Y,39.4319372,-77.3916874
MLS Listing,,Single Family Residential,1411 Teal Ln,Frederick,MD,21703,565000,4,2.5,GOLF VIEW,2376,8843,1990,14,238,,Active,,,https://www.redfin.com/MD/Frederick/1411-Teal-Ln-21703/home/15223129,BRIGHT MLS,MDFR2053102,N,Y,39.4137174,-77.466473
MLS Listing,,Townhouse,360 Shortleaf Cir,Frederick,MD,21702,480000,3,2.5,BLOOMFIELDS,1659,3600,2024,14,289,169,Active,,,https://www.redfin.com/MD/Frederick/360-Shortleaf-Cir-21702/home/190131311,BRIGHT MLS,MDFR2053610,N,Y,39.47563,-77.407213
MLS Listing,,Townhouse,1765 Carriage Way,Frederick,MD,21702,350000,3,3.5,AMBER MEADOWS,1240,3204,1976,14,282,42,Active,,,https://www.redfin.com/MD/Frederick/1765-Carriage-Way-21702/home/15229623,BRIGHT MLS,MDFR2048328,N,Y,39.4473133,-77.4110586
MLS Listing,,Townhouse,8410 Pine Bluff Rd,Frederick,MD,21704,529000,3,3.5,TALLYN RIDGE,2168,1800,2017,14,244,114,Active,,,https://www.redfin.com/MD/New-Market/8410-Pine-Bluff-RD-21774/home/192317390,BRIGHT MLS,MDFR2053582,N,Y,39.38716,-77.373
MLS Listing,,Single Family Residential,1266 Backbone Way,Frederick,MD,21702,624990,4,2.5,SYCAMORE RIDGE,3133,7000,2024,14,199,30,Active,,,https://www.redfin.com/MD/Fort-Detrick/1266-Backbone-Way-21702/home/192358820,BRIGHT MLS,MDFR2053732,N,Y,39.4407229,-77.4594605
MLS Listing,,Townhouse,2524 Five Shillings Rd,Frederick,MD,21701,535000,3,3.5,WORMANS MILL,2368,,2000,14,226,114,Active,,,https://www.redfin.com/MD/Frederick/2524-Five-Shillings-Rd-21701/home/15217458,BRIGHT MLS,MDFR2053212,N,Y,39.4555344,-77.3890746
MLS Listing,,Townhouse,7034 Hames Ct,Frederick,MD,21703,329000,3,1.5,FARMBROOK,1280,1500,1987,14,257,86,Pre On-Market,,,https://www.redfin.com/MD/Frederick/7034-Hames-Ct-21703/home/15205051,BRIGHT MLS,MDFR2053134,N,Y,39.3906163,-77.4319724
MLS Listing,,Single Family Residential,7208 James I Harris Memorial Dr,Frederick,MD,21702,589950,4,2.5,EASTVIEW,2987,23086,1979,14,198,,Pre On-Market,,,https://www.redfin.com/MD/Frederick/7208-James-I-Harris-Memorial-Dr-21702/home/15214267,BRIGHT MLS,MDFR2053642,N,Y,39.432203,-77.474011
MLS Listing,,Townhouse,2017 Buell Dr,Frederick,MD,21702,410000,3,3.0,WILLOW BROOK,1961,2784,2005,14,209,39,Active,,,https://www.redfin.com/MD/Frederick/2017-Buell-Dr-21702/home/15181326,BRIGHT MLS,MDFR2053688,N,Y,39.4655034,-77.4076965
MLS Listing,,Townhouse,905 Holden Rd,Frederick,MD,21701,599000,4,3.5,EASTCHURCH,2665,2000,2021,14,225,96,Active,,,https://www.redfin.com/MD/Frederick/905-Holden-Rd-21701/home/167611403,BRIGHT MLS,MDFR2052364,N,Y,39.423459,-77.395976
MLS Listing,,Townhouse,6909 Alex Ct,Frederick,MD,21703,335000,3,2.5,MOUNTAIN VILLAGE,1300,1500,1989,15,258,130,Active,,,https://www.redfin.com/MD/Frederick/6909-Alex-Ct-21703/home/15204846,BRIGHT MLS,MDFR2053222,N,Y,39.3916374,-77.4280248
MLS Listing,,Single Family Residential,11584 Liberty Oak Dr,Frederick,MD,21701,499900,4,2.0,WISPERREN OAKS,1800,41643,1979,15,278,,Pre On-Market,,,https://www.redfin.com/MD/Frederick/11584-Liberty-Oak-Dr-21701/home/15197068,BRIGHT MLS,MDFR2053682,N,Y,39.4922393,-77.2663779
MLS Listing,,Single Family Residential,9010 Harris St,Frederick,MD,21704,784900,5,3.5,VILLAGES OF URBANA,3821,8400,2001,15,205,134,Active,,,https://www.redfin.com/MD/Frederick/9010-Harris-St-21704/home/15196789,BRIGHT MLS,MDFR2053338,N,Y,39.3351816,-77.3552338
MLS Listing,,Townhouse,444 Pemberton Park Ln,Frederick,MD,21703,359900,2,1.5,WEST PARK VILLAGE,1536,1280,2019,15,234,84,Active,,,https://www.redfin.com/MD/Frederick/444-Pemberton-Park-Ln-21703/home/167611525,BRIGHT MLS,MDFR2052072,N,Y,39.416218,-77.466804
MLS Listing,,Single Family Residential,5732 Korrell Ln,Frederick,MD,21702,945000,4,3.5,Frederick,3257,103237,2025,15,290,,Active,,,https://www.redfin.com/MD/Frederick/5732-Korrell-Ln-21702/home/17479122,BRIGHT MLS,MDFR2053618,N,Y,39.4769099,-77.468538
MLS Listing,,Townhouse,1127 Lawler Dr,Frederick,MD,21702,464500,3,4.5,TUSCARORA CREEK,2000,1860,2018,17,232,99,Active,,,https://www.redfin.com/MD/Frederick/1127-Lawler-Dr-21702/home/131180579,BRIGHT MLS,MDFR2053354,N,Y,39.471285,-77.436099
MLS Listing,,Multi-Family (2-4 Unit),12 W 7th St,Frederick,MD,21701,350000,,,Frederick,1223,3100,1925,18,286,,Active,,,https://www.redfin.com/MD/Frederick/12-W-7th-St-21701/home/15228223,BRIGHT MLS,MDFR2053574,N,Y,39.4227411,-77.4106683
MLS Listing,,Townhouse,5742 Charstone Ct,Frederick,MD,21703,336000,3,1.5,FARMBROOK,1280,1700,1981,18,263,86,Active,,,https://www.redfin.com/MD/Frederick/5742-Charstone-Ct-21703/home/15206200,BRIGHT MLS,MDFR2052714,N,Y,39.3887223,-77.4367558
MLS Listing,,Single Family Residential,6026 Bartonsville Rd,Frederick,MD,21704,429000,4,2.5,Frederick,1564,43560,1954,19,274,,Active,,,https://www.redfin.com/MD/Frederick/6026-Bartonsville-Rd-21704/home/15194035,BRIGHT MLS,MDFR2053552,N,Y,39.3933293,-77.3604263
MLS Listing,,Townhouse,1111 Providence Ct,Frederick,MD,21703,310000,3,1.5,FREDERICK HEIGHTS,1024,1511,1985,19,303,60,Pre On-Market,September-22-2024 01:00 PM,September-22-2024 03:00 PM,https://www.redfin.com/MD/Frederick/1111-Providence-Ct-21703/home/15226232,BRIGHT MLS,MDFR2053546,N,Y,39.414583,-77.447033
MLS Listing,,Single Family Residential,8323 Sharon Dr,Frederick,MD,21704,715000,3,3.5,SUGARLOAF ESTATES,3664,111078,1983,19,195,,Active,,,https://www.redfin.com/MD/Frederick/8323-Sharon-Dr-21704/home/15196885,BRIGHT MLS,MDFR2053474,N,Y,39.3130193,-77.37349
MLS Listing,,Townhouse,206 E Church St,Frederick,MD,21701,549900,3,1.5,DOWNTOWN FREDERICK,1920,1568,1884,19,286,,Active,,,https://www.redfin.com/MD/Frederick/206-E-Church-St-21701/home/15228351,BRIGHT MLS,MDFR2053320,N,Y,39.414907,-77.407181
MLS Listing,,Townhouse,6029 Calla Pl,Frederick,MD,21703,635000,3,3.5,HARRINGTON TERRACE,3569,3049,2022,20,178,77,Active,September-21-2024 11:00 AM,September-21-2024 01:00 PM,https://www.redfin.com/MD/Frederick/6029-Calla-Pl-21703/home/177855413,BRIGHT MLS,MDFR2053452,N,Y,39.397429,-77.455166
MLS Listing,,Townhouse,6613 Ballenger Run Blvd,Frederick,MD,21703,455000,3,3.0,BALLENGER RUN,1920,1600,2019,20,237,152,Active,,,https://www.redfin.com/MD/Frederick/6613-Ballenger-Run-Blvd-21703/home/144250821,BRIGHT MLS,MDFR2053140,N,Y,39.378525,-77.439567
MLS Listing,,Condo/Co-op,35 E All Saints St #317,Frederick,MD,21701,425000,2,1.0,MAXWELL PLACE,1133,,2007,20,375,550,Active,,,https://www.redfin.com/MD/Frederick/35-E-All-Saints-St-21701/unit-317/home/22047043,BRIGHT MLS,MDFR2053286,N,Y,39.412217,-77.40986
MLS Listing,,Townhouse,12 E South St,Frederick,MD,21701,499900,3,2.0,DOWNTOWN FREDERICK,1366,1372,1900,20,366,,Active,,,https://www.redfin.com/MD/Frederick/12-E-South-St-21701/home/15231508,BRIGHT MLS,MDFR2053506,N,Y,39.410452,-77.4108906
MLS Listing,,Single Family Residential,6108 Long Branch Rd,Frederick,MD,21701,650000,5,2.5,Frederick,2293,36154,1965,20,283,,Active,,,https://www.redfin.com/MD/Frederick/6108-Long-Branch-Rd-21701/home/15194108,BRIGHT MLS,MDFR2053084,N,Y,39.4014847,-77.3615038
MLS Listing,,Townhouse,6593 Corbel Way,Frederick,MD,21703,530000,3,3.5,MANORS AT BALLENGER CREEK,2241,2376,2017,20,237,54,Active,,,https://www.redfin.com/MD/Frederick/6593-Corbel-Way-21703/home/105487829,BRIGHT MLS,MDFR2052896,N,Y,39.365397,-77.443198
MLS Listing,,Townhouse,481 Arwell Ct #481,Frederick,MD,21703,324999,3,1.5,WILLOW BEND,1088,1557,1987,20,299,48,Active,,,https://www.redfin.com/MD/Frederick/481-Arwell-Ct-21703/unit-481/home/15224163,BRIGHT MLS,MDFR2053460,N,Y,39.4108052,-77.4475176
MLS Listing,,Single Family Residential,825 Motter Ave,Frederick,MD,21701,589900,3,2.5,DOWNTOWN FREDERICK,1732,5200,1910,21,341,,Active,,,https://www.redfin.com/MD/Frederick/825-Motter-Ave-21701/home/15227561,BRIGHT MLS,MDFR2053428,N,Y,39.425023,-77.411103
MLS Listing,,Single Family Residential,1816 Regiment Way,Frederick,MD,21702,630000,5,3.5,CANNON BLUFF,3264,9051,2013,21,193,78,Active,,,https://www.redfin.com/MD/Frederick/1816-Regiment-Way-21702/home/51669765,BRIGHT MLS,MDFR2052478,N,Y,39.4689712,-77.4433933
MLS Listing,,Single Family Residential,5203 New Design Rd,Frederick,MD,21703,549900,3,2.0,Frederick,2566,64033,1974,23,214,,Active,,,https://www.redfin.com/MD/Frederick/5203-New-Design-Rd-21703/home/15249589,BRIGHT MLS,MDFR2051032,N,Y,39.3753812,-77.4228957
MLS Listing,,Townhouse,6916 Representation Ln,Frederick,MD,21703,485000,3,2.5,WESTVIEW SOUTH,2168,1496,2019,23,224,120,Active,,,https://www.redfin.com/MD/Frederick/6916-Representation-Ln-21703/home/171572697,BRIGHT MLS,MDFR2053330,N,Y,39.37306,-77.423962
MLS Listing,,Townhouse,6340 Walcott Ln,Frederick,MD,21703,494900,4,4.0,LINTON AT BALLENGER,2420,2448,2017,23,205,100,Pre On-Market,,,https://www.redfin.com/MD/Frederick/6340-Walcott-Ln-21703/home/109903374,BRIGHT MLS,MDFR2053328,N,Y,39.366549,-77.447004
MLS Listing,,Townhouse,1853 Dulaney Ct,Frederick,MD,21702,359900,4,2.0,CARROLL PARK MANOR,1370,1875,1979,23,263,78,Active,,,https://www.redfin.com/MD/Frederick/1853-Dulaney-Ct-21702/home/15228357,BRIGHT MLS,MDFR2051656,N,Y,39.4286793,-77.436907
MLS Listing,,Single Family Residential,4652 Old Swimming Pool Rd,Braddock Heights,MD,21714,785000,4,4.5,BRADDOCK HEIGHTS,4702,40044,2002,24,167,,Pre On-Market,September-21-2024 12:00 PM,September-21-2024 02:00 PM,https://www.redfin.com/MD/Braddock-Heights/4652-Old-Swimming-Pool-Rd-21714/home/15186526,BRIGHT MLS,MDFR2052492,N,Y,39.4155775,-77.5018733
MLS Listing,,Townhouse,2588 Carrington Way,Frederick,MD,21702,440000,3,3.5,WHITTIER POND,2400,2200,2003,25,183,57,Active,,,https://www.redfin.com/MD/Frederick/2588-Carrington-Way-21702/home/15182840,BRIGHT MLS,MDFR2052698,N,Y,39.4453825,-77.4441097
MLS Listing,,Single Family Residential,806 Dunbrooke Ct,Frederick,MD,21701,695000,4,2.5,WORMANS MILL,4712,5480,1991,25,147,301,Active,,,https://www.redfin.com/MD/Frederick/806-Dunbrooke-Ct-21701/home/58468956,BRIGHT MLS,MDFR2052422,N,Y,39.451139,-77.3882342
MLS Listing,,Single Family Residential,9138 Belvedere Dr,Frederick,MD,21704,1100000,4,3.5,VILLAGES OF URBANA,4234,9756,2006,26,260,134,Pre On-Market,,,https://www.redfin.com/MD/Frederick/9138-Belvedere-Dr-21704/home/15180282,BRIGHT MLS,MDFR2053216,N,Y,39.3454637,-77.342289
MLS Listing,,Single Family Residential,803 Holden Rd,Frederick,MD,21701,850000,5,3.5,EASTCHURCH,3724,6000,2019,26,228,97,Active,,,https://www.redfin.com/MD/Frederick/803-Holden-Rd-21701/home/144921619,BRIGHT MLS,MDFR2053218,N,Y,39.4252059,-77.3945956
MLS Listing,,Townhouse,1606 Blacksmith Way Lot 201,Frederick,MD,21702,473440,4,3.5,Frederick,2011,1560,2024,26,235,70,Active,,,https://www.redfin.com/MD/Frederick/1606-Blacksmith-Way-21702/unit-201/home/192207826,BRIGHT MLS,MDFR2053252,N,Y,39.431709,-77.460562
MLS Listing,,Townhouse,2778 Bluegrass,Frederick,MD,21702,829900,3,2.5,KELLERTON,2723,4320,2020,26,305,77,Active,,,https://www.redfin.com/MD/Frederick/2778-Bluegrass-Way-21702/home/174680492,BRIGHT MLS,MDFR2053236,N,Y,39.462579,-77.449826
MLS Listing,,Townhouse,1610 Blacksmith Way Lot 199,Frederick,MD,21702,509118,4,3.5,Frederick,2011,1560,2024,26,253,70,Active,,,https://www.redfin.com/MD/Frederick/1610-Blacksmith-Way-21702/unit-199/home/192200221,BRIGHT MLS,MDFR2053234,N,Y,39.431636,-77.460442
MLS Listing,,Single Family Residential,1037 Lindfield Dr,Frederick,MD,21702,599900,5,3.5,TASKERS CHANCE,2472,7950,2002,27,243,74,Active,,,https://www.redfin.com/MD/Frederick/1037-Lindfield-Dr-21702/home/15218090,BRIGHT MLS,MDFR2052924,N,Y,39.4295206,-77.4436455
MLS Listing,,Townhouse,1488 Heather Ridge Ct,Frederick,MD,21702,345000,3,2.0,ANTIETAM VILLAGE,1560,2945,1978,27,221,,Active,,,https://www.redfin.com/MD/Frederick/1488-Heather-Ridge-Ct-21702/home/15230264,BRIGHT MLS,MDFR2053090,N,Y,39.4369913,-77.4150522
MLS Listing,,Townhouse,1813 Shookstown Rd Lot 0007,Frederick,MD,21702,458817,3,2.5,Frederick,1600,1500,2024,27,287,70,Active,,,https://www.redfin.com/MD/Frederick/1813-Shookstown-Rd-21702/unit-0007/home/192186679,BRIGHT MLS,MDFR2053208,N,Y,39.431308,-77.460633
MLS Listing,,Townhouse,1811 Shookstown Rd Lot 0006,Frederick,MD,21702,405760,3,2.5,Frederick,1600,1500,2024,27,254,70,Active,,,https://www.redfin.com/MD/Frederick/1811-Shookstown-Rd-21702/unit-0006/home/192186398,BRIGHT MLS,MDFR2053206,N,Y,39.431268,-77.460574
MLS Listing,,Townhouse,1807 Shookstown Rd Lot 0004,Frederick,MD,21702,404680,3,2.5,Frederick,1600,1500,2024,27,253,70,Active,,,https://www.redfin.com/MD/Frederick/1807-Shookstown-Rd-21702/unit-0004/home/192186278,BRIGHT MLS,MDFR2053196,N,Y,39.431193,-77.460472
MLS Listing,,Townhouse,1805 Shookstown Rd Lot 0003,Frederick,MD,21702,439219,3,2.5,Frederick,1600,1500,2024,27,275,70,Active,,,https://www.redfin.com/MD/Frederick/1805-Shookstown-Rd-21702/unit-0003/home/192186162,BRIGHT MLS,MDFR2053194,N,Y,39.431154,-77.460421
MLS Listing,,Townhouse,35 E All Saints St #119,Frederick,MD,21701,425000,2,2.0,DOWNTOWN FREDERICK,1207,,2007,27,352,550,Active,,,https://www.redfin.com/MD/Frederick/35-E-All-Saints-St-21701/unit-119/home/15178387,BRIGHT MLS,MDFR2052468,N,Y,39.412217,-77.40986
MLS Listing,,Townhouse,1803 Shookstown Rd Lot 0002,Frederick,MD,21702,432150,3,2.5,Frederick,1600,1500,2024,27,270,70,Active,,,https://www.redfin.com/MD/Frederick/1803-Shookstown-Rd-21702/unit-0002/home/192185897,BRIGHT MLS,MDFR2053192,N,Y,39.431116,-77.460366
MLS Listing,,Townhouse,6019 Margarita Way,Frederick,MD,21703,474990,3,3.0,HARRINGTON TERRACE,1895,2000,2024,27,251,93,Active,September-18-2024 12:00 PM,September-18-2024 02:00 PM,https://www.redfin.com/MD/Frederick/6019-Margarita-Way-21703/home/184724132,BRIGHT MLS,MDFR2053190,N,Y,39.395204,-77.456817
MLS Listing,,Condo/Co-op,1403 Key Pkwy Unit 205C,Frederick,MD,21702,195200,3,1.5,Frederick,,,1982,27,,600,Active,,,https://www.redfin.com/MD/Frederick/1403-Key-Pkwy-21702/unit-205C/home/192220604,BRIGHT MLS,MDFR2052934,N,Y,39.4252614,-77.4602881
MLS Listing,,Condo/Co-op,2103 Wayside Dr Unit 2D,Frederick,MD,21702,275000,2,2.0,ECHO GLEN,1003,,1996,27,274,313,Active,,,https://www.redfin.com/MD/Frederick/2103-Wayside-Dr-21702/unit-2D/home/15217983,BRIGHT MLS,MDFR2052628,N,Y,39.4485495,-77.4480453
MLS Listing,,Single Family Residential,5720 Shookstown Rd,Frederick,MD,21702,469900,3,2.0,Frederick,2210,34412,1970,28,213,,Active,,,https://www.redfin.com/MD/Frederick/5720-Shookstown-Rd-21702/home/15214713,BRIGHT MLS,MDFR2053018,N,Y,39.4383324,-77.4688941
MLS Listing,,Single Family Residential,350 E 3rd St,Frederick,MD,21701,450000,3,2.0,HISTORIC FREDERICK CITY,1958,6802,1915,28,230,,Active,,,https://www.redfin.com/MD/Frederick/350-E-3rd-St-21701/home/15228201,BRIGHT MLS,MDFR2052720,N,Y,39.4171261,-77.4028425
MLS Listing,,Single Family Residential,1442 Hunting Horn Ln,Frederick,MD,21703,571011,4,3.0,GOLF VIEW,3026,7579,1989,28,189,,Active,,,https://www.redfin.com/MD/Frederick/1442-Hunting-Horn-Ln-21703/home/15221920,BRIGHT MLS,MDFR2052708,N,Y,39.4138065,-77.4657828
MLS Listing,,Townhouse,2205 Woodall Dr,Frederick,MD,21702,493290,3,3.5,SYCAMORE RIDGE,2278,1600,2024,28,217,70,Active,September-21-2024 12:00 PM,September-21-2024 03:00 PM,https://www.redfin.com/MD/Fort-Detrick/2205-Woodall-DR-21702/home/191759110,BRIGHT MLS,MDFR2053136,N,Y,39.43834604,-77.4584955
MLS Listing,,Townhouse,2214 Rodgers Dr,Frederick,MD,21702,472790,3,3.5,SYCAMORE RIDGE,2078,1600,2024,28,228,70,Active,September-21-2024 12:00 PM,September-21-2024 03:00 PM,https://www.redfin.com/MD/Frederick/2214-Rodgers-Dr-21702/home/190132019,BRIGHT MLS,MDFR2053128,N,Y,39.43895805,-77.45796551
MLS Listing,,Townhouse,100 Buell Dr,Frederick,MD,21702,405000,3,3.0,WILLOW BROOK,2192,2784,2003,28,185,39,Active,,,https://www.redfin.com/MD/Frederick/100-Buell-Dr-21702/home/15183224,BRIGHT MLS,MDFR2052886,N,Y,39.4647262,-77.40705
MLS Listing,,Townhouse,3010 Palatine Dr,Frederick,MD,21701,575000,3,3.5,WORMANS MILL,2369,2200,2013,28,243,111,Active,,,https://www.redfin.com/MD/Frederick/3010-Palatine-Dr-21701/home/15180031,BRIGHT MLS,MDFR2052914,N,Y,39.4595452,-77.3834977
MLS Listing,,Townhouse,3641 Worthington Blvd,Frederick,MD,21704,599000,3,2.5,URBANA,2361,2006,2011,28,254,155,Active,,,https://www.redfin.com/MD/Frederick/3641-Worthington-Blvd-21704/home/15178708,BRIGHT MLS,MDFR2052728,N,Y,39.3311654,-77.3580709
MLS Listing,,Single Family Residential,1942 Timber Grove Rd,Frederick,MD,21702,634900,4,3.5,NORTH CROSSING,3608,11214,2000,28,176,28,Active,,,https://www.redfin.com/MD/Frederick/1942-Timber-Grove-Rd-21702/home/15187937,BRIGHT MLS,MDFR2050430,N,Y,39.4649911,-77.4129538
MLS Listing,,Townhouse,2827 Mill Island Pkwy,Frederick,MD,21701,619990,3,3.5,MILL ISLAND AT WORMAN'S MILL,3356,2987,2019,28,185,111,Active,,,https://www.redfin.com/MD/Frederick/2827-Mill-Island-Pkwy-21701/home/145943830,BRIGHT MLS,MDFR2052194,N,Y,39.4614649,-77.38531
MLS Listing,,Single Family Residential,7026 Ridge Rd,Frederick,MD,21702,999900,4,4.5,BRADDOCK HEIGHTS,4685,47045,2024,29,213,,Active,,,https://www.redfin.com/MD/Frederick/7026-Ridge-Rd-21702/home/186087879,BRIGHT MLS,MDFR2053086,N,Y,39.426873,-77.503917
MLS Listing,,Condo/Co-op,599 Cawley Dr Unit 2D,Frederick,MD,21703,300000,2,2.0,BALLENGER CREEK CENTER POND,1385,,2004,29,217,419,Active,,,https://www.redfin.com/MD/Frederick/599-Cawley-Dr-21703/unit-2D/home/145239688,BRIGHT MLS,MDFR2052244,N,Y,39.3952425,-77.4326632
MLS Listing,,Single Family Residential,6733 Brandt Ct,Frederick,MD,21702,795000,5,4.0,CLOVER HILL,5014,16699,1999,29,159,44,Active,,,https://www.redfin.com/MD/Frederick/6733-Brandt-Ct-21702/home/15223359,BRIGHT MLS,MDFR2052838,N,Y,39.4642369,-77.4338423
MLS Listing,,Condo/Co-op,621 Himes Ave Unit IV104,Frederick,MD,21703,234900,2,2.0,OVERLOOK,,,1990,30,,316,Active,,,https://www.redfin.com/MD/Frederick/621-Himes-Ave-21703/unit-IV104/home/15221434,BRIGHT MLS,MDFR2052620,N,Y,39.4078126,-77.446961
MLS Listing,,Single Family Residential,5908 Sleepy Hollow Dr,Frederick,MD,21702,1295000,4,4.5,Frederick,3680,121968,2024,30,352,,Active,,,https://www.redfin.com/MD/Fort-Detrick/5908-Sleepy-Hollow-DR-21702/home/191966657,BRIGHT MLS,MDFR2052522,N,Y,39.44712,-77.46695
MLS Listing,,Condo/Co-op,709 Iron Forge Rd Unit B,Frederick,MD,21702,451718,3,2.5,GAMBRILL GLENN,2242,,2024,32,201,198,Active,September-21-2024 11:00 AM,September-21-2024 04:45 PM,https://www.redfin.com/MD/Frederick/709-Iron-Forge-Rd-21702/home/192110077,BRIGHT MLS,MDFR2052964,N,Y,39.432153,-77.461435
MLS Listing,,Condo/Co-op,711 Iron Forge Rd Unit A,Frederick,MD,21702,455113,3,2.5,GAMBRILL GLENN,2222,,2024,32,205,198,Active,September-21-2024 11:00 AM,September-21-2024 04:45 PM,https://www.redfin.com/MD/Frederick/711-Iron-Forge-Rd-21702/home/192064173,BRIGHT MLS,MDFR2052962,N,Y,39.432221,-77.46134
MLS Listing,,Condo/Co-op,304 Baughmans Ln Unit A,Frederick,MD,21702,275000,2,2.0,DREAMERS COVE,1100,,2006,32,250,225,Active,,,https://www.redfin.com/MD/Frederick/304-Baughmans-Ln-21702/unit-A/home/182372757,BRIGHT MLS,MDFR2052956,N,Y,39.4267971,-77.43562
MLS Listing,,Single Family Residential,6539 Ballenger Run Blvd,Frederick,MD,21703,680000,3,3.5,BALLENGER RUN,2782,4200,2018,33,244,147,Active,September-22-2024 11:00 AM,September-22-2024 01:00 PM,https://www.redfin.com/MD/Frederick/6539-Ballenger-Run-Blvd-21703/home/144250810,BRIGHT MLS,MDFR2052928,N,Y,39.378779,-77.44046
MLS Listing,,Townhouse,9338 Penrose St,Frederick,MD,21704,549900,3,3.5,VILLAGES OF URBANA,2040,3300,2005,33,270,154,Active,September-21-2024 12:00 PM,September-21-2024 03:00 PM,https://www.redfin.com/MD/Frederick/9338-Penrose-St-21704/home/15181373,BRIGHT MLS,MDFR2052930,N,Y,39.3379557,-77.3412925
MLS Listing,,Single Family Residential,8113 Water Street Rd,Walkersville,MD,21793,699900,5,3.0,Walkersville,3448,165528,1966,33,203,,Active,,,https://www.redfin.com/MD/Walkersville/8113-Water-Street-Rd-21793/home/15246337,BRIGHT MLS,MDFR2051292,N,Y,39.4568538,-77.3081103
MLS Listing,,Single Family Residential,6616 Mountainview Dr,Frederick,MD,21702,449900,3,2.0,Frederick,1634,20038,1967,34,275,,Active,,,https://www.redfin.com/MD/Frederick/6616-Mountainview-Dr-21702/home/15226064,BRIGHT MLS,MDFR2050422,N,Y,39.4521046,-77.435617
MLS Listing,,Single Family Residential,306 Olympia Ln,Frederick,MD,21702,559990,2,2.0,BLOOMFIELDS,2532,5125,,34,221,207,Active,September-20-2024 11:00 AM,September-20-2024 03:00 PM,https://www.redfin.com/MD/Frederick/306-Olympia-Ln-21702/home/190131382,BRIGHT MLS,MDFR2052866,N,Y,39.47744,-77.40643
MLS Listing,,Single Family Residential,226 W South St,Frederick,MD,21701,1100000,3,2.0,DOWNTOWN FREDERICK,1988,23400,1940,34,553,,Active,,,https://www.redfin.com/MD/Frederick/226-W-South-St-21701/home/15235496,BRIGHT MLS,MDFR2048568,N,Y,39.4107355,-77.4161009
MLS Listing,,Single Family Residential,9314 Pear Ln,Frederick,MD,21702,999000,4,2.5,Frederick,2276,506603,1845,35,439,,Active,,,https://www.redfin.com/MD/Frederick/9314-Pear-Ln-21702/home/16860954,BRIGHT MLS,MDFR2052370,N,Y,39.4893445,-77.4422963
MLS Listing,,Single Family Residential,810 Geronimo Dr,Frederick,MD,21701,590000,4,3.5,MONOCACY CROSSING,2615,7500,1996,35,226,,Active,,,https://www.redfin.com/MD/Frederick/810-Geronimo-Dr-21701/home/15219319,BRIGHT MLS,MDFR2052692,N,Y,39.4250609,-77.3966241
MLS Listing,,Townhouse,107 Swallow Pointe Ct,Frederick,MD,21702,375000,3,2.5,TASKERS CHANCE,1722,1057,2005,35,218,80,Active,,,https://www.redfin.com/MD/Frederick/107-Swallow-Pointe-Ct-21702/home/15181474,BRIGHT MLS,MDFR2052382,N,Y,39.4201796,-77.4415269
MLS Listing,,Condo/Co-op,7040 Basswood Rd #11,Frederick,MD,21703,269900,2,1.0,CRESTWOOD VILLAGE,874,,1979,36,309,230,Active,,,https://www.redfin.com/MD/Frederick/7040-Basswood-Rd-21703/unit-11/home/15206590,BRIGHT MLS,MDFR2052590,N,Y,39.3870144,-77.4230983
MLS Listing,,Townhouse,3534 Winthrop Ln,Frederick,MD,21704,520000,3,2.5,VILLAGES OF URBANA,2340,1800,2002,36,222,156,Active,,,https://www.redfin.com/MD/Frederick/3534-Winthrop-Ln-21704/home/15184594,BRIGHT MLS,MDFR2052578,N,Y,39.3318277,-77.3390915
MLS Listing,,Townhouse,227 Center St,Frederick,MD,21701,374999,3,1.5,Frederick,1155,2325,1910,36,325,,Active,,,https://www.redfin.com/MD/Frederick/227-Center-St-21701/home/15235402,BRIGHT MLS,MDFR2052354,N,Y,39.4100322,-77.4172918
MLS Listing,,Townhouse,2612 Warren Way Unit 3-1,Frederick,MD,21701,340000,3,2.5,THE BRAEMAR,,,1991,38,,373,Active,,,https://www.redfin.com/MD/Frederick/2612-Warren-Way-21701/unit-3-1/home/15221536,BRIGHT MLS,MDFR2052278,N,Y,39.4564532,-77.392348
MLS Listing,,Townhouse,5512 Upshur Sq,Frederick,MD,21703,445000,3,3.0,BALLENGER CROSSING,1680,1600,1998,38,265,32,Active,,,https://www.redfin.com/MD/Frederick/5512-Upshur-Sq-21703/home/15203355,BRIGHT MLS,MDFR2052670,N,Y,39.3839812,-77.4395975
MLS Listing,,Single Family Residential,237 Thames Dr,Frederick,MD,21702,439900,3,3.0,WILLOWCREST,1952,6137,1988,40,225,,Active,,,https://www.redfin.com/MD/Frederick/237-Thames-Dr-21702/home/15223734,BRIGHT MLS,MDFR2052280,N,Y,39.4286502,-77.4477399
MLS Listing,,Townhouse,330 Patterson Park Rd,Frederick,MD,21703,399900,3,3.5,Frederick,1920,1280,2022,40,208,89,Active,,,https://www.redfin.com/MD/Frederick/330-Patterson-Park-Rd-21703/home/178978738,BRIGHT MLS,MDFR2052490,N,Y,39.416647,-77.464888
MLS Listing,,Townhouse,7295-C Coachlight Ct,Frederick,MD,21703,304999,3,2.5,COUNTRYSIDE,1264,,1974,40,241,121,Active,,,https://www.redfin.com/MD/Frederick/7295-Coachlight-Ct-21703/unit-C/home/15250299,BRIGHT MLS,MDFR2052486,N,Y,39.3613654,-77.419223
MLS Listing,,Single Family Residential,422 Burck St,Frederick,MD,21701,440000,5,3.0,CARROLLTON,1665,7770,1960,40,264,,Active,,,https://www.redfin.com/MD/Frederick/422-Burck-St-21701/home/15236038,BRIGHT MLS,MDFR2050668,N,Y,39.4078949,-77.4225714
MLS Listing,,Townhouse,2609 S Everly Dr,Frederick,MD,21701,345000,2,2.5,THE BRAEMAR,1946,,1996,41,177,373,Active,,,https://www.redfin.com/MD/Frederick/2609-S-Everly-Dr-21701/home/192053384,BRIGHT MLS,MDFR2052310,N,Y,39.4541431,-77.3915287
MLS Listing,,Townhouse,2475 Stoney Creek Rd,Frederick,MD,21701,459000,3,2.5,WORMANS MILL,2560,2000,1997,42,179,112,Active,,,https://www.redfin.com/MD/Frederick/2475-Stoney-Creek-Rd-21701/home/15217980,BRIGHT MLS,MDFR2052250,N,Y,39.4560054,-77.385723
MLS Listing,,Single Family Residential,1921 Thurston Rd,Dickerson,MD,20842,899900,4,2.0,SUGARLOAF,2110,431244,1982,43,426,,Active,,,https://www.redfin.com/MD/Dickerson/1921-Thurston-Rd-20842/home/15197118,BRIGHT MLS,MDFR2051524,N,Y,39.2859515,-77.3581476
MLS Listing,,Single Family Residential,8719 Stone Jug Way,Frederick,MD,21701,799900,4,2.5,Frederick,3110,5000,,44,257,75,Active,,,https://www.redfin.com/MD/Frederick/8719-Stone-Jug-Way-21701/home/190133859,BRIGHT MLS,MDFR2052426,N,Y,39.399865,-77.36163
MLS Listing,,Single Family Residential,7501 Somerset Ter,Frederick,MD,21702,569999,4,2.5,EASTVIEW,2134,22651,1962,45,267,,Active,,,https://www.redfin.com/MD/Frederick/7501-Somerset-Ter-21702/home/15214459,BRIGHT MLS,MDFR2052296,N,Y,39.4400415,-77.4725999
MLS Listing,,Single Family Residential,8826 Old Willowbrook Rd,Frederick,MD,21702,1575000,2,1.5,Frederick,1692,855954,1900,47,931,,Active,,,https://www.redfin.com/MD/Frederick/8826-Old-Willowbrook-Rd-21702/home/191619311,BRIGHT MLS,MDFR2052288,N,Y,39.4759549,-77.4188714
MLS Listing,,Townhouse,9100 Kenway Ln,Frederick,MD,21704,650000,4,3.5,VILLAGES OF URBANA,3075,2079,2017,48,211,154,Active,,,https://www.redfin.com/MD/Frederick/9100-Kenway-Ln-21704/home/109903466,BRIGHT MLS,MDFR2051824,N,Y,39.328107,-77.351346
MLS Listing,,Condo/Co-op,302 Baughmans Ln,Frederick,MD,21702,269900,2,2.0,DREAMERS COVE,1100,,2006,48,245,225,Active,,,https://www.redfin.com/MD/Frederick/302-Baughmans-Ln-21702/home/165876415,BRIGHT MLS,MDFR2052222,N,Y,39.4266318,-77.4357325
MLS Listing,,Townhouse,536 Eisenhower Dr,Frederick,MD,21703,410000,3,3.0,OVERLOOK,1888,2086,2001,49,217,58,Active,,,https://www.redfin.com/MD/Frederick/536-Eisenhower-Dr-21703/home/15187806,BRIGHT MLS,MDFR2052160,N,Y,39.4074971,-77.4412599
MLS Listing,,Single Family Residential,1814 Rockyglen Dr,Frederick,MD,21701,449900,3,2.5,AMBER MEADOWS,2276,6200,1978,49,198,,Active,,,https://www.redfin.com/MD/Frederick/1814-Rocky-Glen-Dr-21702/home/15231210,BRIGHT MLS,MDFR2052214,N,Y,39.4518929,-77.4091345
MLS Listing,,Condo/Co-op,102 Mercer Ct Unit 24 1A,Frederick,MD,21701,419000,2,2.0,FAIRFIELD,1567,,1993,50,267,608,Active,,,https://www.redfin.com/MD/Frederick/102-Mercer-Ct-21701/unit-24-1A/home/191759015,BRIGHT MLS,MDFR2051738,N,Y,39.4206306,-77.4310454
MLS Listing,,Townhouse,3577 Bremen St,Frederick,MD,21704,674990,3,3.0,VILLAGES OF URBANA,2269,1640,,51,297,154,Active,,,https://www.redfin.com/MD/Frederick/3577-Bremen-St-21704/home/190133284,BRIGHT MLS,MDFR2052110,N,Y,39.329812,-77.355864
MLS Listing,,Single Family Residential,7034 Ridge Rd,Frederick,MD,21702,1095000,4,3.5,BRADDOCK HEIGHTS,3544,79279,,51,309,,Active,,,https://www.redfin.com/MD/Frederick/7034-Ridge-Rd-21702/home/189913371,BRIGHT MLS,MDFR2051476,N,Y,39.4274461,-77.5034723
MLS Listing,,Townhouse,204-B Mill Pond Rd,Frederick,MD,21701,475000,3,2.5,MARKET SQUARE,,,2012,53,,210,Active,,,https://www.redfin.com/MD/Frederick/204-Mill-Pond-Rd-21701/home/191845770,BRIGHT MLS,MDFR2051728,N,Y,39.448355,-77.396025
MLS Listing,,Single Family Residential,7688 Anvil Dr,Frederick,MD,21701,339900,2,2.0,HORSE SHOE FARM ESTATES,1268,47480,1984,55,268,,Active,,,https://www.redfin.com/MD/Frederick/7688-Anvil-Dr-21701/home/15246036,BRIGHT MLS,MDFR2051620,N,Y,39.4445796,-77.2872285
MLS Listing,,Single Family Residential,2176 Ambleside Ct,Frederick,MD,21702,584990,4,3.5,OLD FARM STATION,3258,14849,1989,55,180,14,Active,,,https://www.redfin.com/MD/Frederick/2176-Ambleside-Ct-21702/home/15222139,BRIGHT MLS,MDFR2051888,N,Y,39.4477213,-77.4388703
MLS Listing,,Townhouse,16 Victoria Sq,Frederick,MD,21702,364990,3,3.0,WILLOWCREST,1644,1440,1988,56,222,49,Active,,,https://www.redfin.com/MD/Frederick/16-Victoria-Sq-21702/home/15223709,BRIGHT MLS,MDFR2051774,N,Y,39.4254387,-77.4532557
MLS Listing,,Townhouse,217 E Church St,Frederick,MD,21701,689000,4,2.5,DOWNTOWN FREDERICK,2116,3104,1900,57,326,,Active,,,https://www.redfin.com/MD/Frederick/217-E-Church-St-21701/home/15178510,BRIGHT MLS,MDFR2051760,N,Y,39.4151819,-77.4066337
MLS Listing,,Single Family Residential,10000 Rocky Springs Rd Unit HAWTHORNE,Frederick,MD,21702,811172,4,2.5,KELLERTON,3646,21780,2024,57,222,66,Active,,,https://www.redfin.com/MD/Frederick/10000-Rocky-Springs-Rd-21702/unit-HAWTHORNE/home/184069134,BRIGHT MLS,MDFR2051812,N,Y,39.4640652,-77.4523725
MLS Listing,,Single Family Residential,5749 Shookstown Rd,Frederick,MD,21702,185000,2,1.0,Frederick,1184,10454,1920,57,156,,Active,,,https://www.redfin.com/MD/Frederick/5749-Shookstown-Rd-21702/home/15213611,BRIGHT MLS,MDFR2051730,N,Y,39.4364136,-77.4679784
MLS Listing,,Single Family Residential,2568 Bear Den Rd,Frederick,MD,21701,589900,5,5.0,WORMANS MILL,2600,6941,1999,61,227,177,Active,September-21-2024 02:00 PM,September-21-2024 04:00 PM,https://www.redfin.com/MD/Frederick/2568-Bear-Den-Rd-21701/home/15217404,BRIGHT MLS,MDFR2051038,N,Y,39.4536485,-77.388393
MLS Listing,,Single Family Residential,2132 Chestnut Ln,Frederick,MD,21702,773900,4,3.5,WALNUT RIDGE,4501,10801,2006,62,172,16,Active,,,https://www.redfin.com/MD/Frederick/2132-Chestnut-Ln-21702/home/15179641,BRIGHT MLS,MDFR2049574,N,Y,39.4498319,-77.4432612
MLS Listing,,Townhouse,HOMESITE 2034 Alice Ct,Frederick,MD,21702,511880,3,3.5,TUSCARORA CREEK,2121,2121,2024,64,241,99,Active,,,https://www.redfin.com/MD/Fort-Detrick/HOMESITE-2034-Alice-CT-21702/home/191603373,BRIGHT MLS,MDFR2051520,N,Y,39.47146806,-77.42889599
MLS Listing,,Vacant Land,8401 Progress,Frederick,MD,21701,1500000,,,Frederick,,77101,,65,,,Active,,,https://www.redfin.com/MD/Frederick/8401-Progress-Dr-21701/home/191582659,BRIGHT MLS,MDFR2051382,N,Y,39.4384059,-77.3764203
MLS Listing,,Townhouse,2526 Mill Race Rd,Frederick,MD,21701,539000,4,3.5,WORMANS MILL,2950,2641,2010,67,183,111,Active,,,https://www.redfin.com/MD/Frederick/2526-Mill-Race-Rd-21701/home/15179928,BRIGHT MLS,MDFR2051354,N,Y,39.4595168,-77.384858
MLS Listing,,Single Family Residential,398 Crown Point Dr,Frederick,MD,21702,599990,3,3.0,BLOOMFIELDS,2618,5002,2024,67,229,207,Active,September-20-2024 11:00 AM,September-20-2024 03:00 PM,https://www.redfin.com/MD/Frederick/398-Crown-Point-Dr-21702/home/184721441,BRIGHT MLS,MDFR2051420,N,Y,39.477218,-77.409141
MLS Listing,,Single Family Residential,7127 Autumn Leaf Ln,Frederick,MD,21702,885000,4,3.5,CLOVER HILL,5300,63162,1771,69,167,27,Active,September-21-2024 11:00 AM,September-21-2024 01:00 PM,https://www.redfin.com/MD/Frederick/7127-Autumn-Leaf-Ln-21702/home/15225676,BRIGHT MLS,MDFR2050952,N,Y,39.4562598,-77.4151499
MLS Listing,,Vacant Land,Edgewood Church Road Rd,Frederick,MD,21702,54900,,,Frederick,,26702,,71,,,Active,,,https://www.redfin.com/MD/Frederick/Edgewood-Church-Rd-21702/home/17482680,BRIGHT MLS,MDFR2050796,N,Y,39.46654,-77.477894
MLS Listing,,Single Family Residential,9814 Hall Rd,Frederick,MD,21701,299999,3,2.5,Frederick,1113,41817,1933,71,270,,Active,,,https://www.redfin.com/MD/Frederick/9814-Hall-Rd-21701/home/15192338,BRIGHT MLS,MDFR2051144,N,Y,39.4038177,-77.3251291
MLS Listing,,Single Family Residential,11939 South St,Libertytown,MD,21762,294600,2,1.0,LIBERTYTOWN,1009,15000,1900,72,292,,Active,,,https://www.redfin.com/MD/Libertytown/11939-South-St-21762/home/15195578,BRIGHT MLS,MDFR2051126,N,Y,39.483299,-77.247394
MLS Listing,,Single Family Residential,5129 Old National Pike,Frederick,MD,21702,349000,3,2.0,Frederick,1972,23958,1947,80,177,,Active,,,https://www.redfin.com/MD/Frederick/5129-Old-National-Pike-21702/home/15213830,BRIGHT MLS,MDFR2047266,N,Y,39.4220401,-77.488682
MLS Listing,,Condo/Co-op,104 Mercer Ct Unit 11 2B,Frederick,MD,21701,449900,2,2.0,BAKER PARK,1608,,1990,83,280,608,Active,,,https://www.redfin.com/MD/Frederick/104-Mercer-Ct-21701/unit-11-2B/home/191413582,BRIGHT MLS,MDFR2050600,N,Y,39.4211581,-77.4300374
MLS Listing,,Townhouse,1542 Saint Lawrence Ct,Frederick,MD,21701,370000,3,2.5,FREDERICKTOWNE VILLAGE,1480,1600,1991,88,250,56,Active,,,https://www.redfin.com/MD/Frederick/1542-Saint-Lawrence-Ct-21701/home/15221489,BRIGHT MLS,MDFR2048582,N,Y,39.4349114,-77.3906605
MLS Listing,,Single Family Residential,320 N College Pkwy,Frederick,MD,21701,1375000,3,2.5,BAKER PARK,2710,12500,1932,90,507,,Active,,,https://www.redfin.com/MD/Frederick/320-N-College-Pkwy-21701/home/15228234,BRIGHT MLS,MDFR2050398,N,Y,39.4196241,-77.4192258
MLS Listing,,Townhouse,2600 Front Shed Dr,Frederick,MD,21702,541015,4,3.5,KELLERTON,2167,2289,,92,250,77,Active,,,https://www.redfin.com/MD/Frederick/2600-Front-Shed-Dr-21702/home/190131265,BRIGHT MLS,MDFR2050304,N,Y,39.4609219,-77.45238
MLS Listing,,Townhouse,2602 Front Shed Dr,Frederick,MD,21702,511529,4,3.5,KELLERTON,2167,2200,,92,236,77,Active,,,https://www.redfin.com/MD/Frederick/2602-Front-Shed-Dr-21702/home/190131266,BRIGHT MLS,MDFR2050302,N,Y,39.460892,-77.452305
MLS Listing,,Townhouse,2604 Front Shed Dr,Frederick,MD,21702,510863,4,3.5,KELLERTON,2167,2196,,92,236,77,Active,,,https://www.redfin.com/MD/Frederick/2604-Front-Shed-Dr-21702/home/190131267,BRIGHT MLS,MDFR2050300,N,Y,39.460867,-77.452241
MLS Listing,,Townhouse,2606 Front Shed Dr,Frederick,MD,21702,509485,4,3.5,KELLERTON,2167,2200,,92,235,77,Active,,,https://www.redfin.com/MD/Frederick/2606-Front-Shed-Dr-21702/home/190131269,BRIGHT MLS,MDFR2050298,N,Y,39.460842,-77.452178
MLS Listing,,Townhouse,2608 Front Shed Dr,Frederick,MD,21702,556629,4,3.5,KELLERTON,2167,2289,,92,257,77,Active,,,https://www.redfin.com/MD/Frederick/2608-Front-Shed-Dr-21702/home/190131270,BRIGHT MLS,MDFR2050294,N,Y,39.460812,-77.452102
MLS Listing,,Townhouse,2610 Front Shed Dr,Frederick,MD,21702,538361,4,3.5,KELLERTON,2167,2196,,92,248,77,Active,,,https://www.redfin.com/MD/Frederick/2610-Front-Shed-Dr-21702/home/190131271,BRIGHT MLS,MDFR2050292,N,Y,39.46074,-77.451919
MLS Listing,,Condo/Co-op,35 E All Saints St #120,Frederick,MD,21701,425000,2,2.0,DOWNTOWN FREDERICK,1304,,2007,96,326,550,Active,,,https://www.redfin.com/MD/Frederick/35-E-All-Saints-St-21701/unit-120/home/22644424,BRIGHT MLS,MDFR2049498,N,Y,39.412217,-77.40986
MLS Listing,,Townhouse,6111 Pine Crest Ln,Frederick,MD,21701,414900,3,3.0,SPRING RIDGE,1928,1870,1997,97,215,96,Active,,,https://www.redfin.com/MD/Frederick/6111-Pine-Crest-Ln-21701/home/15188598,BRIGHT MLS,MDFR2050064,N,Y,39.404394,-77.342944
MLS Listing,,Single Family Residential,101 E 2nd St,Frederick,MD,21701,1675000,6,4.0,DOWNTOWN FREDERICK,5900,6336,1818,103,284,,Active,,,https://www.redfin.com/MD/Frederick/101-E-2nd-St-21701/home/15228597,BRIGHT MLS,MDFR2048860,N,Y,39.4166625,-77.4086406
MLS Listing,,Single Family Residential,1204 Marsalis Pl,Frederick,MD,21702,615000,3,2.5,GAMBRILL VIEW,2222,5211,2022,105,277,135,Active,,,https://www.redfin.com/MD/Frederick/1204-Marsalis-Pl-21702/home/176951113,BRIGHT MLS,MDFR2049350,N,Y,39.427764,-77.456532
MLS Listing,,Townhouse,7058 Basswood Rd #00,Frederick,MD,21703,190000,0,1.0,CRESTWOOD VILLAGE,609,2393,1979,106,312,174,Active,,,https://www.redfin.com/MD/Frederick/7058-Basswood-Rd-21703/unit-00/home/143702702,BRIGHT MLS,MDFR2049336,N,Y,39.3867501,-77.4228971
MLS Listing,,Single Family Residential,7913 Mount Pleasant Ct E,Walkersville,MD,21793,540000,3,3.0,MOUNT PLEASANT EAST,2266,47916,1986,113,238,,Active,,,https://www.redfin.com/MD/Walkersville/7913-Mount-Pleasant-Ct-E-21793/home/15245641,BRIGHT MLS,MDFR2047334,N,Y,39.4506891,-77.3139361
MLS Listing,,Single Family Residential,123 Water St,Frederick,MD,21701,399000,3,1.5,FREDERICK HISTORIC DISTRICT,1480,2475,1885,124,270,,Active,,,https://www.redfin.com/MD/Frederick/123-Water-St-21701/home/15234605,BRIGHT MLS,MDFR2048358,N,Y,39.4104529,-77.405158
MLS Listing,,Single Family Residential,4922 Shookstown Rd,Frederick,MD,21702,1500000,5,2.5,Frederick,3816,1530698,1900,125,393,,Active,,,https://www.redfin.com/MD/Frederick/4922-Shookstown-Rd-21702/home/190607032,BRIGHT MLS,MDFR2047608,N,Y,39.4554601,-77.4967403
MLS Listing,,Single Family Residential,5732 Crestridge Ct,Frederick,MD,21703,559900,4,4.0,THE VILLAGES OF BALLENGER CREEK,2122,8357,1998,126,264,67,Active,,,https://www.redfin.com/MD/Frederick/5732-Crestridge-Ct-21703/home/15215104,BRIGHT MLS,MDFR2048218,N,Y,39.3926514,-77.4448738
MLS Listing,,Townhouse,HOMESITE 2031 Alice Ct,Frederick,MD,21702,571961,3,3.0,TUSCARORA CREEK,2295,1995,2024,133,249,99,Active,,,https://www.redfin.com/MD/Fort-Detrick/HOMESITE-2031-Alice-CT-21702/home/190719919,BRIGHT MLS,MDFR2048254,N,Y,39.47157997,-77.43039643
MLS Listing,,Vacant Land,6499 Coporate Dr Lot 1D,Frederick,MD,21703,1250000,,,Frederick,,32234,,134,,,Active,,,https://www.redfin.com/MD/Frederick/6499-Corporate-Dr-21703/unit-1D/home/190713730,BRIGHT MLS,MDFR2048244,N,Y,39.381818,-77.441491
MLS Listing,,Vacant Land,6489 Coporate Dr Lot 1C,Frederick,MD,21703,950000,,,Frederick,,29620,,134,,,Active,,,https://www.redfin.com/MD/Frederick/6489-Corporate-Dr-21703/unit-1C/home/190710804,BRIGHT MLS,MDFR2048186,N,Y,39.381533,-77.4418309
MLS Listing,,Vacant Land,Coporate Dr Lot 1B,Frederick,MD,21703,4200000,,,Frederick,,138956,,134,,,Active,,,https://www.redfin.com/MD/Ballenger-Creek/Corporate-Dr-21703/unit-1B/home/190710614,BRIGHT MLS,MDFR2047776,N,Y,39.38195,-77.44259
MLS Listing,,Townhouse,TBB Peace Lilly Unit HARLOW II,Frederick,MD,21702,484990,3,2.5,TUSCARORA CREEK,2121,1996,2024,135,229,99,Active,,,https://www.redfin.com/MD/Frederick/84-Thomas-Johnson-Ct-21702/unit-HARLOW-II/home/190704400,BRIGHT MLS,MDFR2048098,N,Y,39.448212,-77.4035862
MLS Listing,,Townhouse,1096 Holden Rd,Frederick,MD,21701,699900,3,4.5,EASTCHURCH,2783,,2022,138,251,199,Active,,,https://www.redfin.com/MD/Frederick/1096-Holden-Rd-21701/home/179569288,BRIGHT MLS,MDFR2047916,N,Y,39.42503,-77.438538
MLS Listing,,Townhouse,6 W 12th St,Frederick,MD,21701,455000,4,2.0,Frederick,1606,3780,1945,153,283,,Active,,,https://www.redfin.com/MD/Frederick/6-W-12th-St-21701/home/15232973,BRIGHT MLS,MDFR2046708,N,Y,39.4291783,-77.4078017
MLS Listing,,Townhouse,4 W 12th St,Frederick,MD,21701,450000,3,2.5,DOWNTOWN FREDERICK,2268,3780,1945,153,198,,Active,,,https://www.redfin.com/MD/Frederick/4-W-12th-St-21701/home/15235378,BRIGHT MLS,MDFR2046706,N,Y,39.4290769,-77.4077389
MLS Listing,,Vacant Land,Masser Rd,Frederick,MD,21702,1250000,,,Frederick,,6307488,,155,,,Active,,,https://www.redfin.com/MD/Unknown/Masser-Rd-21702/home/17891065,BRIGHT MLS,MDFR2045402,N,Y,39.50051753,-77.42386506
MLS Listing,,Townhouse,110 N Court St,Frederick,MD,21701,1495000,5,3.5,HISTORIC FREDERICK CITY,4812,3660,1915,170,311,,Active,,,https://www.redfin.com/MD/Frederick/110-N-Court-St-21701/home/44636406,BRIGHT MLS,MDFR2046464,N,Y,39.4160815,-77.4117807
MLS Listing,,Single Family Residential,7702 Dance Hall Rd,Frederick,MD,21701,1950000,6,7.0,Frederick,7432,1085080,1975,170,262,,Active,,,https://www.redfin.com/MD/Frederick/7702-Dance-Hall-Rd-21701/home/44636213,BRIGHT MLS,MDFR2046480,N,Y,39.4447151,-77.3275517
MLS Listing,,Single Family Residential,7172A Meadowbrooke Dr,Frederick,MD,21702,1275000,4,4.5,Frederick,3847,361548,2024,172,331,,Active,,,https://www.redfin.com/MD/Frederick/7172-Meadowbrooke-Dr-21702/unit-A/home/174680934,BRIGHT MLS,MDFR2041310,N,Y,39.46994,-77.423007
MLS Listing,,Condo/Co-op,208 Second St E,Frederick,MD,21701,1250000,2,2.0,DOWNTOWN FREDERICK,2500,,,175,500,833,Active,,,https://www.redfin.com/MD/Frederick/208-E-2nd-St-21701/home/190314031,BRIGHT MLS,MDFR2046350,N,Y,39.4163372,-77.4065452
MLS Listing,,Vacant Land,"Lot 3 Sundays Manor, Sundays Ln",Frederick,MD,21702,339900,,,SUNDAYS MANOR,,131116,,193,,,Active,,,https://www.redfin.com/MD/Frederick/Sunday-s-Mnr-21702/home/160286157,BRIGHT MLS,MDFR2045146,N,Y,39.49149162,-77.42718644
MLS Listing,,Townhouse,8 E Church St,Frederick,MD,21701,749000,4,3.0,DOWNTOWN FREDERICK,2460,2074,1895,200,304,,Active,,,https://www.redfin.com/MD/Frederick/8-E-Church-St-21701/home/81969329,BRIGHT MLS,MDFR2045262,N,Y,39.4151836,-77.4101264
MLS Listing,,Single Family Residential,1818 Granby Way,Frederick,MD,21702,1395000,7,7.0,WALNUT RIDGE,9188,17189,2006,209,152,43,Active,,,https://www.redfin.com/MD/Frederick/1818-Granby-Way-21702/home/15179212,BRIGHT MLS,MDFR2044652,N,Y,39.4510409,-77.4452827
MLS Listing,,Single Family Residential,10000 Rocky Spgs Unit DEVONSHIRE,Frederick,MD,21702,838629,4,2.5,KELLERTON,4016,21780,2024,226,209,66,Active,,,https://www.redfin.com/MD/Frederick/10000-Rocky-SPGS-21702/unit-DEVONSHIRE/home/184068967,BRIGHT MLS,MDFR2044298,N,Y,39.46573612,-77.45786142
MLS Listing,,Vacant Land,6730 Plantation Rd,Frederick,MD,21701,850000,,,Frederick,,958756,,233,,,Active,,,https://www.redfin.com/MD/Frederick/6730-Plantation-Rd-21701/home/167078334,BRIGHT MLS,MDFR2044050,N,Y,39.420364,-77.3358839
MLS Listing,,Single Family Residential,8423 Yellow Springs Rd,Frederick,MD,21702,1298000,4,2.5,KELLERTON,4875,83199,1900,245,266,90,Active,,,https://www.redfin.com/MD/Frederick/8423-Yellow-Springs-Rd-21702/home/15224505,BRIGHT MLS,MDFR2042710,N,Y,39.4663201,-77.4492165
MLS Listing,,Vacant Land,94 Wormans Mill Ct,Frederick,MD,21701,639900,,,Frederick,,56990,,270,,,Active,,,https://www.redfin.com/MD/Frederick/94-Wormans-Mill-Ct-21701/home/22196939,BRIGHT MLS,MDFR2043020,N,Y,39.44398,-77.399046
MLS Listing,,Single Family Residential,4362 Ball Rd Lot 5,Ijamsville,MD,21754,1279000,3,2.5,Ijamsville,3798,57934,,285,337,,Active,,,https://www.redfin.com/MD/Ijamsville/4362-Ball-Rd-21754/unit-5/home/188853656,BRIGHT MLS,MDFR2042676,N,Y,39.3544473,-77.3566692
MLS Listing,,Single Family Residential,4354 Ball Rd Unit (LOT 4),Ijamsville,MD,21754,998000,4,3.5,Ijamsville,2611,40075,2024,288,382,,Active,,,https://www.redfin.com/MD/Ijamsville/4354-Ball-Rd-21754/unit-LOT-4/home/188825514,BRIGHT MLS,MDFR2042212,N,Y,39.3544473,-77.3566692
MLS Listing,,Townhouse,2634 Front Shed Dr,Frederick,MD,21702,513747,4,3.5,KELLERTON,2181,2196,,300,236,77,Active,,,https://www.redfin.com/MD/Frederick/2634-Front-Shed-Dr-21702/home/188647360,BRIGHT MLS,MDFR2042230,N,Y,39.460463,-77.450867
MLS Listing,,Single Family Residential,8930 Jones Rd,Libertytown,MD,21762,1800000,4,2.0,LIBERTYTOWN,3955,640332,1860,315,455,,Active,,,https://www.redfin.com/MD/Libertytown/8930-Jones-Rd-21762/home/143468644,BRIGHT MLS,MDFR2034692,N,Y,39.4798,-77.24718
MLS Listing,,Single Family Residential,9217 Hamburg Rd,Frederick,MD,21702,764000,3,2.0,Frederick,984,372002,2024,322,776,,Active,,,https://www.redfin.com/MD/Frederick/9217-Hamburg-Rd-21702/home/15224954,BRIGHT MLS,MDFR2040726,N,Y,39.487154245,-77.46955027
MLS Listing,,Single Family Residential,10000 Rocky Springs Rd Unit NOTTINGHAM,Frederick,MD,21702,817359,4,2.5,KELLERTON,3600,21780,2024,398,227,66,Active,,,https://www.redfin.com/MD/Frederick/10000-Rocky-Springs-Rd-21702/unit-NOTTINGHAM/home/186756929,BRIGHT MLS,MDFR2038792,N,Y,39.4640652,-77.4523725
MLS Listing,,Single Family Residential,10000 Rocky Springs Rd Unit COVINGTON,Frederick,MD,21702,786861,4,2.5,KELLERTON,3405,21780,2024,398,231,66,Active,,,https://www.redfin.com/MD/Frederick/10000-Rocky-Springs-Rd-21702/unit-COVINGTON/home/186755710,BRIGHT MLS,MDFR2038790,N,Y,39.4640652,-77.4523725
New Construction Home,,Single Family Residential,712 Bond St,Frederick,MD,21701,766810,5,4.5,Frederick,2969,,2024,1,258,,Active,,,https://www.redfin.com/MD/Frederick/712-Bond-St-21701/home/178979521,Zillow,9E1396C63A5F,N,Y,39.419191,-77.391968
New Construction Home,,Townhouse,424 Herringbone Way,Frederick,MD,21701,534475,4,3.5,Frederick,1962,,2024,11,272,,Active,,,https://www.redfin.com/MD/Frederick/424-Herringbone-Way-21701/home/190131666,Zillow,73D7F9950FCF,N,Y,39.4189742,-77.3897125
New Construction Home,,Townhouse,422 Herringbone Way,Frederick,MD,21701,538475,4,3.5,Frederick,1962,,2024,11,274,,Active,,,https://www.redfin.com/MD/Frederick/422-Herringbone-Way-21701/home/190131665,Zillow,AC43D5C1F3C3,N,Y,39.4189742,-77.3897125
New Construction Home,,Townhouse,428 Herringbone Way,Frederick,MD,21701,534475,4,3.5,Frederick,1962,,2024,11,272,,Active,,,https://www.redfin.com/MD/Frederick/428-Herringbone-Way-21701/home/190131668,Zillow,1C56BE6CFC6F,N,Y,39.4189742,-77.3897125
New Construction Home,,Townhouse,343 Paca Gardens Ln,Frederick,MD,21703,469990,3,3.0,Frederick,1978,,2024,12,238,,Active,,,https://www.redfin.com/MD/Frederick/343-Paca-Gardens-Ln-21703/home/190131549,Zillow,1494A1F8AE5B,N,Y,39.4162572,-77.4629018
New Construction Home,,Townhouse,1604 Blacksmith Way,Frederick,MD,21702,496250,4,3.5,Frederick,2011,,2024,13,247,,Active,,,https://www.redfin.com/MD/Frederick/1604-Blacksmith-Way-21702/home/190131952,Zillow,38A3157F940E,N,Y,39.431751,-77.460602
New Construction Home,,Townhouse,1811 Shookstown Rd,Frederick,MD,21702,405760,3,2.5,Frederick,1600,,2024,13,254,,Active,,,https://www.redfin.com/MD/Frederick/1811-Shookstown-Rd-21702/home/190131940,Zillow,6409C5B2A600,N,Y,39.431268,-77.460574
New Construction Home,,Townhouse,1610 Blacksmith Way,Frederick,MD,21702,509118,4,3.5,Frederick,2011,,2024,13,253,,Active,,,https://www.redfin.com/MD/Frederick/1610-Blacksmith-Way-21702/home/190131949,Zillow,202A9731DD31,N,Y,39.431636,-77.460442
New Construction Home,,Townhouse,1805 Shookstown Rd,Frederick,MD,21702,439219,3,2.5,Frederick,1600,,2024,13,275,,Active,,,https://www.redfin.com/MD/Frederick/1805-Shookstown-Rd-21702/home/190131937,Zillow,411A8AD14244,N,Y,39.431154,-77.460421
New Construction Home,,Townhouse,1813 Shookstown Rd,Frederick,MD,21702,458817,3,2.5,Frederick,1600,,2024,13,287,,Active,,,https://www.redfin.com/MD/Frederick/1813-Shookstown-Rd-21702/home/190131941,Zillow,3C9EBA59ADB0,N,Y,39.431308,-77.460633
New Construction Home,,Townhouse,1606 Blacksmith Way,Frederick,MD,21702,473440,4,3.5,Frederick,2011,,2024,13,235,,Active,,,https://www.redfin.com/MD/Frederick/1606-Blacksmith-Way-21702/home/190131951,Zillow,90E8A693AF5E,N,Y,39.431709,-77.460562
New Construction Home,,Townhouse,2918 Fence Buster Ct,Frederick,MD,21702,659990,3,2.5,Frederick,2499,4320,2024,13,264,,Active,,,https://www.redfin.com/MD/Frederick/2918-Fence-Buster-Ct-21702/home/184721401,Zillow,8E3D3BA6AF70,N,Y,39.463436,-77.45423
New Construction Home,,Townhouse,1803 Shookstown Rd,Frederick,MD,21702,432150,3,2.5,Frederick,1600,,2024,14,270,,Active,,,https://www.redfin.com/MD/Frederick/1803-Shookstown-Rd-21702/home/190131936,Zillow,A4C0A5353AFA,N,Y,39.431116,-77.460366
New Construction Home,,Townhouse,5944 Garden Walk Dr,Frederick,MD,21703,549990,3,2.5,Frederick,2123,,2024,19,259,,Active,,,https://www.redfin.com/MD/Frederick/5944-Garden-Walk-Dr-21703/home/184724137,Zillow,8A68937C9A6C,N,Y,39.3949799,-77.456654
New Construction Home,,Townhouse,2002 Alice Ct,Frederick,MD,21702,572709,3,3.5,Frederick,2303,,2024,34,249,,Active,,,https://www.redfin.com/MD/Fort-Detrick/2002-Alice-CT-21702/home/192064362,Zillow,8CD33587EA17,N,Y,39.47197723388672,-77.4291000366211
New Construction Home,,Townhouse,1213 Greylock Ln,Frederick,MD,21702,467290,3,3.5,Frederick,2078,,2024,43,225,,Active,,,https://www.redfin.com/MD/Fort-Detrick/1213-Greylock-LN-21702/home/191954578,Zillow,FDB122FB8B35,N,Y,39.48468780517578,-77.4582748413086
New Construction Home,,Townhouse,2213 Woodall Dr,Frederick,MD,21702,457790,3,3.5,Frederick,2078,,2024,43,220,,Active,,,https://www.redfin.com/MD/Fort-Detrick/2213-Woodall-DR-21702/home/191954570,Zillow,79A5677BC8F5,N,Y,39.38035202026367,-77.49530792236328
New Construction Home,,Townhouse,2207 Woodall Dr,Frederick,MD,21702,472790,3,3.5,Frederick,2078,,2024,58,228,,Active,,,https://www.redfin.com/MD/Fort-Detrick/2207-Woodall-DR-21702/home/191759111,Zillow,FC083610423A,N,Y,39.38035202026367,-77.49530792236328
New Construction Home,,Townhouse,2931 Fence Buster Court Caspian Inside,Frederick,MD,21702,614403,3,2.5,Frederick,2262,,2024,62,272,,Active,,,https://www.redfin.com/MD/Frederick/2931-Fence-Buster-Ct-21702/home/184721415,Zillow,7A0FF4F825C2,N,Y,39.464332,-77.454013
New Construction Home,,Townhouse,Alice Ct #2034,Frederick,MD,21702,511880,3,3.5,Frederick,2121,,2024,63,241,,Active,,,https://www.redfin.com/MD/Fort-Detrick/Alice-CT-21702/unit-2034/home/191609416,Zillow,CD311D24D595,N,Y,39.47146987915039,-77.42889404296875
New Construction Home,,Townhouse,2618 Front Shed,Frederick,MD,21702,538361,4,3.5,Frederick,2167,3080,2024,92,248,,Active,,,https://www.redfin.com/MD/Frederick/2618-Front-Shed-Dr-21702/home/190131275,Zillow,DBAE4D343EA8,N,Y,39.46063,-77.451642
New Construction Home,,Townhouse,2612 Front Shed,Frederick,MD,21702,514026,4,3.5,Frederick,2167,2200,2024,92,237,,Active,,,https://www.redfin.com/MD/Frederick/2612-Front-Shed-Dr-21702/home/190131272,Zillow,789E901B3A79,N,Y,39.46071,-77.451844
New Construction Home,,Single Family Residential,720 Bond St,Frederick,MD,21701,727346,4,4.0,Frederick,2518,,2024,124,289,,Active,,,https://www.redfin.com/MD/Frederick/720-Bond-St-21701/home/178979515,Zillow,14CC7BD49592,N,Y,39.419717,-77.391298
New Construction Home,,Townhouse,Alice Ct #2031,Frederick,MD,21702,571961,3,3.0,Frederick,2295,,2024,132,249,,Active,,,https://www.redfin.com/MD/Fort-Detrick/Alice-CT-21702/unit-2031/home/190735426,Zillow,38ED13836D73,N,Y,39.471580505371094,-77.4303970336914
New Construction Home,,Single Family Residential,1301 Futurity St,Frederick,MD,21702,1149900,4,3.0,Frederick,4024,12698,2024,148,286,,Active,,,https://www.redfin.com/MD/Frederick/1301-Futurity-St-21702/home/167611033,Zillow,7AE275951E74,N,Y,39.461532,-77.4415719
New Construction Home,,Townhouse,2925 Fence Buster Ct,Frederick,MD,21702,660861,3,2.5,Frederick,2513,,2024,187,263,,Active,,,https://www.redfin.com/MD/Frederick/2925-Fence-Buster-Ct-21702/home/184721412,Zillow,E649951CBBE4,N,Y,39.464036,-77.454289
New Construction Home,,Townhouse,2632 Front Shed Dr,Frederick,MD,21702,514835,4,3.5,Frederick,2184,2219,2024,187,236,,Active,,,https://www.redfin.com/MD/Frederick/2632-Front-Shed-Dr-21702/home/188647358,Zillow,0465DBD66462,N,Y,39.460456,-77.4509379
New Construction Plan,,Single Family Residential,Magnolia Plan,Frederick,MD,21702,779889,4,2.5,Frederick,2953,,,21,264,,Active,,,https://www.redfin.com/MD/Frederick/Frederick/Magnolia/home/188415157,Zillow,73B8C387A998,N,Y,39.464651,-77.453051
New Construction Plan,,Single Family Residential,Covington Plan,Frederick,MD,21702,786861,4,2.5,Frederick,3405,,,21,231,,Active,,,https://www.redfin.com/MD/Frederick/Frederick/Covington/home/188402893,Zillow,1F07CEFAC97B,N,Y,39.464651,-77.453051
New Construction Plan,,Single Family Residential,Augusta Plan,Frederick,MD,21702,785350,4,2.5,Frederick,2789,,,21,282,,Active,,,https://www.redfin.com/MD/Frederick/Frederick/Augusta/home/188422761,Zillow,56A78D3850E2,N,Y,39.464651,-77.453051
New Construction Plan,,Single Family Residential,Hawthorne Plan,Frederick,MD,21702,811172,4,2.5,Frederick,3646,,,21,222,,Active,,,https://www.redfin.com/MD/Frederick/Frederick/Hawthorne/home/188397745,Zillow,E7350CEBBF84,N,Y,39.464651,-77.453051
New Construction Plan,,Single Family Residential,Sebastian Plan,Frederick,MD,21702,774541,4,2.5,Frederick,2701,,,21,287,,Active,,,https://www.redfin.com/MD/Frederick/Frederick/Sebastian/home/188415167,Zillow,8009B71DA726,N,Y,39.464651,-77.453051
New Construction Plan,,Single Family Residential,Nottingham Plan,Frederick,MD,21702,817359,4,2.5,Frederick,3600,,,21,227,,Active,,,https://www.redfin.com/MD/Frederick/Frederick/Nottingham/home/188413679,Zillow,EA6AE08E0DFF,N,Y,39.464651,-77.453051
New Construction Plan,,Single Family Residential,Ethan Plan,Frederick,MD,21702,797652,4,2.5,Frederick,3211,,,21,248,,Active,,,https://www.redfin.com/MD/Frederick/Frederick/Ethan/home/188412084,Zillow,318A461C41A9,N,Y,39.464651,-77.453051
New Construction Plan,,Single Family Residential,Devonshire Plan,Frederick,MD,21702,838629,4,2.5,Frederick,4016,,,21,209,,Active,,,https://www.redfin.com/MD/Frederick/Frederick/Devonshire/home/188410360,Zillow,7B06384D39D2,N,Y,39.464651,-77.453051
New Construction Plan,,Townhouse,Van Dorn w/Fourth Floor Plan,Urbana,MD,21704,744990,4,3.5,Urbana,2831,,,56,263,,Active,,,https://www.redfin.com/MD/Urbana/Urbana/Van-Dorn-w-Fourth-Floor/home/191173579,Zillow,2F7659293E40,N,Y,39.330645,-77.3556156
New Construction Plan,,Townhouse,Harlow II Plan,Frederick,MD,21702,489990,3,2.5,Frederick,2121,,,60,231,,Active,,,https://www.redfin.com/MD/Frederick/Frederick/Harlow-II/home/191751298,Zillow,2309CD408EEB,N,Y,39.4720458984375,-77.43034362792969
New Construction Plan,,Single Family Residential,Homes Available Soon Plan,Frederick,MD,21702,,,,Frederick,,,,60,,,Active,,,https://www.redfin.com/MD/Frederick/Frederick/Homes-Available-Soon/home/191751285,Zillow,314B4B92BD51,N,Y,39.472042083740234,-77.43031311035156
New Construction Plan,,Single Family Residential,Lehigh Plan,Frederick,MD,21702,684990,4,2.5,Frederick,3978,,,64,172,,Active,,,https://www.redfin.com/MD/Frederick/Frederick/Lehigh/home/190877528,Zillow,8AF9B19C0B80,N,Y,39.4398234,-77.4570289
New Construction Plan,,Single Family Residential,Ballenger Plan,Frederick,MD,21702,619990,4,2.5,Frederick,2737,,,64,227,,Active,,,https://www.redfin.com/MD/Frederick/Frederick/Ballenger/home/191605539,Zillow,E713754E4A6E,N,Y,39.4400014,-77.4575224
New Construction Plan,,Single Family Residential,Hudson Plan,Frederick,MD,21702,659990,4,2.5,Frederick,3571,,,64,185,,Active,,,https://www.redfin.com/MD/Frederick/Frederick/Hudson/home/190877546,Zillow,28E5B697E08E,N,Y,39.4398234,-77.4570289
New Construction Plan,,Single Family Residential,Columbia Plan,Frederick,MD,21702,624990,4,2.5,Frederick,3133,,,64,199,,Active,,,https://www.redfin.com/MD/Frederick/Frederick/Columbia/home/190877555,Zillow,C39B1CE7C0FE,N,Y,39.4398234,-77.4570289
New Construction Plan,,Townhouse,Myers Quick Move In Plan,Frederick,MD,21703,474990,3,3.0,Frederick,1895,,,90,251,,Active,,,https://www.redfin.com/MD/Frederick/Frederick/Myers-Quick-Move-In/home/191269906,Zillow,CF19496712D8,N,Y,39.393718,-77.456469
New Construction Plan,,Townhouse,Van Dorn Plan,Urbana,MD,21704,674990,3,2.5,Urbana,2247,,,96,300,,Active,,,https://www.redfin.com/MD/Urbana/Urbana/Van-Dorn/home/191173582,Zillow,4ABB8E0715E5,N,Y,39.330645,-77.3556156
New Construction Plan,,Townhouse,Cape May Plan,Frederick,MD,21702,439990,4,3.5,Frederick,2011,,,119,219,,Active,,,https://www.redfin.com/MD/Frederick/Frederick/Cape-May/home/190879121,Zillow,93F6622D5B12,N,Y,39.431667,-77.461261
New Construction Plan,,Townhouse,Long Beach Plan,Frederick,MD,21702,394990,3,2.5,Frederick,1600,,,119,247,,Active,,,https://www.redfin.com/MD/Frederick/Frederick/Long-Beach/home/190879055,Zillow,612628C9B9A9,N,Y,39.431667,-77.461261
New Construction Plan,,Townhouse,Schubert Plan,Frederick,MD,21702,454990,3,2.5,Frederick,2339,,,131,195,,Active,,,https://www.redfin.com/MD/Frederick/Frederick/Schubert/home/190739834,Zillow,5F61B6F1817D,N,Y,39.425649,-77.4372378
New Construction Plan,,Single Family Residential,Hampshire Plan,Frederick,MD,21701,809990,5,4.0,Frederick,3230,,,140,251,,Active,,,https://www.redfin.com/MD/Frederick/Frederick/Hampshire/home/190646851,Zillow,2C87102B497B,N,Y,39.419306,-77.389269
New Construction Plan,,Townhouse,Carlton Plan,Frederick,MD,21701,480990,4,4.0,Frederick,1793,,,140,268,,Active,,,https://www.redfin.com/MD/Frederick/Frederick/Carlton/home/190646824,Zillow,F45BD9C9FF20,N,Y,39.419306,-77.389269
New Construction Plan,,Single Family Residential,ALEC Plan,Frederick,MD,21701,702490,4,4.0,Frederick,2518,,,140,279,,Active,,,https://www.redfin.com/MD/Frederick/Frederick/ALEC/home/190646796,Zillow,0F1814DB88C7,N,Y,39.419306,-77.389269
New Construction Plan,,Townhouse,Norris Plan,Frederick,MD,21701,517990,4,3.5,Frederick,1962,,,140,264,,Active,,,https://www.redfin.com/MD/Frederick/Frederick/Norris/home/190646774,Zillow,8F6AA886BE84,N,Y,39.419306,-77.389269
New Construction Plan,,Single Family Residential,Summit Plan,Frederick,MD,21701,784990,6,5.0,Frederick,3112,,,140,252,,Active,,,https://www.redfin.com/MD/Frederick/Frederick/Summit/home/190646770,Zillow,F620A94C6433,N,Y,39.419306,-77.389269
New Construction Plan,,Single Family Residential,Hadley Plan,Frederick,MD,21701,734990,5,4.0,Frederick,2628,,,140,280,,Active,,,https://www.redfin.com/MD/Frederick/Frederick/Hadley/home/190646764,Zillow,91E937BC560A,N,Y,39.419306,-77.389269
New Construction Plan,,Townhouse,Mendelssohn Plan,Frederick,MD,21703,419990,3,2.5,Frederick,1978,,,143,212,,Active,,,https://www.redfin.com/MD/Frederick/Frederick/Mendelssohn/home/190616447,Zillow,2B10C94D7B2A,N,Y,39.4178363,-77.4657235
New Construction Plan,,Townhouse,Arcadia Non Garage Plan,Frederick,MD,21702,410990,3,2.5,Frederick,2353,,,189,175,,Active,,,https://www.redfin.com/MD/Frederick/Frederick/Arcadia-Non-Garage/home/190135749,Zillow,E780A9ADF505,N,Y,39.442757,-77.4571519
New Construction Plan,,Townhouse,Arcadia Front Load Garage Plan,Frederick,MD,21702,420990,3,2.5,Frederick,2078,,,189,203,,Active,,,https://www.redfin.com/MD/Frederick/Frederick/Arcadia-Front-Load-Garage/home/190135726,Zillow,D7496AC02B68,N,Y,39.442757,-77.4571519
New Construction Plan,,Townhouse,Strauss Plan,Frederick,MD,21702,424990,3,2.5,Frederick,2034,,,203,209,,Active,,,https://www.redfin.com/MD/Frederick/Frederick/Strauss/home/189919499,Zillow,4EDD4504ED29,N,Y,39.425649,-77.4372378
New Construction Plan,,Single Family Residential,Nottingham Plan,Frederick,MD,21702,826122,4,2.5,Frederick,3600,,,244,229,,Active,,,https://www.redfin.com/MD/Frederick/Frederick/Nottingham/home/188380277,Zillow,4FE2009C3163,N,Y,39.461532,-77.4415719
New Construction Plan,,Single Family Residential,The Beckham Plan,Frederick,MD,21701,929900,6,5.5,Frederick,5247,,,257,177,,Active,,,https://www.redfin.com/MD/Frederick/Frederick/The-Beckham/home/189080992,Zillow,34BBFCFFA008,N,Y,39.398823,-77.361625
New Construction Plan,,Single Family Residential,The Hathaway Plan,Frederick,MD,21701,889900,4,5.0,Frederick,4762,,,257,187,,Active,,,https://www.redfin.com/MD/Frederick/Frederick/The-Hathaway/home/189080990,Zillow,D023D688FF15,N,Y,39.398823,-77.361625
New Construction Plan,,Single Family Residential,The Emerson Plan,Frederick,MD,21701,799900,6,5.5,Frederick,4226,,,257,189,,Active,,,https://www.redfin.com/MD/Frederick/Frederick/The-Emerson/home/189080989,Zillow,B5BB2246A94E,N,Y,39.398823,-77.361625
New Construction Plan,,Single Family Residential,The Chapman Plan,Frederick,MD,21701,899900,6,5.5,Frederick,5863,,,257,153,,Active,,,https://www.redfin.com/MD/Frederick/Frederick/The-Chapman/home/189080988,Zillow,8F34831F335D,N,Y,39.398823,-77.361625
New Construction Plan,,Single Family Residential,Lachlan Plan,Frederick,MD,21702,769010,4,2.5,Frederick,2346,,,315,328,,Active,,,https://www.redfin.com/MD/Frederick/Frederick/Lachlan/home/188414277,Zillow,9F0C5FA95136,N,Y,39.461532,-77.4415719
New Construction Plan,,Single Family Residential,Magnolia Plan,Frederick,MD,21702,788652,4,2.5,Frederick,2953,,,315,267,,Active,,,https://www.redfin.com/MD/Frederick/Frederick/Magnolia/home/188416466,Zillow,6079900D46A4,N,Y,39.461532,-77.4415719
New Construction Plan,,Single Family Residential,Clarkson Plan,Frederick,MD,21702,699990,3,3.0,Frederick,2396,,,315,292,,Active,,,https://www.redfin.com/MD/Frederick/Frederick/Clarkson/home/188415059,Zillow,4977CDE3DF44,N,Y,39.476987,-77.414785
New Construction Plan,,Single Family Residential,Hawthorne Plan,Frederick,MD,21702,819935,4,2.5,Frederick,3646,,,315,225,,Active,,,https://www.redfin.com/MD/Frederick/Frederick/Hawthorne/home/188420126,Zillow,FC9E65518E79,N,Y,39.461532,-77.4415719
New Construction Plan,,Single Family Residential,Covington Plan,Frederick,MD,21702,795624,4,2.5,Frederick,3405,,,315,234,,Active,,,https://www.redfin.com/MD/Frederick/Frederick/Covington/home/188424818,Zillow,B4BF1F8FB846,N,Y,39.461532,-77.4415719
New Construction Plan,,Single Family Residential,Manchester Plan,Frederick,MD,21702,788288,4,2.5,Frederick,2953,,,315,267,,Active,,,https://www.redfin.com/MD/Frederick/Frederick/Manchester/home/188405857,Zillow,15DCA0E0BA16,N,Y,39.461532,-77.4415719
New Construction Plan,,Townhouse,Caspian Farmhouse - End Plan,Frederick,MD,21702,570738,3,2.5,Frederick,2262,,,315,252,,Active,,,https://www.redfin.com/MD/Frederick/Frederick/Caspian-Farmhouse-End/home/188408578,Zillow,D9DC432656BD,N,Y,39.462781,-77.446976
New Construction Plan,,Single Family Residential,Ethan Plan,Frederick,MD,21702,806415,4,2.5,Frederick,3211,,,315,251,,Active,,,https://www.redfin.com/MD/Frederick/Frederick/Ethan/home/188420347,Zillow,1CDB6E78C774,N,Y,39.461532,-77.4415719
New Construction Plan,,Single Family Residential,Parker Plan,Frederick,MD,21702,793277,4,2.5,Frederick,2705,,,315,293,,Active,,,https://www.redfin.com/MD/Frederick/Frederick/Parker/home/188421837,Zillow,E3A09818FDC9,N,Y,39.461532,-77.4415719
New Construction Plan,,Single Family Residential,Addison Plan,Frederick,MD,21702,782819,4,2.5,Frederick,2595,,,315,302,,Active,,,https://www.redfin.com/MD/Frederick/Frederick/Addison/home/188419857,Zillow,7F5AAD953DFA,N,Y,39.461532,-77.4415719
New Construction Plan,,Townhouse,Hayward Farmhouse - End Plan,Frederick,MD,21702,445496,3,2.5,Frederick,1780,,,315,250,,Active,,,https://www.redfin.com/MD/Frederick/Frederick/Hayward-Farmhouse-End/home/188418771,Zillow,4BE16F5B5D54,N,Y,39.461041,-77.45051
New Construction Plan,,Single Family Residential,Augusta Plan,Frederick,MD,21702,794113,4,2.5,Frederick,2789,,,315,285,,Active,,,https://www.redfin.com/MD/Frederick/Frederick/Augusta/home/188401839,Zillow,9E2F120B384D,N,Y,39.461532,-77.4415719
New Construction Plan,,Townhouse,Cumberland Farmhouse - End Plan,Frederick,MD,21702,576738,4,2.5,Frederick,2346,,,315,246,,Active,,,https://www.redfin.com/MD/Frederick/Frederick/Cumberland-Farmhouse-End/home/188417776,Zillow,AF79116C3526,N,Y,39.462781,-77.446976
New Construction Plan,,Single Family Residential,Sebastian Plan,Frederick,MD,21702,783304,4,2.5,Frederick,2701,,,315,290,,Active,,,https://www.redfin.com/MD/Frederick/Frederick/Sebastian/home/188399353,Zillow,51CEA0601C3E,N,Y,39.461532,-77.4415719
New Construction Plan,,Single Family Residential,Savannah Plan,Frederick,MD,21702,782703,4,2.5,Frederick,2748,,,315,285,,Active,,,https://www.redfin.com/MD/Frederick/Frederick/Savannah/home/188402236,Zillow,98B1FF4B1477,N,Y,39.461532,-77.4415719
New Construction Plan,,Single Family Residential,Davenport Plan,Frederick,MD,21702,729990,3,3.0,Frederick,2670,,,315,273,,Active,,,https://www.redfin.com/MD/Frederick/Frederick/Davenport/home/188399845,Zillow,9B507DFA1353,N,Y,39.476987,-77.414785
New Construction Plan,,Single Family Residential,Bennington Plan,Frederick,MD,21702,664990,2,2.0,Frederick,2003,,,315,332,,Active,,,https://www.redfin.com/MD/Frederick/Frederick/Bennington/home/188393855,Zillow,99D475052A48,N,Y,39.476987,-77.414785
New Construction Plan,,Single Family Residential,Albright Plan,Frederick,MD,21702,634990,2,2.0,Frederick,1766,,,315,360,,Active,,,https://www.redfin.com/MD/Frederick/Frederick/Albright/home/188402121,Zillow,96DAD9F6E6F6,N,Y,39.476987,-77.414785
New Construction Plan,,Townhouse,Morgan Farmhouse - End Plan,Frederick,MD,21702,597738,3,2.5,Frederick,2655,,,315,225,,Active,,,https://www.redfin.com/MD/Frederick/Frederick/Morgan-Farmhouse-End/home/188400190,Zillow,92E64E0FEAE2,N,Y,39.462781,-77.446976
New Construction Plan,,Single Family Residential,Devonshire Plan,Frederick,MD,21702,847392,4,2.5,Frederick,4016,,,315,211,,Active,,,https://www.redfin.com/MD/Frederick/Frederick/Devonshire/home/188390118,Zillow,5F0B2DF03B62,N,Y,39.461532,-77.4415719
New Construction Plan,,Townhouse,Serenade Quick Move In Plan,Frederick,MD,21703,549990,3,2.5,Frederick,2123,,,315,259,,Active,,,https://www.redfin.com/MD/Frederick/Frederick/Serenade-Quick-Move-In/home/189080939,Zillow,282175DE5D5D,N,Y,39.393718,-77.456469
New Construction Plan,,Single Family Residential,Starlite Homesite Special Plan,Frederick,MD,21702,559990,2,2.0,Frederick,2532,,,315,221,,Active,,,https://www.redfin.com/MD/Frederick/Frederick/Starlite-Homesite-Special/home/188385155,Zillow,B0FF056587E1,N,Y,39.476987,-77.414785
