SALE TYPE,SOLD DATE,PROPERTY TYPE,ADDRESS,CITY,STATE OR PROVINCE,ZIP OR POSTAL CODE,PRICE,BEDS,BATHS,LOCATION,SQUARE FEET,LOT SIZE,YEAR BUILT,DAYS ON MARKET,$/SQUARE FEET,HOA/MONTH,STATUS,NEXT OPEN HOUSE START TIME,NEXT OPEN HOUSE END TIME,URL (SEE https://www.redfin.com/buy-a-home/comparative-market-analysis FOR INFO ON PRICING),SOURCE,MLS#,FAVORITE,INTERESTED,LATITUDE,LONGITUDE
MLS Listing,,Townhouse,443 W South St,Frederick,MD,21701,369000,3,1.5,Frederick,1048,1957,1927,1,352,,Pre On-Market,,,https://www.redfin.com/MD/Frederick/443-W-South-St-21701/home/15179646,BRIGHT MLS,MDFR2054200,N,Y,39.411315,-77.4199871
MLS Listing,,Single Family Residential,5200 Maitland Ter,Frederick,MD,21703,833000,3,3.5,Frederick,5135,47045,2013,11,162,75,Active,,,https://www.redfin.com/MD/Frederick/5200-Maitland-Ter-21703/home/22636411,BRIGHT MLS,MDFR2053542,N,Y,39.4118838,-77.486969
MLS Listing,,Townhouse,2225 Bear Den Rd,Frederick,MD,21701,539000,4,3.5,WORMANS MILL,2284,2500,1997,12,236,114,Active,,,https://www.redfin.com/MD/Frederick/2225-Bear-Den-Rd-21701/home/15219028,BRIGHT MLS,MDFR2052566,N,Y,39.4543547,-77.3831106
MLS Listing,,Townhouse,410 Terry Ct Unit B6,Frederick,MD,21701,279000,3,2.0,Frederick,1100,,1984,18,254,355,Active,,,https://www.redfin.com/MD/Frederick/410-Terry-Ct-21701/unit-B6/home/15226403,BRIGHT MLS,MDFR2053430,N,Y,39.4038716,-77.4264715
MLS Listing,,Townhouse,5900 Forum Sq,Frederick,MD,21703,399000,3,2.5,JEFFERSON PLACE,2100,,2017,25,190,306,Active,,,https://www.redfin.com/MD/Frederick/5900-Forum-Sq-21703/home/144250767,BRIGHT MLS,MDFR2052608,N,Y,39.3951,-77.4535889
MLS Listing,,Single Family Residential,1203 Apollo Dr,Frederick,MD,21702,574900,4,2.5,TUSCARORA CREEK,1904,7514,2020,26,302,36,Active,,,https://www.redfin.com/MD/Frederick/1203-Apollo-Dr-21702/home/174680788,BRIGHT MLS,MDFR2052920,N,Y,39.468057,-77.432948
MLS Listing,,Townhouse,9001 Shady Pines Dr,Frederick,MD,21704,649000,5,4.5,VILLAGES OF URBANA,2400,1900,2021,31,270,154,Pre On-Market,,,https://www.redfin.com/MD/Frederick/9001-Shady-Pines-Dr-21704/home/174682101,BRIGHT MLS,MDFR2052942,N,Y,39.3309508,-77.3649302
MLS Listing,,Single Family Residential,6637 Jefferson Blvd,Frederick,MD,21703,500000,4,2.5,BRADDOCK HEIGHTS,1564,13200,1930,33,320,,Active,,,https://www.redfin.com/MD/Frederick/6637-Jefferson-Blvd-21703/home/15214122,BRIGHT MLS,MDFR2052758,N,Y,39.4151789,-77.5061748
MLS Listing,,Townhouse,463 Arwell Ct #463,Frederick,MD,21703,330000,3,1.5,FREDERICK HEIGHTS,1024,1742,1987,37,322,30,Active,,,https://www.redfin.com/MD/Frederick/463-Arwell-Ct-21703/unit-463/home/15222217,BRIGHT MLS,MDFR2050504,N,Y,39.4112112,-77.4471249
MLS Listing,,Single Family Residential,6709 Mount Phillip Rd,Frederick,MD,21703,650000,4,2.5,WEST PARK VILLAGE,2624,5352,2023,103,248,84,Active,,,https://www.redfin.com/MD/Frederick/6709-Mt-Phillip-Rd-21703/home/167611494,BRIGHT MLS,MDFR2049224,N,Y,39.416866,-77.467327
MLS Listing,,Townhouse,6686 Canada Goose Ct,Frederick,MD,21703,360000,3,2.0,ROBIN MEADOWS,1622,1600,1993,1,222,114,Active,,,https://www.redfin.com/MD/Frederick/6686-Canada-Goose-Ct-21703/home/15249073,BRIGHT MLS,MDFR2053936,N,Y,39.3726212,-77.4345166
MLS Listing,,Townhouse,121 Harpers Way,Frederick,MD,21702,420000,3,3.0,NORTH CROSSING,1760,2213,1998,1,239,30,Active,September-20-2024 05:00 PM,September-20-2024 07:00 PM,https://www.redfin.com/MD/Frederick/121-Harpers-Way-21702/home/15217918,BRIGHT MLS,MDFR2054102,N,Y,39.4628098,-77.4111828
MLS Listing,,Single Family Residential,6243 Darlington Ct,Frederick,MD,21703,670000,6,3.5,BALLENGER CREEK,3432,9695,1993,1,195,55,Pre On-Market,,,https://www.redfin.com/MD/Frederick/6243-Darlington-Ct-21703/home/15215848,BRIGHT MLS,MDFR2053370,N,Y,39.3863578,-77.4518775
MLS Listing,,Condo/Co-op,1405 Key Pkwy Unit 105 BUILDING C,Frederick,MD,21702,159900,2,1.5,PARKWAY CONDOMINIUMS,,,1982,1,,600,Active,,,https://www.redfin.com/MD/Frederick/1405-Key-Pkwy-21702/unit-105-BUILDING-C/home/192578224,BRIGHT MLS,MDFR2054112,N,Y,39.4253593,-77.4608907
MLS Listing,,Townhouse,3606 Hope Commons Ct,Frederick,MD,21704,515000,4,3.5,VILLAGES OF URBANA,2520,3159,2000,1,204,154,Pre On-Market,September-21-2024 12:00 PM,September-21-2024 03:00 PM,https://www.redfin.com/MD/Frederick/3606-Hope-Commons-Ct-21704/home/15195647,BRIGHT MLS,MDFR2053250,N,Y,39.3322419,-77.3500857
MLS Listing,,Single Family Residential,1316 Hillcrest Dr,Frederick,MD,21703,419900,3,2.5,HILLCREST ORCHARDS,1680,7500,1980,1,250,,Active,,,https://www.redfin.com/MD/Frederick/1316-Hillcrest-Dr-21703/home/15229822,BRIGHT MLS,MDFR2053680,N,Y,39.4122579,-77.454931
MLS Listing,,Townhouse,2202 Bear Den Rd,Frederick,MD,21701,460000,3,3.5,WORMANS MILL,2370,2201,1995,1,194,114,Pre On-Market,,,https://www.redfin.com/MD/Frederick/2202-Bear-Den-Rd-21701/home/15219170,BRIGHT MLS,MDFR2054232,N,Y,39.4540131,-77.3843815
MLS Listing,,Townhouse,6642 Mcgrath Pl,Frederick,MD,21703,435000,4,3.5,WELLINGTON TRACE,2090,1880,2001,1,208,67,Active,,,https://www.redfin.com/MD/Frederick/6642-McGrath-Pl-21703/home/15187772,BRIGHT MLS,MDFR2054226,N,Y,39.368284,-77.436132
MLS Listing,,Single Family Residential,1519 Andover Ln,Frederick,MD,21702,460000,5,2.0,STONEGATE,2045,6098,1977,1,225,,Active,,,https://www.redfin.com/MD/Frederick/1519-Andover-Ln-21702/home/15232562,BRIGHT MLS,MDFR2054184,N,Y,39.4262314,-77.4669977
MLS Listing,,Single Family Residential,712 Bond St,Frederick,MD,21701,766810,5,5.5,RENN QUARTER,3642,4000,2024,1,211,80,Active,,,https://www.redfin.com/MD/Frederick/712-Bond-St-21701/home/178979521,BRIGHT MLS,MDFR2054212,N,Y,39.419191,-77.391968
MLS Listing,,Single Family Residential,9548 Kingston Pl,Frederick,MD,21701,529900,4,2.5,SPRING RIDGE,2308,5537,1999,1,230,96,Pre On-Market,,,https://www.redfin.com/MD/Frederick/9548-Kingston-Pl-21701/home/15189404,BRIGHT MLS,MDFR2054192,N,Y,39.407562,-77.3326229
MLS Listing,,Townhouse,812-B Dunbrooke Ct,Frederick,MD,21701,399990,2,2.0,WORMANS MILL,1543,3365,1992,1,259,301,Pre On-Market,,,https://www.redfin.com/MD/Frederick/812-Dunbrooke-Ct-21701/home/192566381,BRIGHT MLS,MDFR2054194,N,Y,39.450442,-77.3881229
MLS Listing,,Townhouse,2487 5 Shillings Rd,Frederick,MD,21701,405000,2,2.0,WORMANS MILL,1511,3336,1989,2,268,301,Active,,,https://www.redfin.com/MD/Frederick/2487-Five-Shillings-Rd-21701/home/15221680,BRIGHT MLS,MDFR2053784,N,Y,39.453228,-77.3871941
MLS Listing,,Single Family Residential,6581 Whetstone Dr,Frederick,MD,21703,515000,4,2.5,FARMBROOK,2263,6501,1987,2,228,67,Active,,,https://www.redfin.com/MD/Frederick/6581-Whetstone-Dr-21703/home/15205596,BRIGHT MLS,MDFR2053578,N,Y,39.3906039,-77.4387649
MLS Listing,,Townhouse,621 Blandwood Rd,Frederick,MD,21701,515000,4,2.5,EASTCHURCH,2360,2000,2018,2,218,97,Pre On-Market,,,https://www.redfin.com/MD/Frederick/621-Blandwood-Rd-21701/home/109903530,BRIGHT MLS,MDFR2054196,N,Y,39.424314,-77.393275
MLS Listing,,Single Family Residential,603 Hunting Ridge Dr,Frederick,MD,21701,560000,3,2.5,EMERALD FARM,2430,7679,2000,2,230,21,Active,,,https://www.redfin.com/MD/Frederick/603-Hunting-Ridge-Dr-21703/home/15219040,BRIGHT MLS,MDFR2054104,N,Y,39.4104133,-77.4624475
MLS Listing,,Single Family Residential,7800 Baltimore National Pike,Frederick,MD,21702,699000,4,2.5,Frederick,3636,161608,2001,2,192,,Pre On-Market,September-21-2024 12:00 PM,September-21-2024 02:00 PM,https://www.redfin.com/MD/Frederick/7800-Baltimore-National-Pike-21702/home/15186005,BRIGHT MLS,MDFR2054056,N,Y,39.4454967,-77.4989527
MLS Listing,,Single Family Residential,8614 Burnt Hickory Cir,Frederick,MD,21704,495000,3,3.0,BURNT HICKORY,2624,121968,1978,2,189,,Active,,,https://www.redfin.com/MD/Frederick/8614-Burnt-Hickory-Cir-21704/home/15196454,BRIGHT MLS,MDFR2054190,N,Y,39.3030211,-77.3645864
MLS Listing,,Single Family Residential,6648 Jefferson Blvd,Frederick,MD,21703,425000,4,1.5,BRADDOCK HEIGHTS,1996,11325,1912,2,213,,Pre On-Market,,,https://www.redfin.com/MD/Frederick/6648-Jefferson-Blvd-21703/home/15213894,BRIGHT MLS,MDFR2053530,N,Y,39.4159742,-77.506559
MLS Listing,,Single Family Residential,2365 Bear Den Rd,Frederick,MD,21701,499000,3,2.0,WORMANS MILL,2125,4594,1997,2,235,301,Active,,,https://www.redfin.com/MD/Frederick/2365-Bear-Den-Rd-21701/home/15219828,BRIGHT MLS,MDFR2054156,N,Y,39.4536232,-77.3829761
MLS Listing,,Single Family Residential,607 Lindbergh Ct,Frederick,MD,21701,995000,4,3.0,BAKER PARK,3328,15825,1985,3,299,,Active,,,https://www.redfin.com/MD/Frederick/607-Lindbergh-Ct-21701/home/15226381,BRIGHT MLS,MDFR2053634,N,Y,39.4190583,-77.423456
MLS Listing,,Townhouse,2370 Spruce Knob Ter,Frederick,MD,21702,469900,3,3.5,SYCAMORE RIDGE,2078,1710,2023,3,226,70,Pre On-Market,September-22-2024 01:00 PM,September-22-2024 03:00 PM,https://www.redfin.com/MD/Frederick/2370-Spruce-Knob-Ter-21702/home/184721313,BRIGHT MLS,MDFR2054012,N,Y,39.443701,-77.459472
MLS Listing,,Townhouse,8434 Pine Bluff Rd,Frederick,MD,21704,480000,3,3.5,TALLYN RIDGE,2156,1800,2018,3,223,114,Pre On-Market,September-22-2024 10:00 AM,September-22-2024 12:00 PM,https://www.redfin.com/MD/Frederick/8434-Pine-Bluff-Rd-21704/home/145710516,BRIGHT MLS,MDFR2054168,N,Y,39.3867928,-77.3722006
MLS Listing,,Single Family Residential,8701-A Yellow Springs Rd,Frederick,MD,21702,489900,4,2.5,Frederick,2220,31799,1915,3,221,,Active,,,https://www.redfin.com/MD/Frederick/8701-Yellow-Springs-Rd-21702/home/15224081,BRIGHT MLS,MDFR2054164,N,Y,39.4729449,-77.4528748
MLS Listing,,Single Family Residential,401 Geronimo Ct,Frederick,MD,21701,465000,3,2.0,RIVER CREST,1652,12498,2000,3,281,18,Pre On-Market,,,https://www.redfin.com/MD/Frederick/401-Geronimo-Ct-21701/home/15187882,BRIGHT MLS,MDFR2053094,N,Y,39.427767,-77.3967019
MLS Listing,,Townhouse,507 Klineharts Aly,Frederick,MD,21701,539900,5,4.5,DOWNTOWN FREDERICK,2850,2850,2017,3,189,,Active,,,https://www.redfin.com/MD/Frederick/507-Klineharts-Aly-21701/home/18999847,BRIGHT MLS,MDFR2053726,N,Y,39.420937,-77.411629
MLS Listing,,Single Family Residential,402 Potting Shed Way Unit D,Frederick,MD,21702,729990,3,3.0,BLOOMFIELDS,2670,6120,2024,3,273,207,Active,September-20-2024 11:00 AM,September-20-2024 03:00 PM,https://www.redfin.com/MD/Frederick/402-Potting-Shed-Way-21702/home/184721478,BRIGHT MLS,MDFR2054148,N,Y,39.476987,-77.414785
MLS Listing,,Single Family Residential,404 Potting Shed Way Unit C,Frederick,MD,21702,699990,3,3.0,BLOOMFIELDS,2396,8085,2024,3,292,207,Active,September-20-2024 11:00 AM,September-20-2024 03:00 PM,https://www.redfin.com/MD/Frederick/404-Potting-Shed-Way-21702/home/184721479,BRIGHT MLS,MDFR2054142,N,Y,39.476802,-77.415018
MLS Listing,,Condo/Co-op,1612 Rock Creek Dr #10,Frederick,MD,21702,255000,2,2.0,TWIN CREEK PLAZA,1300,,1968,3,196,360,Active,,,https://www.redfin.com/MD/Frederick/1612-Rock-Creek-Dr-21702/unit-10/home/19000005,BRIGHT MLS,MDFR2053944,N,Y,39.423885,-77.435713
MLS Listing,,Single Family Residential,3869 Braveheart Dr,Frederick,MD,21704,745900,4,3.5,URBANA HIGHLANDS,4493,6428,2004,3,166,156,Active,,,https://www.redfin.com/MD/Frederick/3869-Braveheart-Dr-21704/home/15182618,BRIGHT MLS,MDFR2053846,N,Y,39.3398815,-77.3263634
MLS Listing,,Townhouse,9455 Birchwood Ln,Frederick,MD,21701,410000,3,2.5,SPRING RIDGE,1958,1700,1998,4,209,106,Active,,,https://www.redfin.com/MD/Frederick/9455-Birchwood-Ln-21701/home/15188133,BRIGHT MLS,MDFR2053628,N,Y,39.4043521,-77.3362002
MLS Listing,,Condo/Co-op,210 E Second St #301,Frederick,MD,21701,1550000,3,2.5,DOWNTOWN FREDERICK,3094,,2024,4,501,816,Active,,,https://www.redfin.com/MD/Frederick/210-E-2nd-St-21701/unit-301/home/190131859,BRIGHT MLS,MDFR2054036,N,Y,39.4161175,-77.4061905
MLS Listing,,Townhouse,5864 Tami Ter,Frederick,MD,21703,414900,3,2.5,HANNOVER,2400,1826,2006,4,173,96,Pre On-Market,,,https://www.redfin.com/MD/Frederick/5864-Tami-Ter-21703/home/15214911,BRIGHT MLS,MDFR2054088,N,Y,39.3920011,-77.4477495
MLS Listing,,Townhouse,100 E 4th St,Frederick,MD,21701,515000,4,2.5,Frederick,1404,1812,1900,4,367,,Active,,,https://www.redfin.com/MD/Frederick/100-E-4th-St-21701/home/15235409,BRIGHT MLS,MDFR2053898,N,Y,39.4188709,-77.4083544
MLS Listing,,Condo/Co-op,605 Himes Ave #103,Frederick,MD,21703,239990,2,1.5,OVERLOOK,,,1990,4,,328,Active,,,https://www.redfin.com/MD/Frederick/605-Himes-Ave-21703/unit-103/home/15221102,BRIGHT MLS,MDFR2054078,N,Y,39.409212,-77.4455081
MLS Listing,,Single Family Residential,508 Logan St,Frederick,MD,21701,400000,4,2.0,Frederick,1488,5471,1982,4,269,,Pre On-Market,,,https://www.redfin.com/MD/Frederick/508-Logan-St-21701/home/15234339,BRIGHT MLS,MDFR2054068,N,Y,39.4047492,-77.4189059
MLS Listing,,Townhouse,421 Union St,Frederick,MD,21701,485000,4,4.0,RENN QUARTER,1824,1296,2023,4,266,97,Pre On-Market,,,https://www.redfin.com/MD/Frederick/421-Union-St-21701/home/178979324,BRIGHT MLS,MDFR2054072,N,Y,39.419156,-77.386078
MLS Listing,,Single Family Residential,4721 Elmer Derr Rd,Frederick,MD,21703,590000,3,2.5,Frederick,1312,83199,1885,4,450,,Active,,,https://www.redfin.com/MD/Frederick/4721-Elmer-Derr-Rd-21703/home/15215710,BRIGHT MLS,MDFR2053730,N,Y,39.3623859,-77.502986
MLS Listing,,Townhouse,3594 Sprigg Street St S,Frederick,MD,21704,564900,3,3.5,VILLAGES OF URBANA,2204,1624,2012,4,256,154,Pre On-Market,,,https://www.redfin.com/MD/Frederick/3594-Sprigg-St-S-21704/home/15178714,BRIGHT MLS,MDFR2053572,N,Y,39.3312147,-77.3565232
MLS Listing,,Single Family Residential,1511 Trotter,Frederick,MD,21702,735000,3,3.0,KELLERTON,2492,11869,2018,4,295,66,Active,,,https://www.redfin.com/MD/Frederick/1511-Trotter-Pl-21702/home/161821147,BRIGHT MLS,MDFR2053554,N,Y,39.460652,-77.441712
MLS Listing,,Townhouse,158 Stonegate Dr,Frederick,MD,21702,285000,2,1.5,STONEGATE FARMS,1560,5034,1981,4,183,,Active,,,https://www.redfin.com/MD/Frederick/158-Stonegate-Dr-21702/home/15230970,BRIGHT MLS,MDFR2053862,N,Y,39.4275986,-77.4636316
MLS Listing,,Single Family Residential,5644 Etzler Rd,Frederick,MD,21702,599995,3,2.0,Frederick,1872,47916,1988,4,321,,Active,September-22-2024 01:00 PM,September-22-2024 03:00 PM,https://www.redfin.com/MD/Frederick/5644-Etzler-Rd-21702/home/15224830,BRIGHT MLS,MDFR2053522,N,Y,39.4674207,-77.470847
MLS Listing,,Condo/Co-op,2250 Bear Den Rd #311,Frederick,MD,21701,500000,3,3.5,WORMANS MILL,2341,,2005,5,214,518,Active,,,https://www.redfin.com/MD/Frederick/2250-Bear-Den-Rd-21701/unit-311/home/15180922,BRIGHT MLS,MDFR2053740,N,Y,39.4557952,-77.3818339
MLS Listing,,Single Family Residential,8910 Mountainberry Cir,Frederick,MD,21702,665000,4,3.5,Frederick,2732,46174,1979,5,243,,Active,,,https://www.redfin.com/MD/Frederick/8910-Mountainberry-Cir-21702/home/15224577,BRIGHT MLS,MDFR2053042,N,Y,39.4777724,-77.4743786
MLS Listing,,Townhouse,2008 Spring Run Cir,Frederick,MD,21702,449990,4,2.5,TUSCARORA CREEK,1974,2745,2010,5,228,99,Active,,,https://www.redfin.com/MD/Frederick/2008-Spring-Run-Cir-21702/home/15179562,BRIGHT MLS,MDFR2053834,N,Y,39.4677695,-77.4300245
MLS Listing,,Townhouse,2238 Bear Den Rd,Frederick,MD,21701,455000,3,3.0,WORMANS MILL,2153,2200,1996,5,211,85,Pre On-Market,,,https://www.redfin.com/MD/Frederick/2238-Bear-Den-Rd-21701/home/15219474,BRIGHT MLS,MDFR2054028,N,Y,39.4549772,-77.383059
MLS Listing,,Single Family Residential,7 Fairview Ave,Frederick,MD,21701,585000,3,2.0,WESTBROOK,1938,10500,1967,5,302,,Pre On-Market,,,https://www.redfin.com/MD/Frederick/7-Fairview-Ave-21701/home/15235314,BRIGHT MLS,MDFR2054042,N,Y,39.4159152,-77.4315611
MLS Listing,,Condo/Co-op,1618 Blacksmith Way Unit C,Frederick,MD,21702,419329,3,2.5,GAMBRILL GLENN,1774,,,5,236,198,Active,September-17-2024 11:00 AM,September-17-2024 03:00 PM,https://www.redfin.com/MD/Frederick/1618-Blacksmith-Way-21702/unit-C/home/192497015,BRIGHT MLS,MDFR2054044,N,Y,39.4316459,-77.4603549
MLS Listing,,Single Family Residential,2256 W Greenleaf Dr,Frederick,MD,21702,660000,5,3.5,WHITTIER POND,3440,11579,2007,5,192,39,Pre On-Market,September-22-2024 01:00 PM,September-22-2024 03:00 PM,https://www.redfin.com/MD/Frederick/2256-W-Greenleaf-Dr-21702/home/15180150,BRIGHT MLS,MDFR2054040,N,Y,39.4575301,-77.4559541
MLS Listing,,Condo/Co-op,2507 Coach House Way Unit 3B,Frederick,MD,21702,306000,2,2.0,ECHO GLEN,1330,,1999,5,230,294,Pre On-Market,,,https://www.redfin.com/MD/Frederick/2507-Coach-House-Way-21702/unit-3B/home/15217551,BRIGHT MLS,MDFR2053998,N,Y,39.4481102,-77.4499974
MLS Listing,,Single Family Residential,7120 Linganore,Frederick,MD,21701,550000,3,3.0,Frederick,1760,98445,1965,6,313,,Active,,,https://www.redfin.com/MD/Frederick/7120-Linganore-Rd-21701/home/15246070,BRIGHT MLS,MDFR2053718,N,Y,39.4282759,-77.3400923
MLS Listing,,Townhouse,3618 Carriage Hill Dr #3618,Frederick,MD,21704,435000,3,2.5,VILLAGES OF URBANA,,1868,2010,6,,289,Active,,,https://www.redfin.com/MD/Frederick/3618-Carriage-Hill-Dr-21704/unit-3618/home/40018790,BRIGHT MLS,MDFR2053246,N,Y,39.3339319,-77.3349015
MLS Listing,,Townhouse,5807 Drawbridge Ct,Frederick,MD,21703,289900,2,1.0,FOXCROFT,915,1395,1984,6,317,95,Active,September-21-2024 12:00 PM,September-21-2024 03:00 PM,https://www.redfin.com/MD/Frederick/5807-Drawbridge-Ct-21703/home/15205547,BRIGHT MLS,MDFR2053674,N,Y,39.3915289,-77.4198945
MLS Listing,,Townhouse,2488 Silver Leaf Dr,Frederick,MD,21702,505000,4,3.5,BLOOMFIELDS,2209,2940,2024,6,229,207,Active,,,https://www.redfin.com/MD/Frederick/2488-Silver-Leaf-Dr-21702/home/190131417,BRIGHT MLS,MDFR2053488,N,Y,39.47594,-77.40484
MLS Listing,,Single Family Residential,2063 Pomona Way,Frederick,MD,21702,524900,4,2.5,TUSCARORA CREEK,1684,7593,2022,6,312,36,Pre On-Market,,,https://www.redfin.com/MD/Frederick/2063-Pomona-Way-21702/home/178979436,BRIGHT MLS,MDFR2053410,N,Y,39.468281,-77.43643
MLS Listing,,Townhouse,5362 Sweet Crabapple Way,Frederick,MD,21703,565000,3,2.5,BALLENGER RUN,2388,3220,2019,6,237,150,Pre On-Market,,,https://www.redfin.com/MD/Frederick/5362-Sweet-Crabapple-Way-21703/home/167628165,BRIGHT MLS,MDFR2053956,N,Y,39.380132,-77.441441
MLS Listing,,Single Family Residential,1600 Bolton St,Frederick,MD,21702,525000,3,2.5,Frederick,1965,8346,1990,7,267,,Pre On-Market,September-29-2024 12:00 PM,September-29-2024 03:00 PM,https://www.redfin.com/MD/Frederick/1600-Bolton-St-21702/home/15232191,BRIGHT MLS,MDFR2053934,N,Y,39.4280732,-77.4294551
MLS Listing,,Single Family Residential,106 Rose Garden Way,Frederick,MD,21702,617500,4,3.5,TASKERS CHANCE,2604,8337,1991,7,237,73,Pre On-Market,,,https://www.redfin.com/MD/Frederick/106-Rose-Garden-Way-21702/home/15222790,BRIGHT MLS,MDFR2053826,N,Y,39.4212147,-77.4394508
MLS Listing,,Single Family Residential,8009 Runnymeade Dr,Frederick,MD,21702,535000,3,2.5,CLOVER HILL,2684,20473,1989,7,199,45,Pre On-Market,,,https://www.redfin.com/MD/Frederick/8009-Runnymeade-Dr-21702/home/15224996,BRIGHT MLS,MDFR2053888,N,Y,39.4549878,-77.4230401
MLS Listing,,Single Family Residential,7022 Ridge Rd,Frederick,MD,21702,1065345,4,4.5,BRADDOCK HEIGHTS,4345,47916,,7,245,,Active,,,https://www.redfin.com/MD/Frederick/7022-Ridge-Rd-21702/home/186087983,BRIGHT MLS,MDFR2053896,N,Y,39.426552,-77.504025
MLS Listing,,Townhouse,225 E Church St,Frederick,MD,21701,625000,3,1.5,HISTORIC FREDERICK CITY,1482,2940,1886,7,422,,Active,,,https://www.redfin.com/MD/Frederick/225-E-Church-St-21701/home/15230350,BRIGHT MLS,MDFR2053632,N,Y,39.4152104,-77.4063336
MLS Listing,,Townhouse,1833 Clancy Ave,Frederick,MD,21702,460000,3,3.5,Frederick,2000,2075,2022,8,230,99,Active,,,https://www.redfin.com/MD/Frederick/1833-Clancy-Ave-21702/home/167611181,BRIGHT MLS,MDFR2053668,N,Y,39.472489,-77.440445
MLS Listing,,Townhouse,5746 Charstone Ct,Frederick,MD,21703,330000,3,1.5,FARMBROOK,1220,2635,1981,9,270,86,Active,,,https://www.redfin.com/MD/Frederick/5746-Charstone-Ct-21703/home/15206508,BRIGHT MLS,MDFR2053606,N,Y,39.3889444,-77.4368037
MLS Listing,,Townhouse,6540 Ellington Way,Frederick,MD,21703,400000,3,3.5,BALLENGER CROSSING,2206,1600,1995,10,181,80,Active,,,https://www.redfin.com/MD/Frederick/6540-Ellington-Way-21703/home/15203653,BRIGHT MLS,MDFR2053746,N,Y,39.3809059,-77.4403906
MLS Listing,,Single Family Residential,1308 W 7th St,Frederick,MD,21702,449000,3,1.5,Frederick,2544,,1957,10,176,,Active,,,https://www.redfin.com/MD/Frederick/1308-W-7th-St-21702/home/15231404,BRIGHT MLS,MDFR2053868,N,Y,39.4297651,-77.4208904
MLS Listing,,Single Family Residential,111 Ice St,Frederick,MD,21701,425000,3,1.5,Frederick,,1280,1997,10,,,Active,,,https://www.redfin.com/MD/Frederick/111-Ice-St-21701/home/15217794,BRIGHT MLS,MDFR2053630,N,Y,39.4114377,-77.4128221
MLS Listing,,Townhouse,23 Degrange St,Frederick,MD,21701,299900,2,2.0,DOWNTOWN FREDERICK,812,7231,1880,10,369,,Active,,,https://www.redfin.com/MD/Frederick/23-Degrange-St-21701/home/144278749,BRIGHT MLS,MDFR2053850,N,Y,39.412469,-77.4181637
MLS Listing,,Single Family Residential,1743 Wheyfield Dr,Frederick,MD,21701,690000,5,3.0,DEARBOUGHT,,10372,1997,10,,58,Active,,,https://www.redfin.com/MD/Frederick/1743-Wheyfield-Dr-21701/home/15218883,BRIGHT MLS,MDFR2053852,N,Y,39.4467115,-77.3718978
MLS Listing,,Townhouse,8208 Red Wing Ct,Frederick,MD,21701,349900,3,2.5,WATERSIDE,1280,1700,1987,10,273,119,Active,,,https://www.redfin.com/MD/Frederick/8208-Red-Wing-Ct-21701/home/15205055,BRIGHT MLS,MDFR2053836,N,Y,39.4540474,-77.3811827
MLS Listing,,Condo/Co-op,813 Stratford Way Unit F,Frederick,MD,21701,239000,2,1.0,FREDERICKTOWNE VILLAGE,1026,,1990,10,233,216,Pre On-Market,,,https://www.redfin.com/MD/Frederick/813-Stratford-Way-21701/unit-F/home/15221495,BRIGHT MLS,MDFR2053832,N,Y,39.4315415,-77.3910532
MLS Listing,,Single Family Residential,5638 Bartonsville Rd,Frederick,MD,21704,360000,3,1.5,Frederick,1387,27442,1930,10,260,,Active,,,https://www.redfin.com/MD/Frederick/5638-Bartonsville-Rd-21704/home/15193720,BRIGHT MLS,MDFR2053800,N,Y,39.3890064,-77.3419301
MLS Listing,,Townhouse,420 Herringbone Way,Frederick,MD,21701,565475,4,3.5,RENN QUARTER,,2112,2024,10,,97,Active,,,https://www.redfin.com/MD/Frederick/420-Herringbone-Way-21701/home/192389699,BRIGHT MLS,MDFR2053806,N,Y,39.4189742,-77.3897125
MLS Listing,,Townhouse,432 Herringbone Way,Frederick,MD,21701,574675,4,3.5,RENN QUARTER,,2112,2024,10,,97,Active,,,https://www.redfin.com/MD/Frederick/432-Herringbone-Way-21701/home/190131670,BRIGHT MLS,MDFR2053798,N,Y,39.4189742,-77.3897125
MLS Listing,,Townhouse,1013 Robin Hill Ter,Frederick,MD,21702,375000,3,2.0,TASKERS CHANCE,1518,1057,2000,10,247,25,Active,,,https://www.redfin.com/MD/Frederick/1013-Robin-Hill-Ter-21702/home/15219299,BRIGHT MLS,MDFR2051804,N,Y,39.4251578,-77.4447831
MLS Listing,,Townhouse,426 Herringbone Way,Frederick,MD,21701,538475,4,3.5,RENN QUARTER,,2112,2024,10,,97,Active,,,https://www.redfin.com/MD/Frederick/426-Herringbone-Way-21701/home/190131667,BRIGHT MLS,MDFR2053794,N,Y,39.4189742,-77.3897125
MLS Listing,,Condo/Co-op,804-K Stratford Way Unit K,Frederick,MD,21701,235000,2,1.0,FREDERICKTOWNE VILLAGE,980,,1989,10,240,216,Active,,,https://www.redfin.com/MD/Frederick/804-Stratford-Way-21701/unit-K/home/15221648,BRIGHT MLS,MDFR2053468,N,Y,39.4305311,-77.3918578
MLS Listing,,Condo/Co-op,2502 Hemingway Unit 2-2D,Frederick,MD,21702,289900,2,2.0,RIDGEVIEW III,1388,,2006,11,209,324,Active,,,https://www.redfin.com/MD/Frederick/2502-Hemingway-Dr-21702/unit-2D/home/143394799,BRIGHT MLS,MDFR2053418,N,Y,39.4471323,-77.451107
MLS Listing,,Townhouse,3016 Stoners Ford Way,Frederick,MD,21701,550000,3,3.5,MILL ISLAND AT WORMAN'S MILL,3023,2664,2009,11,182,111,Active,September-21-2024 12:00 PM,September-21-2024 02:00 PM,https://www.redfin.com/MD/Frederick/3016-Stoners-Ford-Way-21701/home/15179846,BRIGHT MLS,MDFR2051790,N,Y,39.4599037,-77.3843295
MLS Listing,,Single Family Residential,917 Walnut St,Frederick,MD,21703,400000,3,2.0,LINDEN HILLS,1512,7500,1930,11,265,,Active,,,https://www.redfin.com/MD/Frederick/917-Walnut-St-21703/home/15235515,BRIGHT MLS,MDFR2053454,N,Y,39.4148395,-77.4381726
MLS Listing,,Single Family Residential,9735 Fleetwood Way,Frederick,MD,21701,599000,4,4.5,SPRING RIDGE,2775,10868,2000,11,216,96,Pre On-Market,September-21-2024 12:00 PM,September-21-2024 02:00 PM,https://www.redfin.com/MD/Frederick/9735-Fleetwood-Way-21701/home/15188956,BRIGHT MLS,MDFR2053748,N,Y,39.4086369,-77.3315334
MLS Listing,,Townhouse,332 Marquis St,Frederick,MD,21703,493535,3,3.5,BELLE AIR TOWNHOMES,2339,2000,2024,11,211,69,Active,,,https://www.redfin.com/MD/Frederick/332-Marquis-ST-21703/home/191533623,BRIGHT MLS,MDFR2053756,N,Y,39.367401123046875,-77.46844482421875
MLS Listing,,Single Family Residential,4006 Belgrave Cir,Frederick,MD,21704,975000,4,3.5,VILLAGES OF URBANA,4470,10520,2006,11,218,134,Pre On-Market,,,https://www.redfin.com/MD/Frederick/4006-Belgrave-Cir-21704/home/15179940,BRIGHT MLS,MDFR2053672,N,Y,39.3445479,-77.3441692
MLS Listing,,Condo/Co-op,807-D Stratford Way Unit 1300D,Frederick,MD,21701,255000,2,1.0,FREDERICKTOWNE VILLAGE,990,,1987,12,258,297,Active,,,https://www.redfin.com/MD/Frederick/807-Stratford-Way-21701/unit-1300D/home/15223910,BRIGHT MLS,MDFR2053614,N,Y,39.4319372,-77.3916874
MLS Listing,,Single Family Residential,1411 Teal Ln,Frederick,MD,21703,565000,4,2.5,GOLF VIEW,2376,8843,1990,12,238,,Active,,,https://www.redfin.com/MD/Frederick/1411-Teal-Ln-21703/home/15223129,BRIGHT MLS,MDFR2053102,N,Y,39.4137174,-77.466473
MLS Listing,,Townhouse,360 Shortleaf Cir,Frederick,MD,21702,480000,3,2.5,BLOOMFIELDS,1659,3600,2024,12,289,169,Active,,,https://www.redfin.com/MD/Frederick/360-Shortleaf-Cir-21702/home/190131311,BRIGHT MLS,MDFR2053610,N,Y,39.47563,-77.407213
MLS Listing,,Townhouse,1765 Carriage Way,Frederick,MD,21702,350000,3,3.5,AMBER MEADOWS,1240,3204,1976,12,282,42,Active,,,https://www.redfin.com/MD/Frederick/1765-Carriage-Way-21702/home/15229623,BRIGHT MLS,MDFR2048328,N,Y,39.4473133,-77.4110586
MLS Listing,,Townhouse,8410 Pine Bluff Rd,Frederick,MD,21704,529000,3,3.5,TALLYN RIDGE,2168,1800,2017,12,244,114,Active,,,https://www.redfin.com/MD/New-Market/8410-Pine-Bluff-RD-21774/home/192317390,BRIGHT MLS,MDFR2053582,N,Y,39.38716,-77.373
MLS Listing,,Single Family Residential,1266 Backbone Way,Frederick,MD,21702,624990,4,2.5,SYCAMORE RIDGE,3133,7000,2024,12,199,30,Active,,,https://www.redfin.com/MD/Fort-Detrick/1266-Backbone-Way-21702/home/192358820,BRIGHT MLS,MDFR2053732,N,Y,39.4407229,-77.4594605
MLS Listing,,Townhouse,2524 Five Shillings Rd,Frederick,MD,21701,535000,3,3.5,WORMANS MILL,2368,,2000,12,226,114,Active,,,https://www.redfin.com/MD/Frederick/2524-Five-Shillings-Rd-21701/home/15217458,BRIGHT MLS,MDFR2053212,N,Y,39.4555344,-77.3890746
MLS Listing,,Townhouse,7034 Hames Ct,Frederick,MD,21703,329000,3,1.5,FARMBROOK,1280,1500,1987,12,257,86,Pre On-Market,,,https://www.redfin.com/MD/Frederick/7034-Hames-Ct-21703/home/15205051,BRIGHT MLS,MDFR2053134,N,Y,39.3906163,-77.4319724
MLS Listing,,Single Family Residential,7208 James I Harris Memorial Dr,Frederick,MD,21702,589950,4,2.5,EASTVIEW,2987,23086,1979,12,198,,Pre On-Market,,,https://www.redfin.com/MD/Frederick/7208-James-I-Harris-Memorial-Dr-21702/home/15214267,BRIGHT MLS,MDFR2053642,N,Y,39.432203,-77.474011
MLS Listing,,Townhouse,2017 Buell Dr,Frederick,MD,21702,410000,3,3.0,WILLOW BROOK,1961,2784,2005,12,209,39,Active,,,https://www.redfin.com/MD/Frederick/2017-Buell-Dr-21702/home/15181326,BRIGHT MLS,MDFR2053688,N,Y,39.4655034,-77.4076965
MLS Listing,,Townhouse,1801 Evans Rd,Frederick,MD,21702,480000,3,2.5,TUSCARORA CREEK,2490,2768,2022,12,193,99,Active,,,https://www.redfin.com/MD/Frederick/1801-Evans-Rd-21702/home/167611136,BRIGHT MLS,MDFR2049852,N,Y,39.471753,-77.441098
MLS Listing,,Townhouse,905 Holden Rd,Frederick,MD,21701,599000,4,3.5,EASTCHURCH,2665,2000,2021,12,225,96,Active,,,https://www.redfin.com/MD/Frederick/905-Holden-Rd-21701/home/167611403,BRIGHT MLS,MDFR2052364,N,Y,39.423459,-77.395976
MLS Listing,,Townhouse,6909 Alex Ct,Frederick,MD,21703,335000,3,2.5,MOUNTAIN VILLAGE,1300,1500,1989,13,258,130,Active,,,https://www.redfin.com/MD/Frederick/6909-Alex-Ct-21703/home/15204846,BRIGHT MLS,MDFR2053222,N,Y,39.3916374,-77.4280248
MLS Listing,,Single Family Residential,11584 Liberty Oak Dr,Frederick,MD,21701,499900,4,2.0,WISPERREN OAKS,1800,41643,1979,13,278,,Pre On-Market,,,https://www.redfin.com/MD/Frederick/11584-Liberty-Oak-Dr-21701/home/15197068,BRIGHT MLS,MDFR2053682,N,Y,39.4922393,-77.2663779
MLS Listing,,Single Family Residential,9010 Harris St,Frederick,MD,21704,784900,5,3.5,VILLAGES OF URBANA,3821,8400,2001,13,205,134,Active,,,https://www.redfin.com/MD/Frederick/9010-Harris-St-21704/home/15196789,BRIGHT MLS,MDFR2053338,N,Y,39.3351816,-77.3552338
MLS Listing,,Townhouse,444 Pemberton Park Ln,Frederick,MD,21703,359900,2,1.5,WEST PARK VILLAGE,1536,1280,2019,13,234,84,Active,,,https://www.redfin.com/MD/Frederick/444-Pemberton-Park-Ln-21703/home/167611525,BRIGHT MLS,MDFR2052072,N,Y,39.416218,-77.466804
MLS Listing,,Single Family Residential,5732 Korrell Ln,Frederick,MD,21702,945000,4,3.5,Frederick,3257,103237,2025,13,290,,Active,,,https://www.redfin.com/MD/Frederick/5732-Korrell-Ln-21702/home/17479122,BRIGHT MLS,MDFR2053618,N,Y,39.4769099,-77.468538
MLS Listing,,Townhouse,1127 Lawler Dr,Frederick,MD,21702,464500,3,4.5,TUSCARORA CREEK,2000,1860,2018,15,232,99,Active,,,https://www.redfin.com/MD/Frederick/1127-Lawler-Dr-21702/home/131180579,BRIGHT MLS,MDFR2053354,N,Y,39.471285,-77.436099
MLS Listing,,Multi-Family (2-4 Unit),12 W 7th St,Frederick,MD,21701,350000,,,Frederick,1223,3100,1925,16,286,,Active,,,https://www.redfin.com/MD/Frederick/12-W-7th-St-21701/home/15228223,BRIGHT MLS,MDFR2053574,N,Y,39.4227411,-77.4106683
MLS Listing,,Townhouse,5742 Charstone Ct,Frederick,MD,21703,336000,3,1.5,FARMBROOK,1280,1700,1981,16,263,86,Active,,,https://www.redfin.com/MD/Frederick/5742-Charstone-Ct-21703/home/15206200,BRIGHT MLS,MDFR2052714,N,Y,39.3887223,-77.4367558
MLS Listing,,Single Family Residential,6026 Bartonsville Rd,Frederick,MD,21704,429000,4,2.5,Frederick,1564,43560,1954,17,274,,Active,,,https://www.redfin.com/MD/Frederick/6026-Bartonsville-Rd-21704/home/15194035,BRIGHT MLS,MDFR2053552,N,Y,39.3933293,-77.3604263
MLS Listing,,Townhouse,1111 Providence Ct,Frederick,MD,21703,310000,3,1.5,FREDERICK HEIGHTS,1024,1511,1985,17,303,60,Pre On-Market,September-22-2024 01:00 PM,September-22-2024 03:00 PM,https://www.redfin.com/MD/Frederick/1111-Providence-Ct-21703/home/15226232,BRIGHT MLS,MDFR2053546,N,Y,39.414583,-77.447033
MLS Listing,,Single Family Residential,8323 Sharon Dr,Frederick,MD,21704,725000,3,3.5,SUGARLOAF ESTATES,3664,111078,1983,17,198,,Active,,,https://www.redfin.com/MD/Frederick/8323-Sharon-Dr-21704/home/15196885,BRIGHT MLS,MDFR2053474,N,Y,39.3130193,-77.37349
MLS Listing,,Townhouse,206 E Church St,Frederick,MD,21701,549900,3,1.5,DOWNTOWN FREDERICK,1920,1568,1884,17,286,,Active,,,https://www.redfin.com/MD/Frederick/206-E-Church-St-21701/home/15228351,BRIGHT MLS,MDFR2053320,N,Y,39.414907,-77.407181
MLS Listing,,Townhouse,6029 Calla Pl,Frederick,MD,21703,640000,3,3.5,HARRINGTON TERRACE,3569,3049,2022,18,179,77,Active,,,https://www.redfin.com/MD/Frederick/6029-Calla-Pl-21703/home/177855413,BRIGHT MLS,MDFR2053452,N,Y,39.397429,-77.455166
MLS Listing,,Townhouse,6613 Ballenger Run Blvd,Frederick,MD,21703,455000,3,3.0,BALLENGER RUN,1920,1600,2019,18,237,152,Active,,,https://www.redfin.com/MD/Frederick/6613-Ballenger-Run-Blvd-21703/home/144250821,BRIGHT MLS,MDFR2053140,N,Y,39.378525,-77.439567
MLS Listing,,Condo/Co-op,35 E All Saints St #317,Frederick,MD,21701,425000,2,1.0,MAXWELL PLACE,1133,,2007,18,375,550,Active,,,https://www.redfin.com/MD/Frederick/35-E-All-Saints-St-21701/unit-317/home/22047043,BRIGHT MLS,MDFR2053286,N,Y,39.412217,-77.40986
MLS Listing,,Townhouse,12 E South St,Frederick,MD,21701,499900,3,2.0,DOWNTOWN FREDERICK,1366,1372,1900,18,366,,Active,,,https://www.redfin.com/MD/Frederick/12-E-South-St-21701/home/15231508,BRIGHT MLS,MDFR2053506,N,Y,39.410452,-77.4108906
MLS Listing,,Single Family Residential,6108 Long Branch Rd,Frederick,MD,21701,650000,5,2.5,Frederick,2293,36154,1965,18,283,,Active,,,https://www.redfin.com/MD/Frederick/6108-Long-Branch-Rd-21701/home/15194108,BRIGHT MLS,MDFR2053084,N,Y,39.4014847,-77.3615038
MLS Listing,,Townhouse,6593 Corbel Way,Frederi
