SALE TYPE,SOLD DATE,PROPERTY TYPE,ADDRESS,CITY,STATE OR PROVINCE,ZIP OR POSTAL CODE,PRICE,BEDS,BATHS,LOCATION,SQUARE FEET,LOT SIZE,YEAR BUILT,DAYS ON MARKET,$/SQUARE FEET,HOA/MONTH,STATUS,NEXT OPEN HOUSE START TIME,NEXT OPEN HOUSE END TIME,URL (SEE https://www.redfin.com/buy-a-home/comparative-market-analysis FOR INFO ON PRICING),SOURCE,MLS#,FAVORITE,INTERESTED,LATITUDE,LONGITUDE
MLS Listing,,Single Family Residential,13410 Terrace Wood Ct,Houston,TX,77070,445000,4,3.5,Highland Timbers,2993,9315,2002,1,149,90,Active,,,https://www.redfin.com/TX/Houston/13410-Terrace-Wood-Ct-77070/home/30714596,HARMLS,74029705,N,Y,29.9715198,-95.5488698
MLS Listing,,Single Family Residential,2659 Skyview Trace Ct,Houston,TX,77047,255000,3,2.5,Skyview Park Sec 03,1572,4186,2006,1,162,25,Active,,,https://www.redfin.com/TX/Houston/2659-Skyview-Trace-Ct-77047/home/29429296,HARMLS,74146012,N,Y,29.6185369,-95.3819886
MLS Listing,,Townhouse,52 Legend Ln,Houston,TX,77024,665000,3,3.0,Legend Lane T/h R/p,3005,2400,1973,1,221,167,Active,September-21-2024 12:00 PM,September-21-2024 02:00 PM,https://www.redfin.com/TX/Houston/52-Legend-Ln-77024/home/30224114,HARMLS,31247262,N,Y,29.7614547,-95.5541347
MLS Listing,,Single Family Residential,8815 Sharpview Dr,Houston,TX,77036,235000,4,2.0,Sharpstown Country Club Terrac,1951,8330,1968,2,120,21,Active,,,https://www.redfin.com/TX/Houston/8815-Sharpview-Dr-77036/home/30163589,HARMLS,41353621,N,Y,29.6979095,-95.5397868
MLS Listing,,Single Family Residential,9226 Kerrwood Ln,Houston,TX,77080,744900,4,2.5,Spring Branch Estates Sec 02,2389,23900,2000,2,312,2,Pre On-Market,,,https://www.redfin.com/TX/Houston/9226-Kerrwood-Ln-77080/home/29964751,HARMLS,8906440,N,Y,29.8124165,-95.5189606
MLS Listing,,Single Family Residential,1630 Live Oak St,Houston,TX,77003,430000,3,3.0,Signe Oaks,1972,1744,2007,3,218,83,Pre On-Market,,,https://www.redfin.com/TX/Houston/1630-Live-Oak-St-77003/home/29429455,HARMLS,84404476,N,Y,29.7438089,-95.3555556
MLS Listing,,Single Family Residential,13419 Popes Creek Ln,Houston,TX,77044,450000,4,2.5,Summerwood,2824,9044,2005,5,159,77,Pre On-Market,,,https://www.redfin.com/TX/Houston/13419-Popes-Creek-Ln-77044/home/29327676,HARMLS,3837776,N,Y,29.9213921,-95.1703141
MLS Listing,,Single Family Residential,3519 Westridge St,Houston,TX,77025,440000,3,2.0,Woodside Sec 02,2268,7504,1955,5,194,,Active,,,https://www.redfin.com/TX/Houston/3519-Westridge-St-77025/home/30069563,HARMLS,11520971,N,Y,29.6818421,-95.4323861
MLS Listing,,Single Family Residential,10026 Fairplum Dr,Houston,TX,77099,221000,3,2.0,Keegans Glen Sec 06 R/p,1216,5580,1983,5,182,26,Active,,,https://www.redfin.com/TX/Houston/10026-Fairplum-Dr-77099/home/30510379,HARMLS,77719320,N,Y,29.6687407,-95.5884563
MLS Listing,,Single Family Residential,2110 Willowlake Dr,Houston,TX,77077,430000,4,2.5,Shadowbriar,2755,8050,1981,5,156,52,Active,,,https://www.redfin.com/TX/Houston/2110-Willowlake-Dr-77077/home/30396094,HARMLS,88339652,N,Y,29.7424453,-95.5946755
MLS Listing,,Single Family Residential,5607 Evening Shore Dr,Houston,TX,77041,625000,5,3.5,Lakes On Eldridge,3942,10132,1995,6,159,155,Active,,,https://www.redfin.com/TX/Houston/5607-Evening-Shore-Dr-77041/home/30659674,HARMLS,27233327,N,Y,29.8494136,-95.5990056
MLS Listing,,Single Family Residential,3935 Alberta St,Houston,TX,77021,245000,4,2.0,Scott Terrace,1673,6150,1951,6,146,,Active,,,https://www.redfin.com/TX/Houston/3935-Alberta-St-77021/home/30019484,HARMLS,31165255,N,Y,29.6942115,-95.3596398
MLS Listing,,Single Family Residential,7255 Shady Arbor Ln,Houston,TX,77040,219000,3,2.0,Woodland Trails Sec 04,1571,7320,1972,6,139,10,Active,September-21-2024 12:00 PM,September-21-2024 02:00 PM,https://www.redfin.com/TX/Houston/7255-Shady-Arbor-Ln-77040/home/30266872,HARMLS,56905337,N,Y,29.8719174,-95.4998032
MLS Listing,,Single Family Residential,3918 Brook Shadow Dr,Kingwood,TX,77345,475000,4,2.0,Greentree Village,2570,8540,1987,6,185,40,Active,,,https://www.redfin.com/TX/Kingwood/3918-Brook-Shadow-Dr-77345/home/30551475,HARMLS,98820992,N,Y,30.0632996,-95.1783
MLS Listing,,Single Family Residential,3319 Palm St,Houston,TX,77004,295000,3,2.0,Southwood,1650,6900,1945,7,179,,Active,,,https://www.redfin.com/TX/Houston/3319-Palm-St-77004/home/29897478,HARMLS,47922340,N,Y,29.7161798,-95.364456
MLS Listing,,Single Family Residential,1603 Knox St Unit B,Houston,TX,77007,775000,3,3.5,Woodcrest,3162,2500,2014,7,245,,Pre On-Market,,,https://www.redfin.com/TX/Houston/1603-Knox-St-77007/unit-B/home/108960190,HARMLS,76274765,N,Y,29.7748242,-95.4213118
MLS Listing,,Single Family Residential,2611 Riverside Dr Unit E,Houston,TX,77004,424990,3,3.5,Hutchinson,2071,2214,2017,9,205,100,Active,,,https://www.redfin.com/TX/Houston/2611-Riverside-Dr-77004/unit-E/home/171401423,HARMLS,41547714,N,Y,29.715328,-95.3743645
MLS Listing,,Single Family Residential,13526 Hammond Hills Ln,Houston,TX,77044,525000,4,3.5,Summerwood,3858,10029,2010,9,136,83,Active,,,https://www.redfin.com/TX/Houston/13526-Hammond-Hills-Ln-77044/home/34229592,HARMLS,71925135,N,Y,29.9182541,-95.1681752
MLS Listing,,Single Family Residential,14623 Monterey Cypress Dr,Houston,TX,77068,355000,4,2.5,Cypress Creek Crossing,2596,5625,2020,12,137,54,Active,,,https://www.redfin.com/TX/Houston/14623-Monterey-Cypress-Dr-77068/home/176862556,HARMLS,62170360,N,Y,29.9989455,-95.5013585
MLS Listing,,Single Family Residential,18302 Mossy Creek Ln,Richmond,TX,77407,369900,4,3.5,Mission Sierra Sec 5,2561,5400,2013,12,144,64,Active,,,https://www.redfin.com/TX/Richmond/18302-Mossy-Creek-Ln-77407/home/33244978,HARMLS,25582741,N,Y,29.6835932,-95.6989324
MLS Listing,,Single Family Residential,7615 Brae Acres Ct,Houston,TX,77074,440000,3,2.5,Mockingbird,2686,3500,2000,13,164,125,Active,,,https://www.redfin.com/TX/Houston/7615-Brae-Acres-Ct-77074/home/30549971,HARMLS,33125992,N,Y,29.6826039,-95.5211126
MLS Listing,,Single Family Residential,14214 Parable Ln,Cypress,TX,77429,484999,3,3.5,Northlake Forest,3306,7969,2006,14,147,83,Active,,,https://www.redfin.com/TX/Cypress/14214-Parable-Ln-77429/home/29216996,HARMLS,94313036,N,Y,29.9858705,-95.6588181
MLS Listing,,Single Family Residential,9519 Bertwood St,Houston,TX,77016,159000,3,1.5,Tidwell Timbers,1015,7315,1964,15,157,,Active,,,https://www.redfin.com/TX/Houston/9519-Bertwood-St-77016/home/30165073,HARMLS,70784330,N,Y,29.8492426,-95.3101484
MLS Listing,,Single Family Residential,13014 Caldbeck Creek Ln,Houston,TX,77044,260000,3,2.0,Hidden Meadows,1766,6178,2017,15,147,21,Active,,,https://www.redfin.com/TX/Houston/13014-Caldbeck-Creek-Ln-77044/home/167834173,HARMLS,55744864,N,Y,29.8634833,-95.1995538
MLS Listing,,Condo/Co-op,2000 Bagby St #11439,Houston,TX,77002,292000,1,1.5,Rise Condo,857,,2004,20,341,430,Active,,,https://www.redfin.com/TX/Houston/2000-Bagby-St-77002/unit-11439/home/29515805,HARMLS,41312537,N,Y,29.7526195,-95.3765748
MLS Listing,,Condo/Co-op,2574 Marilee Ln #37,Houston,TX,77057,125000,2,2.0,Wharton House Condo,989,57636,1960,20,126,565,Active,,,https://www.redfin.com/TX/Houston/2574-Marilee-Ln-77057/unit-37/home/30380167,HARMLS,15028486,N,Y,29.7401572,-95.4990024
MLS Listing,,Single Family Residential,15818 Munson Ln,Houston,TX,77053,245000,3,2.0,Ridgegate Sub Sec 1,1596,6599,1978,23,154,15,Active,,,https://www.redfin.com/TX/Houston/15818-Munson-Ln-77053/home/33014708,HARMLS,75143248,N,Y,29.5968528,-95.4744889
MLS Listing,,Single Family Residential,13907 Skylark Bend Ln,Cypress,TX,77429,675000,4,3.5,Enclave/longwood,3688,7800,2020,26,183,92,Active,,,https://www.redfin.com/TX/Cypress/13907-Skylark-Bend-Ln-77429/home/167829275,HARMLS,67412161,N,Y,29.9795009,-95.6489343
MLS Listing,,Single Family Residential,1022 Patterson St,Houston,TX,77007,499900,3,3.5,Patterson Street Lndg,2163,1717,2017,26,231,108,Active,,,https://www.redfin.com/TX/Houston/1022-Patterson-St-77007/home/112825892,HARMLS,90776976,N,Y,29.7709434,-95.4056336
MLS Listing,,Single Family Residential,11223 Rocky Mill Dr,Cypress,TX,77429,300000,4,2.5,Mill Ridge North,2316,7800,1984,27,130,45,Active,,,https://www.redfin.com/TX/Cypress/11223-Rocky-Mill-Dr-77429/home/30473314,HARMLS,64979608,N,Y,29.9527782,-95.5899615
MLS Listing,,Single Family Residential,406 Avondale St,Houston,TX,77006,1575000,5,4.0,Montrose Add Amd,3632,6500,1922,27,434,,Active,,,https://www.redfin.com/TX/Houston/406-Avondale-St-77006/home/29723072,HARMLS,58542247,N,Y,29.7451547,-95.3864617
MLS Listing,,Single Family Residential,3818 Brandt St,Houston,TX,77006,899000,4,3.0,Bute,2857,5625,1930,27,315,,Active,,,https://www.redfin.com/TX/Houston/3818-Brandt-St-77006/home/29655859,HARMLS,34662109,N,Y,29.7382136,-95.3837439
MLS Listing,,Multi-Family (2-4 Unit),8705 Westcott Rd Unit A/B,Houston,TX,77016,415000,9,2.0,Gods Plan ON Westcott,2550,7521,2022,28,163,,Active,,,https://www.redfin.com/TX/Houston/8705-Westcott-Rd-77016/unit-A/home/181153612,HARMLS,57317144,N,Y,29.8390511,-95.30288
MLS Listing,,Single Family Residential,1105 W 17th St,Houston,TX,77008,399900,3,2.5,Trinity Xing,2246,2142,2007,33,178,120,Active,,,https://www.redfin.com/TX/Houston/1105-W-17th-St-77008/home/29337387,HARMLS,88668434,N,Y,29.8009818,-95.4184089
MLS Listing,,Townhouse,8710 Beverlyhill St #204,Houston,TX,77063,240000,2,2.0,Contemporary West Twnhse Condo,1492,98984,2014,33,161,345,Active,,,https://www.redfin.com/TX/Houston/8710-Beverlyhill-St-77063/unit-204/home/29517660,HARMLS,45297451,N,Y,29.7300603,-95.5173211
MLS Listing,,Single Family Residential,2612 W Tidwell Rd,Houston,TX,77091,415000,3,2.5,Estates/hlnd Heights,2178,4550,2019,33,191,150,Active,,,https://www.redfin.com/TX/Houston/2612-W-Tidwell-Rd-77091/home/170260688,HARMLS,54153455,N,Y,29.847187,-95.4483177
MLS Listing,,Single Family Residential,6729 Tournament Dr,Houston,TX,77069,325000,3,2.0,Champions Creek,2159,3500,1983,33,151,125,Active,,,https://www.redfin.com/TX/Houston/6729-Tournament-Dr-77069/home/30553437,HARMLS,74026662,N,Y,29.9876231,-95.5391182
MLS Listing,,Townhouse,1709 W 15th St,Houston,TX,77008,505000,3,2.5,Dian Court,2544,2325,2008,34,199,,Active,,,https://www.redfin.com/TX/Houston/1709-W-15th-St-77008/home/29625833,HARMLS,66869322,N,Y,29.7979606,-95.4137083
MLS Listing,,Single Family Residential,15802 Mission Estates Ct,Houston,TX,77083,415000,5,3.5,Mission Glen Reserves,3809,9148,1995,36,109,33,Active,,,https://www.redfin.com/TX/Houston/15802-Mission-Estates-Ct-77083/home/32954000,HARMLS,56867838,N,Y,29.6874597,-95.6636368
MLS Listing,,Multi-Family (2-4 Unit),5518 Deep Forest Dr,Houston,TX,77092,385000,6,4.0,Forest West Sec 01,3215,8510,1968,40,120,17,Active,,,https://www.redfin.com/TX/Houston/5518-Deep-Forest-Dr-77092/home/30188860,HARMLS,39252746,N,Y,29.845327,-95.4745
MLS Listing,,Townhouse,1353 Studer St,Houston,TX,77007,500000,3,2.5,Memorial Park Village Two,2192,1778,2007,41,228,120,Active,,,https://www.redfin.com/TX/Houston/1353-Studer-St-77007/home/29429448,HARMLS,61219541,N,Y,29.7739225,-95.4160294
MLS Listing,,Single Family Residential,4114 Lemac Dr,Houston,TX,77025,289000,3,2.0,Westwood,1579,7164,1954,42,183,,Active,,,https://www.redfin.com/TX/Houston/4114-Lemac-Dr-77025/home/30040115,HARMLS,26780727,N,Y,29.6787411,-95.4436757
MLS Listing,,Single Family Residential,2930 Ellington St,Houston,TX,77088,205000,3,2.0,Montgomery Terrace Tr A U/r,1264,7140,1980,44,162,,Active,,,https://www.redfin.com/TX/Houston/2930-Ellington-St-77088/home/30209626,HARMLS,76196301,N,Y,29.8814158,-95.4542542
MLS Listing,,Single Family Residential,15106 Hard Rock Dr,Houston,TX,77084,380000,4,2.5,Hearthstone Sec 08,2502,5250,1998,45,152,40,Active,,,https://www.redfin.com/TX/Houston/15106-Hard-Rock-Dr-77084/home/30653855,HARMLS,88178197,N,Y,29.8767688,-95.6349264
MLS Listing,,Single Family Residential,2127 Taft St,Houston,TX,77006,750000,3,3.5,Views/taft,2968,1640,2015,50,253,165,Active,,,https://www.redfin.com/TX/Houston/2127-Taft-St-77006/home/110192041,HARMLS,74164371,N,Y,29.7500194,-95.3856324
MLS Listing,,Single Family Residential,3211 Bend Willow Ln,Katy,TX,77450,424900,3,2.5,Cinco Ranch Meadow Place,2665,8220,2000,55,159,104,Active,,,https://www.redfin.com/TX/Katy/3211-Bend-Willow-Ln-77450/home/33114951,HARMLS,38420633,N,Y,29.7374606,-95.7518202
MLS Listing,,Single Family Residential,2415 Village Dale Ave,Houston,TX,77059,351000,4,2.5,Northfork,2196,9163,1991,61,160,45,Active,,,https://www.redfin.com/TX/Houston/2415-Village-Dale-Ave-77059/home/30625204,HARMLS,70899373,N,Y,29.5991411,-95.1442116
MLS Listing,,Single Family Residential,611 Heidrich St,Houston,TX,77018,399900,3,2.0,Kentwood Manor,1732,10112,1958,62,231,,Active,,,https://www.redfin.com/TX/Houston/611-Heidrich-St-77018/home/30062310,HARMLS,69858069,N,Y,29.8307244,-95.4086701
MLS Listing,,Single Family Residential,12822 Winding Manor Dr,Houston,TX,77044,375000,4,3.5,Summerwood,2975,8400,2004,62,126,79,Active,,,https://www.redfin.com/TX/Houston/12822-Winding-Manor-Dr-77044/home/29232770,HARMLS,35023761,N,Y,29.9272496,-95.1932971
MLS Listing,,Townhouse,727 Bunker Hill Rd #12,Houston,TX,77024,485000,4,3.0,Bunker Hill Place T/h,2632,1277,1979,75,184,485,Active,,,https://www.redfin.com/TX/Houston/727-Bunker-Hill-Rd-77024/unit-12/home/30332716,HARMLS,56847323,N,Y,29.7749577,-95.5328986
MLS Listing,,Single Family Residential,5509 Cornish St,Houston,TX,77007,425000,3,2.5,Cornish Place Sec 04,2447,2675,2000,75,174,,Active,,,https://www.redfin.com/TX/Houston/5509-Cornish-St-77007/home/30717010,HARMLS,18403846,N,Y,29.7781248,-95.4205367
MLS Listing,,Single Family Residential,2026 Lake Hills Dr,Houston,TX,77339,395000,5,2.5,Woodland Hills Village,2864,9112,1975,75,138,23,Active,,,https://www.redfin.com/TX/Kingwood/2026-Lake-Hills-Dr-77339/home/30309784,HARMLS,38738132,N,Y,30.0591855,-95.2198369
MLS Listing,,Single Family Residential,5450 Loch Lomond Dr,Houston,TX,77096,315000,3,2.0,Maplewood,1662,8030,1960,75,190,5,Active,,,https://www.redfin.com/TX/Houston/5450-Loch-Lomond-Dr-77096/home/30155985,HARMLS,91246187,N,Y,29.6806874,-95.4824303
MLS Listing,,Single Family Residential,1009 Ruthven St Unit B,Houston,TX,77019,590000,3,3.5,Skyline/midtown,2129,1832,2015,76,277,50,Active,,,https://www.redfin.com/TX/Houston/1009-Ruthven-St-77019/unit-B/home/112818259,HARMLS,81117023,N,Y,29.7549828,-95.3781338
MLS Listing,,Single Family Residential,1041 Tulane St,Houston,TX,77008,1199000,4,3.5,Tulane Courtyards,3348,5498,2015,77,358,,Active,,,https://www.redfin.com/TX/Houston/1041-Tulane-St-77008/home/66050358,HARMLS,70210520,N,Y,29.7904702,-95.4024819
MLS Listing,,Single Family Residential,4610 Brinkman St,Houston,TX,77018,414900,3,2.0,Lowell Heights,1773,6992,1940,82,234,,Active,,,https://www.redfin.com/TX/Houston/4610-Brinkman-St-77018/home/29956709,HARMLS,90837489,N,Y,29.8320301,-95.4160556
MLS Listing,,Condo/Co-op,5711 Sugar Hill Dr #69,Houston,TX,77057,175000,2,1.0,Sugar Hill Condo,968,185534,1977,82,181,493,Active,,,https://www.redfin.com/TX/Houston/5711-Sugar-Hill-Dr-77057/unit-69/home/30399624,HARMLS,38311829,N,Y,29.7561015,-95.4788051
MLS Listing,,Condo/Co-op,1901 Post Oak Blvd #4208,Houston,TX,77056,289000,1,1.0,Lofts/post Oak,1246,225401,2003,84,232,760,Active,,,https://www.redfin.com/TX/Houston/1901-Post-Oak-Blvd-77056/unit-4208/home/29403768,HARMLS,91735109,N,Y,29.7468536,-95.4591882
MLS Listing,,Vacant Land,1111 Hardy St,Houston,TX,77020,550000,,,Noble,,5000,,84,,,Active,,,https://www.redfin.com/TX/Houston/1111-Hardy-St-77020/home/167115760,HARMLS,52987659,N,Y,29.7710074,-95.351541
MLS Listing,,Single Family Residential,19822 Skycountry Ln,Houston,TX,77094,995950,4,4.5,Green Trails,5939,11160,1985,92,168,82,Active,,,https://www.redfin.com/TX/Houston/19822-Skycountry-Ln-77094/home/30524355,HARMLS,70647589,N,Y,29.7654924,-95.7155451
MLS Listing,,Single Family Residential,6323 Tulsa Rd,Houston,TX,77092,259000,3,1.0,Bolin Place,1124,7200,1952,97,230,,Active,,,https://www.redfin.com/TX/Houston/6323-Tulsa-Rd-77092/home/30126584,HARMLS,41094086,N,Y,29.8207981,-95.4826761
MLS Listing,,Townhouse,8518 Montridge Dr,Houston,TX,77055,400000,3,1.0,Ridgecrest Sec,1212,8659,1952,99,330,,Active,,,https://www.redfin.com/TX/Houston/8518-Montridge-Dr-77055/home/30031795,HARMLS,80292310,N,Y,29.8083949,-95.4977939
MLS Listing,,Townhouse,8514 Montridge Dr,Houston,TX,77055,400000,3,1.0,Ridgecrest,1272,8588,1952,99,314,,Active,,,https://www.redfin.com/TX/Houston/8514-Montridge-Dr-77055/home/30031798,HARMLS,85362599,N,Y,29.8084288,-95.4976255
MLS Listing,,Single Family Residential,8546 Western Dr,Houston,TX,77055,400000,3,1.0,Ridgecrest,1350,8400,1960,100,296,,Active,,,https://www.redfin.com/TX/Houston/8546-Western-Dr-77055/home/30031756,HARMLS,44910522,N,Y,29.805003,-95.4992791
MLS Listing,,Single Family Residential,6717 Barney Rd,Houston,TX,77092,239000,3,2.0,Langwood Sec 01,1264,6050,1954,104,189,,Active,,,https://www.redfin.com/TX/Houston/6717-Barney-Rd-77092/home/30062573,HARMLS,3833072,N,Y,29.8317947,-95.4920643
MLS Listing,,Single Family Residential,4341 Citadel Ln,Houston,TX,77092,239000,3,1.0,Langwood Sec 01,1070,7490,1955,104,223,,Active,,,https://www.redfin.com/TX/Houston/4341-Citadel-Ln-77092/home/30062714,HARMLS,46044375,N,Y,29.8343514,-95.4906235
MLS Listing,,Single Family Residential,4337 Citadel Ln,Houston,TX,77092,239000,3,2.0,Langwood Sec 01,1204,8613,1955,104,199,,Active,,,https://www.redfin.com/TX/Houston/4337-Citadel-Ln-77092/home/30062709,HARMLS,67442627,N,Y,29.8344397,-95.4907614
MLS Listing,,Single Family Residential,12838 Colony Heath Ln,Houston,TX,77085,285000,4,2.5,Greenpark,1800,5175,2006,107,158,15,Active,,,https://www.redfin.com/TX/Houston/12838-Colony-Heath-Ln-77085/home/29386699,HARMLS,34648947,N,Y,29.6364656,-95.4735828
MLS Listing,,Single Family Residential,6006 Sanford Rd,Houston,TX,77096,325000,3,2.0,Westbury,1644,7318,1965,112,198,,Active,,,https://www.redfin.com/TX/Houston/6006-Sanford-Rd-77096/home/30125222,HARMLS,43617100,N,Y,29.659952,-95.4953623
MLS Listing,,Single Family Residential,1906 Vernlake Cir,Houston,TX,77084,299999,4,2.5,Westlake Sec 01,1768,17856,1977,117,170,50,Active,,,https://www.redfin.com/TX/Houston/1906-Vernlake-Cir-77084/home/30293789,HARMLS,27358474,N,Y,29.7949079,-95.713386
MLS Listing,,Townhouse,2889 Panagard Dr #42,Houston,TX,77082,185000,2,1.5,Westhollow Villa T/h,1254,1424,1981,124,148,355,Active,,,https://www.redfin.com/TX/Houston/2889-Panagard-Dr-77082/unit-42/home/30318128,HARMLS,53980386,N,Y,29.7301011,-95.6321551
MLS Listing,,Single Family Residential,1038 W 43rd St,Houston,TX,77018,525000,3,1.0,Garden Oaks Sec 05 Rev,1224,8520,1947,127,429,,Active,,,https://www.redfin.com/TX/Houston/1038-W-43rd-St-77018/home/29945709,HARMLS,58593692,N,Y,29.829048,-95.425587
MLS Listing,,Condo/Co-op,8055 Cambridge St #54,Houston,TX,77054,150000,2,2.0,Cambridge Court Condo,975,169569,1984,194,154,564,Active,,,https://www.redfin.com/TX/Houston/8055-Cambridge-St-77054/unit-54/home/30561080,HARMLS,758975,N,Y,29.6896847,-95.3930123
MLS Listing,,Single Family Residential,19 Southside Cir,Houston,TX,77025,1545000,4,4.5,Southside Circle,4550,3677,2014,215,340,314,Active,,,https://www.redfin.com/TX/Houston/19-Southside-Cir-77025/home/66052223,HARMLS,5412771,N,Y,29.7055154,-95.4360372
MLS Listing,,Condo/Co-op,2224 S Piney Point Rd #112,Houston,TX,77063,250000,2,2.0,Deerwood,1365,344193,1967,229,183,756,Active,,,https://www.redfin.com/TX/Houston/2224-S-Piney-Point-Rd-77063/unit-112/home/30346612,HARMLS,57708125,N,Y,29.7428903,-95.5239033
MLS Listing,,Vacant Land,5201 Martin Luther King Blvd,Houston,TX,77021,750000,,,South,,23750,,278,,,Active,,,https://www.redfin.com/TX/Houston/5201-Martin-Luther-King-Blvd-77021/home/188875082,HARMLS,55438241,N,Y,29.703432,-95.334046
MLS Listing,,Multi-Family (2-4 Unit),8003 Knox St,Houston,TX,77088,410000,0,2.0,Lincoln City,1800,7510,2020,280,228,,Active,,,https://www.redfin.com/TX/Houston/8003-Knox-St-77088/home/29981892,HARMLS,81115607,N,Y,29.8734887,-95.4249069
MLS Listing,,Single Family Residential,10410 Stover St,Houston,TX,77075,290000,4,3.0,Palm Spgs 1,2254,8680,1970,355,129,,Active,,,https://www.redfin.com/TX/Houston/10410-Stover-St-77075/home/30170289,HARMLS,55881597,N,Y,29.6161589,-95.2449205
MLS Listing,,Vacant Land,4316 Sunflower St,Houston,TX,77051,240000,,,Brookhaven R/p,,13930,,1,,,Active,,,https://www.redfin.com/TX/Houston/4316-Sunflower-St-77051/home/29926366,HARMLS,22144595,N,Y,29.6719622,-95.3621854
MLS Listing,,Single Family Residential,15502 Bollardpoint Ln,Houston,TX,77053,366990,4,2.5,Anderson Lake Sec 1,2528,4647,2022,1,145,54,Active,,,https://www.redfin.com/TX/Houston/15502-Bollardpoint-Ln-77053/home/182923235,HARMLS,62702348,N,Y,29.6003737,-95.4455748
MLS Listing,,Single Family Residential,19537 Dunbar Ave,Houston,TX,77338,330000,4,2.5,Humble Heights,2524,8500,2019,1,131,,Active,,,https://www.redfin.com/TX/Humble/19537-Dunbar-Ave-77338/home/30000463,HARMLS,54379446,N,Y,30.0028364,-95.2954247
MLS Listing,,Single Family Residential,5626 Pine St,Houston,TX,77081,585000,3,2.5,Flack Estates Sec 03,2200,11700,1964,1,266,,Active,,,https://www.redfin.com/TX/Houston/5626-Pine-St-77081/home/30121439,HARMLS,2764071,N,Y,29.6948335,-95.4906058
MLS Listing,,Townhouse,18138 Bal Harbour Dr E,Houston,TX,77058,440000,3,3.0,Bal Harbour Cove,2834,2910,1975,1,155,463,Active,,,https://www.redfin.com/TX/Houston/18138-Bal-Harbour-Dr-77058/home/30323733,HARMLS,73432482,N,Y,29.552584,-95.0768161
MLS Listing,,Townhouse,425 Meadow St,Houston,TX,77020,400000,2,2.5,Meadow Street Twnhms 01,2210,1622,2015,1,181,80,Active,,,https://www.redfin.com/TX/Houston/425-Meadow-St-77020/home/29603888,HARMLS,21701172,N,Y,29.7661573,-95.3400266
MLS Listing,,Single Family Residential,14246 Empanada Dr,Houston,TX,77083,329000,4,2.5,Terra Del Sol Sec 5,2159,4025,2016,1,152,44,Active,,,https://www.redfin.com/TX/Houston/14246-Empanada-Dr-77083/home/103759114,HARMLS,59318609,N,Y,29.6964108,-95.6359167
MLS Listing,,Multi-Family (2-4 Unit),4356 Phlox St,Houston,TX,77051,298000,5,3.0,Flower City,,5500,1956,1,,,Active,,,https://www.redfin.com/TX/Houston/4356-Phlox-St-77051/home/29988726,HARMLS,84875918,N,Y,29.6588589,-95.3620319
MLS Listing,,Single Family Residential,10126 Corvallis Dr,Houston,TX,77095,329000,3,2.0,White Oak Falls Sec 03,1879,5500,2009,1,175,33,Pre On-Market,,,https://www.redfin.com/TX/Houston/10126-Corvallis-Dr-77095/home/34182728,HARMLS,94379568,N,Y,29.9249928,-95.6373953
MLS Listing,,Single Family Residential,1806 Quiet Hollow Dr,Fresno,TX,77545,239900,4,2.0,Teal Run Sec 4,2018,7313,1998,1,119,38,Active,,,https://www.redfin.com/TX/Fresno/1806-Quiet-Hollow-Dr-77545/home/33068812,HARMLS,79881602,N,Y,29.5274374,-95.4808035
MLS Listing,,Townhouse,2838 Briarhurst Park,Houston,TX,77057,400000,3,3.5,Briarhurst Park,2743,1638,2001,1,146,305,Active,,,https://www.redfin.com/TX/Houston/2838-Briarhurst-Park-77057/home/30696071,HARMLS,97403141,N,Y,29.7352425,-95.4925708
MLS Listing,,Single Family Residential,20007 Rio Villa Dr,Houston,TX,77049,130000,1,1.5,Rio Villa Sec 04,1493,21825,1968,1,87,,Pre On-Market,,,https://www.redfin.com/TX/Houston/20007-Rio-Villa-Dr-77049/home/30230587,HARMLS,12256875,N,Y,29.8303423,-95.0712351
MLS Listing,,Single Family Residential,3410 Cobblestone Creek Way,Houston,TX,77084,374900,4,3.5,Barkers Ridge,2884,6825,1992,1,130,45,Active,,,https://www.redfin.com/TX/Houston/3410-Cobblestone-Creek-Way-77084/home/30580274,HARMLS,13317149,N,Y,29.8177167,-95.6918444
MLS Listing,,Single Family Residential,1818 Wycliffe Dr,Houston,TX,77043,399900,3,1.5,Wrenwood,1848,13600,1956,1,216,,Active,,,https://www.redfin.com/TX/Houston/1818-Wycliffe-Dr-77043/home/30075224,HARMLS,29035053,N,Y,29.8003964,-95.5743484
MLS Listing,,Single Family Residential,170 Old Bridge Lk,Houston,TX,77069,239500,3,2.5,Old Bridge Lake,2816,4704,1977,1,85,150,Active,,,https://www.redfin.com/TX/Houston/170-Old-Bridge-Lk-77069/home/30321687,HARMLS,33920177,N,Y,29.9881823,-95.5098105
MLS Listing,,Single Family Residential,1230 Krist Dr,Spring Valley Village,TX,77055,2295000,3,4.5,Spring Valley Village,,12175,2016,1,,,Pre On-Market,,,https://www.redfin.com/TX/Houston/1230-Krist-Dr-77055/home/30069214,HARMLS,28993549,N,Y,29.7911659,-95.4926471
MLS Listing,,Townhouse,13748 Hollowgreen Dr #601,Houston,TX,77082,179000,2,1.5,Westhollow Reserve G Correctio,1254,1270,1981,1,143,575,Active,,,https://www.redfin.com/TX/Houston/13748-Hollowgreen-Dr-77082/unit-601/home/30318217,HARMLS,58335507,N,Y,29.7319575,-95.6326797
MLS Listing,,Single Family Residential,250 W W Echo Glen Dr,Houston,TX,77076,140000,3,1.0,Glen Oaks,966,6812,1954,1,145,,Active,,,https://www.redfin.com/TX/Houston/250-W-Echo-Glen-Dr-77076/home/30059883,HARMLS,4320511,N,Y,29.8635792,-95.4018836
MLS Listing,,Single Family Residential,13823 Aspen Knoll Ct,Houston,TX,77059,385000,4,2.5,Bay Pointe Sec 06,2598,6347,1995,1,148,57,Active,,,https://www.redfin.com/TX/Houston/13823-Aspen-Knoll-Ct-77059/home/30659437,HARMLS,79710023,N,Y,29.5951655,-95.1441638
MLS Listing,,Single Family Residential,2823 Shadowdale Dr,Houston,TX,77043,685000,4,3.0,Spring Shadows Sec 12,2502,7700,1971,1,274,30,Active,,,https://www.redfin.com/TX/Houston/2823-Shadowdale-Dr-77043/home/30256122,HARMLS,84122146,N,Y,29.8240203,-95.5540578
MLS Listing,,Condo/Co-op,3333 Allen Pkwy #2607,Houston,TX,77019,355000,1,1.0,Royalton/river Oaks,1068,,2003,1,332,969,Active,,,https://www.redfin.com/TX/Houston/3333-Allen-Pkwy-77019/unit-2607/home/29388170,HARMLS,11645438,N,Y,29.7602983,-95.4007042
MLS Listing,,Single Family Residential,1003 Kelley St,Houston,TX,77009,549990,3,2.0,Lindale Park Sec 01,2146,5300,2002,1,256,,Active,,,https://www.redfin.com/TX/Houston/1003-Kelley-St-77009/home/29947858,HARMLS,17033702,N,Y,29.8134671,-95.3584203
MLS Listing,,Single Family Residential,12718 Blanton Ln,Sugar Land,TX,77478,439990,6,4.5,Ashford Lakes Sec 7,3531,6960,2003,1,125,46,Active,,,https://www.redfin.com/TX/Sugar-Land/12718-Blanton-Ln-77478/home/32529765,HARMLS,8998165,N,Y,29.6609204,-95.6078894
MLS Listing,,Single Family Residential,4919 Prairie Ridge Rd,Houston,TX,77053,203000,3,2.0,Ridgemont Sec 3,1357,6050,1976,1,150,21,Active,,,https://www.redfin.com/TX/Houston/4919-Prairie-Ridge-Rd-77053/home/33018510,HARMLS,6545061,N,Y,29.5860682,-95.4611307
MLS Listing,,Single Family Residential,8019 Durklyn Ln,Houston,TX,77070,385000,3,2.5,Schroeder Oaks,2403,11710,1985,1,160,8,Active,,,https://www.redfin.com/TX/Houston/8019-Durklyn-Ln-77070/home/30516681,HARMLS,8369865,N,Y,29.9854963,-95.555883
MLS Listing,,Condo/Co-op,8102 Amelia Rd #510,Houston,TX,77055,145000,2,1.5,Spenwick Vlge Condo Sec 02,1269,114198,1977,1,114,403,Active,,,https://www.redfin.com/TX/Houston/8102-Amelia-Rd-77055/unit-510/home/30462791,HARMLS,68944240,N,Y,29.8064035,-95.4893362
MLS Listing,,Condo/Co-op,2111 Welch St Unit B212,Houston,TX,77019,349990,2,2.0,Renaissance At River Oaks,1252,173261,1992,1,280,717,Active,,,https://www.redfin.com/TX/Houston/2111-Welch-St-77019/unit-B212/home/29159826,HARMLS,63948829,N,Y,29.7479111,-95.4113816
MLS Listing,,Single Family Residential,18114 Oakhampton Dr,Houston,TX,77084,410000,3,2.0,Deerfield Village Sec 01,2189,9000,1976,1,187,78,Pre On-Market,,,https://www.redfin.com/TX/Houston/18114-Oakhampton-Dr-77084/home/30341649,HARMLS,41047927,N,Y,29.8388931,-95.6781421
MLS Listing,,Single Family Residential,3426 Southmore Blvd,Houston,TX,77004,365000,4,2.5,Southwood,2241,6900,1930,1,163,,Active,,,https://www.redfin.com/TX/Houston/3426-Southmore-Blvd-77004/home/29897592,HARMLS,37849349,N,Y,29.7140776,-95.3620979
MLS Listing,,Single Family Residential,7746 Spruce Haven Dr,Houston,TX,77095,325000,4,2.5,Copperfield Southcrk Village 0,2170,7835,1989,1,150,59,Active,,,https://www.redfin.com/TX/Houston/7746-Spruce-Haven-Dr-77095/home/30570165,HARMLS,81898540,N,Y,29.8945681,-95.6527976
MLS Listing,,Single Family Residential,10634 Inwood Dr,Houston,TX,77042,599000,4,3.5,Walnut Bend,2638,8880,1961,1,227,81,Active,,,https://www.redfin.com/TX/Houston/10634-Inwood-Dr-77042/home/30178004,HARMLS,15051573,N,Y,29.7460372,-95.5650711
MLS Listing,,Single Family Residential,8426 Berry Green Ln,Houston,TX,77022,350000,3,2.5,Berry Villas,1772,1699,2022,1,198,150,Active,,,https://www.redfin.com/TX/Houston/8426-Berry-Green-Ln-77022/home/173665734,HARMLS,94459200,N,Y,29.836447,-95.365259
MLS Listing,,Single Family Residential,1809 Woodbend Village Ct,Houston,TX,77055,319999,3,2.5,Woodbend Village,1504,2171,2005,1,213,185,Active,,,https://www.redfin.com/TX/Houston/1809-Woodbend-Village-Ct-77055/home/29313144,HARMLS,19366986,N,Y,29.8049599,-95.4896822
MLS Listing,,Multi-Family (2-4 Unit),8015 Elbert St Unit A / B,Houston,TX,77028,390000,4,2.0,Rosewood Estates Sec 02,2042,3150,2024,1,191,,Active,,,https://www.redfin.com/TX/Houston/8015-Elbert-St-77028/unit-A-B/home/192600747,HARMLS,88319419,N,Y,29.8353163,-95.2940423
MLS Listing,,Single Family Residential,15822 Galling Dr,Houston,TX,77489,189900,3,2.5,Briargate Sec 6,1900,7150,1978,1,100,12,Active,,,https://www.redfin.com/TX/Missouri-City/15822-Galling-Dr-77489/home/32816416,HARMLS,54573757,N,Y,29.5969268,-95.4888277
MLS Listing,,Single Family Residential,24902 Grand Sapphire Ln,Katy,TX,77493,399000,4,2.5,King Xing Sec 10,2546,5483,2017,1,157,77,Active,,,https://www.redfin.com/TX/Katy/24902-Grand-Sapphire-Ln-77493/home/147748167,HARMLS,12530328,N,Y,29.849812,-95.8055972
MLS Listing,,Single Family Residential,9310 Taidswood Dr,Spring,TX,77379,350000,4,2.5,Champion Forest,2526,9561,1977,1,139,21,Active,,,https://www.redfin.com/TX/Spring/9310-Taidswood-Dr-77379/home/30361503,HARMLS,65392985,N,Y,30.004362,-95.549362
MLS Listing,,Single Family Residential,4510 Courtney St,Houston,TX,77026,229000,3,2.0,Augusta,1406,5000,1960,1,163,,Active,,,https://www.redfin.com/TX/Houston/4510-Courtney-St-77026/home/29646834,HARMLS,79320021,N,Y,29.7867558,-95.3244704
MLS Listing,,Townhouse,9212 Arvin St Unit B,Houston,TX,77028,350000,3,3.5,Dorchester Place,,4500,,1,,,Active,,,https://www.redfin.com/TX/Houston/9212-Arvin-St-77028/unit-B/home/192600729,HARMLS,95245541,N,Y,29.8467727,-95.2694289
MLS Listing,,Single Family Residential,5534 Bear Paw Cir,Katy,TX,77449,279990,3,2.5,Creekside,2211,5250,2004,1,127,29,Active,,,https://www.redfin.com/TX/Katy/5534-Bear-Paw-Cir-77449/home/29228413,HARMLS,95676338,N,Y,29.8508585,-95.7169228
MLS Listing,,Single Family Residential,7519 Dyer St,Houston,TX,77088,205000,3,2.0,Dyer Vistas,1175,5180,2017,1,174,,Active,,,https://www.redfin.com/TX/Houston/7519-Dyer-St-77088/home/112829330,HARMLS,58899868,N,Y,29.8696874,-95.4425603
MLS Listing,,Single Family Residential,11219 Sagevale Ln,Houston,TX,77089,319000,4,3.5,Sagemont Sec 09,2100,7057,1969,1,152,5,Active,,,https://www.redfin.com/TX/Houston/11219-Sagevale-Ln-77089/home/30235821,HARMLS,27769897,N,Y,29.5877087,-95.2254237
MLS Listing,,Condo/Co-op,8211 Katy Fwy #18,Houston,TX,77024,175000,2,2.0,Tree House Condo,1185,120069,1961,1,148,38,Active,,,https://www.redfin.com/TX/Houston/8211-Katy-Fwy-77024/unit-18/home/30385179,HARMLS,45078918,N,Y,29.7829557,-95.4858508
MLS Listing,,Multi-Family (2-4 Unit),5009 Mallow St Unit A/B,Houston,TX,77033,410000,0,4.0,Pine Trails Sec 04,2584,5000,2019,1,159,,Active,,,https://www.redfin.com/TX/Houston/5009-Mallow-St-77033/unit-A-B/home/169417206,HARMLS,6942711,N,Y,29.6600555,-95.3482888
MLS Listing,,Single Family Residential,10806 Tupper Lake Dr,Houston,TX,77042,459000,4,2.5,Lakeside Forest,2499,10170,1972,1,184,68,Active,,,https://www.redfin.com/TX/Houston/10806-Tupper-Lake-Dr-77042/home/30255002,HARMLS,57722142,N,Y,29.7558235,-95.5682708
MLS Listing,,Single Family Residential,8925 Caddo Rd,Houston,TX,77078,219000,3,4.5,Kentshire Place,1194,3000,2024,1,183,,Active,,,https://www.redfin.com/TX/Houston/8925-Caddo-Rd-77078/home/148043966,HARMLS,90576665,N,Y,29.857237,-95.259397
MLS Listing,,Single Family Residential,13547 Gaby Virbo Dr,Houston,TX,77083,279900,3,2.0,Pheasant Run Sec 01,1815,5027,1983,1,154,34,Active,,,https://www.redfin.com/TX/Houston/13547-Gaby-Virbo-Dr-77083/home/30468486,HARMLS,47819079,N,Y,29.7010135,-95.6230587
MLS Listing,,Single Family Residential,15311 Peonies Pl,Houston,TX,77044,418140,5,3.5,Sheldon Ridge,2785,,2024,1,150,29,Active,,,https://www.redfin.com/TX/Houston/15311-Peonies-PL-77044/home/192600546,HARMLS,4453951,N,Y,29.896379,-95.164061
MLS Listing,,Single Family Residential,1405 W 25th St,Houston,TX,77008,735000,3,2.5,Pecan Knolls,2362,5471,2001,1,311,,Pre On-Market,,,https://www.redfin.com/TX/Houston/1405-W-25th-St-77008/home/29158991,HARMLS,50531544,N,Y,29.808956,-95.4243322
MLS Listing,,Single Family Residential,13510 Dripping Springs Dr,Houston,TX,77083,270000,4,2.0,Pheasant Run Sec 02 R/p,2134,5000,1981,1,127,31,Active,,,https://www.redfin.com/TX/Houston/13510-Dripping-Springs-Dr-77083/home/30480797,HARMLS,80091682,N,Y,29.7110793,-95.6219888
MLS Listing,,Single Family Residential,15315 Peonies Pl,Houston,TX,77044,323915,3,2.0,Sheldon Ridge,1490,,2024,1,217,31,Active,,,https://www.redfin.com/TX/Houston/15315-Peonies-PL-77044/home/192600536,HARMLS,62084887,N,Y,29.876718,-95.145196
MLS Listing,,Vacant Land,0 S Victory Dr,Houston,TX,77088,100000,,,Lincoln City Sec 04,,6180,,1,,,Active,,,https://www.redfin.com/TX/Houston/S-Victory-Dr-77088/home/29681141,HARMLS,29878473,N,Y,29.870055,-95.433915
MLS Listing,,Single Family Residential,6643 Bayou View Dr,Houston,TX,77091,390000,3,2.0,White Oak Terrace Tr F U/r,2024,18590,1979,1,193,33,Active,,,https://www.redfin.com/TX/Houston/6643-Bayou-View-Dr-77091/home/30198062,HARMLS,81278547,N,Y,29.86024,-95.4618293
MLS Listing,,Townhouse,14142 Misty Meadow Ln,Houston,TX,77079,349000,3,2.5,Memorial Club T/h Sec 02 R/p,1936,1301,1976,1,180,405,Active,September-21-2024 02:00 PM,September-21-2024 04:00 PM,https://www.redfin.com/TX/Houston/14142-Misty-Meadow-Ln-77079/home/30270884,HARMLS,79086876,N,Y,29.781042,-95.595294
MLS Listing,,Single Family Residential,10603 Sorsby Way,Houston,TX,77047,187000,3,1.0,South Acres Estates Sec 05,856,7800,1962,1,218,,Active,,,https://www.redfin.com/TX/Houston/10603-Sorsby-Way-77047/home/30109029,HARMLS,53477948,N,Y,29.6444952,-95.3622232
MLS Listing,,Single Family Residential,3503 Kensington Gardens Ln,Houston,TX,77055,1100000,3,3.5,Somerset Green Sec 8,3306,5964,2022,1,333,265,Active,September-22-2024 01:00 PM,September-22-2024 04:00 PM,https://www.redfin.com/TX/Houston/3503-Kensington-Gardens-Ln-77055/home/182922093,HARMLS,85501467,N,Y,29.7859155,-95.439762
MLS Listing,,Vacant Land,3221 Mansfield St,Houston,TX,77091,1900000,,,Highland Heights Annex Sec 04,,122430,,1,,,Active,,,https://www.redfin.com/TX/Houston/3221-Mansfield-St-77091/home/29875441,HARMLS,6065438,N,Y,29.850589,-95.455985
MLS Listing,,Single Family Residential,12710 S Bayberry Bend Circle Dr,Houston,TX,77072,272000,4,2.5,High Star,2129,3713,2004,1,128,35,Active,,,https://www.redfin.com/TX/Houston/12710-S-Bayberry-Bend-Circle-Dr-77072/home/29288653,HARMLS,97969749,N,Y,29.7077503,-95.6053524
MLS Listing,,Single Family Residential,2702 Balmorhea Ave,Houston,TX,77039,306000,3,2.0,Castlewood,1689,14400,1970,1,181,,Active,,,https://www.redfin.com/TX/Houston/2702-Balmorhea-Ave-77039/home/30194711,HARMLS,21247697,N,Y,29.9145231,-95.3443313
MLS Listing,,Single Family Residential,2703 Rustic Woods Dr,Kingwood,TX,77345,399900,4,2.5,Sand Creek Village Sec 01,2800,11760,1984,1,143,30,Active,,,https://www.redfin.com/TX/Kingwood/2703-Rustic-Woods-Dr-77345/home/30499469,HARMLS,21166932,N,Y,30.0550465,-95.1798485
MLS Listing,,Single Family Residential,12227 Sarti St,Houston,TX,77066,299999,4,2.5,Fountainhead,2267,11700,1980,1,132,23,Pre On-Market,,,https://www.redfin.com/TX/Houston/12227-Sarti-St-77066/home/30383571,HARMLS,75803524,N,Y,29.9768395,-95.4938192
MLS Listing,,Single Family Residential,4140 E Northampton Pl,Houston,TX,77098,750000,3,2.5,Northampton Place Sec 02 R/p,2722,3313,1996,1,276,144,Active,,,https://www.redfin.com/TX/Houston/4140-E-Northampton-Pl-77098/home/30667671,HARMLS,28333369,N,Y,29.728655,-95.414325
MLS Listing,,Single Family Residential,893 Wall St,Houston,TX,77088,440000,4,2.0,Highland Acre Home Annex,1684,31200,1959,1,261,,Active,,,https://www.redfin.com/TX/Houston/893-Wall-St-77088/home/29682650,HARMLS,15075385,N,Y,29.8683921,-95.4219182
MLS Listing,,Vacant Land,1525 Ronson Rd,Houston,TX,77055,509000,,,Spring Oaks R/p,,8750,,1,,,Active,,,https://www.redfin.com/TX/Houston/1525-Ronson-Rd-77055/home/30058068,HARMLS,58551472,N,Y,29.7979367,-95.4993751
MLS Listing,,Townhouse,7015 Academy St,Houston,TX,77025,895000,3,3.5,Ayrshire Sec 2 Thru Sec 9,3386,4852,1999,1,264,,Pre On-Market,,,https://www.redfin.com/TX/Houston/7015-Academy-St-77025/home/29986728,HARMLS,88877307,N,Y,29.701981,-95.4425289
MLS Listing,,Single Family Residential,861 Prosper St,Houston,TX,77088,324000,3,2.5,Prosper Villas,1625,2577,2024,1,199,,Active,,,https://www.redfin.com/TX/Houston/861-Prosper-St-77088/home/190768885,HARMLS,87643223,N,Y,29.8716748,-95.4202678
MLS Listing,,Vacant Land,12115 Troulon Dr,Houston,TX,77072,120000,,,Catalina West,,14000,,1,,,Active,,,https://www.redfin.com/TX/Houston/12115-Troulon-Dr-77072/home/30233302,HARMLS,86281836,N,Y,29.687784,-95.592246
MLS Listing,,Single Family Residential,2704 Tuam St,Houston,TX,77004,509900,3,3.5,Modern ON Nagle,2358,1894,2023,1,216,,Active,,,https://www.redfin.com/TX/Houston/2704-Tuam-St-77004/home/186257954,HARMLS,58732943,N,Y,29.7344272,-95.3607734
MLS Listing,,Single Family Residential,2702 Tuam St,Houston,TX,77004,514500,3,4.0,Modern ON Nagle,2358,1894,2023,1,218,,Active,,,https://www.redfin.com/TX/Houston/2702-Tuam-St-77004/home/29693039,HARMLS,4299831,N,Y,29.7345559,-95.3609369
MLS Listing,,Single Family Residential,17931 Forest Cedars Dr,Houston,TX,77084,260000,3,2.5,Windsong Sec 01,1508,10000,1982,1,172,54,Active,,,https://www.redfin.com/TX/Houston/17931-Forest-Cedars-Dr-77084/home/30499057,HARMLS,51197592,N,Y,29.853287,-95.6741249
MLS Listing,,Single Family Residential,11921 Meadowgreen St,Houston,TX,77076,260000,2,2.0,Fair Meadow,736,7308,1950,1,353,,Active,,,https://www.redfin.com/TX/Houston/11921-Meadowgreen-St-77076/home/30044639,HARMLS,60552226,N,Y,29.8738678,-95.3836727
MLS Listing,,Single Family Residential,12210 Whittington Dr,Houston,TX,77077,495000,4,2.5,Briar Lake,2656,7920,1974,1,186,71,Active,,,https://www.redfin.com/TX/Houston/12210-Whittington-Dr-77077/home/30279160,HARMLS,75575750,N,Y,29.7478898,-95.5960504
MLS Listing,,Vacant Land,4310 Downs Ln,Houston,TX,77093,84000,,,Farrington Place,,9600,,1,,,Active,,,https://www.redfin.com/TX/Houston/4310-Downs-Ln-77093/home/29961235,HARMLS,91725959,N,Y,29.8573271,-95.326757
MLS Listing,,Single Family Residential,6234 Queenswood Ln,Houston,TX,77008,875000,3,3.0,Timbergrove Manor,2084,10240,1954,1,420,,Active,,,https://www.redfin.com/TX/Houston/6234-Queenswood-Ln-77008/home/30041848,HARMLS,10806612,N,Y,29.7862593,-95.4250805
MLS Listing,,Single Family Residential,3502 Nottingham St,Houston,TX,77005,4995000,5,7.0,West University Place,8176,11250,2007,1,611,,Active,September-22-2024 02:00 PM,September-22-2024 04:00 PM,https://www.redfin.com/TX/Houston/3502-Nottingham-St-77005/home/29830576,HARMLS,97535369,N,Y,29.7222629,-95.4313713
MLS Listing,,Single Family Residential,731 Rustyleaf Ln,Houston,TX,77090,241000,4,2.5,Westador Sec 05,2299,9750,1974,1,105,53,Pre On-Market,,,https://www.redfin.com/TX/Houston/731-Rustyleaf-Ln-77090/home/30277801,HARMLS,5725068,N,Y,30.025086,-95.4458
MLS Listing,,Single Family Residential,2206 Wakefield Dr,Houston,TX,77018,525000,3,2.0,Oak Forest,1490,7597,1952,1,352,,Active,September-21-2024 11:00 AM,September-21-2024 02:00 PM,https://www.redfin.com/TX/Houston/2206-Wakefield-Dr-77018/home/29994506,HARMLS,45808951,N,Y,29.823693,-95.450546
MLS Listing,,Single Family Residential,11402 Olivewood Dr,Houston,TX,77089,245000,4,2.0,Wood Meadow Sec 01 02 R/p,1499,8798,1976,1,163,15,Active,,,https://www.redfin.com/TX/Houston/11402-Olivewood-Dr-77089/home/30309004,HARMLS,18558197,N,Y,29.5933277,-95.2099697
MLS Listing,,Condo/Co-op,3333 Allen Pkwy #601,Houston,TX,77019,624900,2,2.0,Royalton/river Oaks,1738,,2003,1,360,1270,Active,,,https://www.redfin.com/TX/Houston/3333-Allen-Pkwy-77019/unit-601/home/29388208,HARMLS,90260465,N,Y,29.7602983,-95.4007042
MLS Listing,,Single Family Residential,3135 Webster St,Houston,TX,77004,349000,3,2.0,Reward 03 Ward,1189,5000,2001,1,294,,Pre On-Market,,,https://www.redfin.com/TX/Houston/3135-Webster-St-77004/home/30719224,HARMLS,7431579,N,Y,29.7378864,-95.3536361
MLS Listing,,Single Family Residential,24722 Colony Meadow Trl,Houston,TX,77336,2500,4,2.5,Woodland Lakes,2082,5000,2021,1,1,,Active,,,https://www.redfin.com/TX/Huffman/24722-Colony-Meadow-Trl-77336/home/175115319,HARMLS,74492820,N,Y,30.0301985,-95.1039799
MLS Listing,,Single Family Residential,3414 Goodhope St,Houston,TX,77021,505000,6,6.0,South Union Sec 02,2810,5000,2024,1,180,,Active,,,https://www.redfin.com/TX/Houston/3414-Goodhope-St-77021/home/30004963,HARMLS,44699350,N,Y,29.6849606,-95.3773399
MLS Listing,,Townhouse,7827 Shady Villa Mdw,Houston,TX,77055,495000,4,2.5,Park/shady Villa,2468,1872,2006,1,201,250,Pre On-Market,,,https://www.redfin.com/TX/Houston/7827-Shady-Villa-Mdw-77055/home/29322445,HARMLS,19636622,N,Y,29.7969405,-95.4834749
MLS Listing,,Condo/Co-op,6483 Bayou Glen Rd,Houston,TX,77057,169900,2,1.0,Kerry Glen Condo Sec 03,940,186765,1970,1,181,585,Active,,,https://www.redfin.com/TX/Houston/6483-Bayou-Glen-Rd-77057/home/30514206,HARMLS,12639704,N,Y,29.7598355,-95.4983726
MLS Listing,,Single Family Residential,19711 Seabury Path Ct,Katy,TX,77449,359000,4,2.5,Plantation Lakes Sec 14,2631,7337,2014,1,136,46,Active,,,https://www.redfin.com/TX/Katy/19711-Seabury-Path-Ct-77449/home/112809876,HARMLS,48690772,N,Y,29.852693,-95.7149872
MLS Listing,,Single Family Residential,5315 Graystone Ln,Houston,TX,77069,345000,4,2.5,Huntwick Forest,2728,9600,1970,1,126,13,Pre On-Market,,,https://www.redfin.com/TX/Houston/5315-Graystone-Ln-77069/home/30233056,HARMLS,52055258,N,Y,29.9848988,-95.5132429
MLS Listing,,Single Family Residential,933 E 40 1/2 St,Houston,TX,77022,469900,3,3.5,Independence Heights,1888,2310,2024,1,249,,Active,,,https://www.redfin.com/TX/Houston/731-1-2-E-40th-St-77022/home/191953866,HARMLS,17004808,N,Y,29.8224439,-95.3893477
MLS Listing,,Single Family Residential,4910 Brooklawn Dr,Houston,TX,77066,299998,4,2.5,Kleinbrook,2394,6900,1982,1,125,,Pre On-Market,,,https://www.redfin.com/TX/Houston/4910-Brooklawn-Dr-77066/home/30516747,HARMLS,10316868,N,Y,29.95342,-95.4917707
MLS Listing,,Vacant Land,15606 Kingfield Dr,Houston,TX,77084,1300000,,,Church/god House/david,,116193,,1,,,Active,,,https://www.redfin.com/TX/Houston/15606-Kingfield-Dr-77084/home/185334900,HARMLS,53411759,N,Y,29.871973,-95.643783
MLS Listing,,Townhouse,4439 Eigel St,Houston,TX,77007,399000,3,2.0,Upper West End,1748,1658,2004,1,228,,Active,,,https://www.redfin.com/TX/Houston/4439-Eigel-St-77007/home/29281183,HARMLS,67020764,N,Y,29.7746872,-95.4057515
MLS Listing,,Single Family Residential,11318 Painted Trillium Ln,Houston,TX,77044,385000,5,4.0,Sheldon Rdg Sec 7,2777,5040,2022,1,139,29,Active,,,https://www.redfin.com/TX/Houston/11318-Painted-Trillium-Ln-77044/home/182923703,HARMLS,23376476,N,Y,29.8789019,-95.1412318
MLS Listing,,Single Family Residential,615 Northew St Unit F,Houston,TX,77091,329888,3,2.5,Northew Square,1552,1700,2024,1,213,117,Active,,,https://www.redfin.com/TX/Houston/615-Northew-St-77091/unit-F/home/192597718,HARMLS,75570339,N,Y,29.8507272,-95.4100663
MLS Listing,,Vacant Land,16235 Green Manor Dr,Houston,TX,77396,75000,,,Green Manor-953.00,,9480,,1,,,Active,,,https://www.redfin.com/TX/Humble/16235-Green-Manor-Dr-77396/home/144616490,HARMLS,15170266,N,Y,29.9568714,-95.294515
MLS Listing,,Single Family Residential,12339 Huntington Field Dr,Houston,TX,77099,319000,4,2.0,Huntington Village Sec 03 Reserve,1750,14486,1975,1,182,22,Active,,,https://www.redfin.com/TX/Houston/12339-Huntington-Field-Dr-77099/home/30286825,HARMLS,22478865,N,Y,29.6649224,-95.6047053
MLS Listing,,Single Family Residential,6923 Leandra Dr,Houston,TX,77083,265000,4,2.0,Mission Bend Sec 01,1862,7560,1978,1,142,18,Active,,,https://www.redfin.com/TX/Houston/6923-Leandra-Dr-77083/home/30353639,HARMLS,23832162,N,Y,29.7044679,-95.6642705
MLS Listing,,Single Family Residential,1104 Adele St,Houston,TX,77009,625000,3,2.5,Sunset Heights,2365,2500,2024,1,264,,Active,,,https://www.redfin.com/TX/Houston/1104-Adele-St-77009/home/191449979,HARMLS,43844635,N,Y,29.8062587,-95.3863772
MLS Listing,,Single Family Residential,18102 Brooknoll Dr,Houston,TX,77084,270000,4,2.5,Windsong,1928,7280,1984,1,140,38,Active,September-22-2024 01:00 PM,September-22-2024 03:00 PM,https://www.redfin.com/TX/Houston/18102-Brooknoll-Dr-77084/home/30555849,HARMLS,85611237,N,Y,29.8534154,-95.6784814
MLS Listing,,Single Family Residential,1731 Kilmory Ct,Houston,TX,77014,275000,4,2.5,Glen Abbey Sec 6,2306,5118,2013,1,119,38,Active,,,https://www.redfin.com/TX/Houston/1731-Kilmory-Ct-77014/home/49766020,HARMLS,48438715,N,Y,29.9840445,-95.449812
MLS Listing,,Single Family Residential,1529 Caywood Ln,Houston,TX,77055,650000,3,2.5,Spring Branch,2365,3815,2024,1,275,,Active,,,https://www.redfin.com/TX/Houston/1529-Caywood-Ln-77055/home/30013943,HARMLS,48832006,N,Y,29.7980044,-95.4746477
MLS Listing,,Townhouse,2908 Gessner Rd,Houston,TX,77080,269000,2,2.5,Spring Shadows,1836,2840,1972,1,147,292,Active,,,https://www.redfin.com/TX/Houston/2908-Gessner-Rd-77080/home/30250387,HARMLS,36224243,N,Y,29.8253371,-95.544687
MLS Listing,,Single Family Residential,727 Post St,Houston,TX,77022,450000,3,2.0,Colonial Gardens,2000,11700,1959,1,225,,Active,,,https://www.redfin.com/TX/Houston/727-Post-St-77022/home/29929991,HARMLS,16965549,N,Y,29.8267049,-95.362292
MLS Listing,,Single Family Residential,4325 Idaho St,Houston,TX,77021,349000,3,3.5,Foster Crossing,1754,1646,2024,1,199,,Active,,,https://www.redfin.com/TX/Houston/4325-Idaho-St-77021/home/190736927,HARMLS,9025441,N,Y,29.6888893,-95.3563745
MLS Listing,,Single Family Residential,1339 Heathwick Ln,Houston,TX,77043,695000,4,3.5,Westwick Sec 01,3333,10036,1985,1,209,69,Active,,,https://www.redfin.com/TX/Houston/1339-Heathwick-Ln-77043/home/30394098,HARMLS,25943817,N,Y,29.7893486,-95.5880065
MLS Listing,,Single Family Residential,4307 Dickson St Unit B,Houston,TX,77007,690000,3,2.5,Rice Military,2365,2501,2024,1,292,,Active,,,https://www.redfin.com/TX/Houston/4307-Dickson-St-77007/unit-B/home/191571108,HARMLS,44921386,N,Y,29.7652068,-95.4037788
MLS Listing,,Single Family Residential,18210 Nassau Bay Dr,Nassau Bay,TX,77058,695000,5,3.5,Nassau Bay Sec 01,2774,39396,1965,1,251,10,Active,,,https://www.redfin.com/TX/Houston/18210-Nassau-Bay-Dr-77058/home/30182169,HARMLS,43002010,N,Y,29.5428392,-95.0999152
MLS Listing,,Single Family Residential,6907 Castleview Ln,Houston,TX,77489,245000,3,2.0,Briargate Sec 1,1548,8600,1972,1,158,16,Active,,,https://www.redfin.com/TX/Missouri-City/6907-Castleview-Ln-77489/home/32813702,HARMLS,58011801,N,Y,29.6003904,-95.4900412
MLS Listing,,Single Family Residential,503 Axilda St,Houston,TX,77017,219000,3,1.5,Oak Meadows Sec 02,1450,6270,1952,1,151,,Active,,,https://www.redfin.com/TX/Houston/503-Axilda-St-77017/home/30040791,HARMLS,63695328,N,Y,29.697994,-95.2434113
MLS Listing,,Single Family Residential,12010 Royal Oaks Banner Way,Houston,TX,77082,499000,3,2.5,Royal Oaks Landing,1980,3069,2024,1,252,200,Active,,,https://www.redfin.com/TX/Houston/12011-Royal-Oaks-Banner-Way-77082/home/185199315,HARMLS,89656573,N,Y,29.7263466,-95.5903037
MLS Listing,,Condo/Co-op,1809 Stoney Brook Dr #202,Houston,TX,77063,149000,1,1.0,Stoney Brook T/h Condo,846,207599,1968,1,176,318,Active,,,https://www.redfin.com/TX/Houston/1809-Stoney-Brook-Dr-77063/unit-202/home/108975503,HARMLS,5705721,N,Y,29.7485746,-95.5050119
MLS Listing,,Condo/Co-op,403 Anita St #18,Houston,TX,77006,289000,2,2.5,Lovette Square Condo,1680,,1979,1,172,580,Active,,,https://www.redfin.com/TX/Houston/403-Anita-St-77006/unit-18/home/30482904,HARMLS,70229904,N,Y,29.7457192,-95.3808458
MLS Listing,,Single Family Residential,16123 Hollow Rock Dr,Houston,TX,77070,289900,3,2.0,Charterwood,1743,6750,1994,1,166,23,Pre On-Market,,,https://www.redfin.com/TX/Houston/16123-Hollow-Rock-Dr-77070/home/30494566,HARMLS,24875090,N,Y,30.0039269,-95.5682298
MLS Listing,,Single Family Residential,23906 Breckenridge Forest Dr,Spring,TX,77373,295000,3,2.0,Breckenridge Forest Sec 01,1867,6760,2002,1,158,35,Active,,,https://www.redfin.com/TX/Spring/23906-Breckenridge-Forest-Dr-77373/home/29214977,HARMLS,71244978,N,Y,30.0682128,-95.3753481
MLS Listing,,Single Family Residential,5841 Dolores St,Houston,TX,77057,534990,3,3.5,Westheimer Gardens Ext Pt Re,2275,1737,2021,1,235,100,Active,,,https://www.redfin.com/TX/Houston/5841-Dolores-St-77057/home/173637055,HARMLS,5175096,N,Y,29.7337999,-95.481837
MLS Listing,,Multi-Family (2-4 Unit),1510 Gale St,Houston,TX,77009,930000,0,1.0,Ryon,5469,16250,1935,1,170,,Pre On-Market,,,https://www.redfin.com/TX/Houston/1510-Gale-St-77009/home/43475983,HARMLS,58324420,N,Y,29.8058943,-95.3530172
MLS Listing,,Single Family Residential,8007 Sonata Ct,Houston,TX,77040,525000,4,3.5,Woodwind Lakes Sec 01,3069,7800,1996,1,171,78,Active,,,https://www.redfin.com/TX/Houston/8007-Sonata-Ct-77040/home/30634417,HARMLS,93207252,N,Y,29.888982,-95.5371545
MLS Listing,,Single Family Residential,2015 Cresent Palm Ct,Houston,TX,77077,1749995,5,5.0,Lakes of Parkway,7721,13416,2004,1,227,179,Active,,,https://www.redfin.com/TX/Houston/2015-Cresent-Palm-Ct-77077/home/30698263,HARMLS,26927205,N,Y,29.7469538,-95.6325285
MLS Listing,,Single Family Residential,2303 Blue Water Ln,Houston,TX,77018,399000,3,2.0,Candlelight Woods,2446,8191,1967,1,163,14,Active,,,https://www.redfin.com/TX/Houston/2303-Blue-Water-Ln-77018/home/30174777,HARMLS,65485125,N,Y,29.8386119,-95.4524323
MLS Listing,,Condo/Co-op,2205 Mckinney St #316,Houston,TX,77003,185000,1,1.0,HERRIN LOFTS CONDO,836,766,1929,1,221,30,Active,,,https://www.redfin.com/TX/Houston/2205-McKinney-St-77003/unit-316/home/29590993,ACTRIS,7197472,N,Y,29.7509535,-95.3541767
MLS Listing,,Single Family Residential,9830 Cynthia Ann Ct,Houston,TX,77025,389000,4,2.5,Contemporary Plaza Sec 07 Amd,2246,2031,2003,1,173,90,Active,,,https://www.redfin.com/TX/Houston/9830-Cynthia-Ann-Ct-77025/home/29250998,HARMLS,35249397,N,Y,29.6761932,-95.435093
MLS Listing,,Townhouse,14020 Schroeder Rd #165,Houston,TX,77070,185000,2,2.0,Willow Wood Villas,1029,233890,1984,1,180,309,Active,,,https://www.redfin.com/TX/Houston/14020-Schroeder-Rd-77070/unit-165/home/30586159,HARMLS,4077003,N,Y,29.9809,-95.5554523
MLS Listing,,Single Family Residential,1027 Arlington St,Houston,TX,77008,1999990,4,5.0,Houston Heights,3966,6600,2015,1,504,,Pre On-Market,,,https://www.redfin.com/TX/Houston/1027-Arlington-St-77008/home/29300993,HARMLS,43493748,N,Y,29.7900587,-95.3946709
MLS Listing,,Condo/Co-op,2601 Braeswood S #606,Houston,TX,77025,202900,2,2.5,Braeswood Condos,1452,,1980,1,140,543,Active,,,https://www.redfin.com/TX/Houston/2601-S-Braeswood-Blvd-77025/unit-606/home/30483850,HARMLS,76859921,N,Y,29.6939729,-95.4184703
MLS Listing,,Single Family Residential,14002 Autumn Ridge Trail Dr,Houston,TX,77048,240000,3,2.0,Autumn Glen Sec 01,1530,5263,2007,1,157,45,Active,,,https://www.redfin.com/TX/Houston/14002-Autumn-Ridge-Trail-Dr-77048/home/29335051,HARMLS,33869466,N,Y,29.604952,-95.3547575
MLS Listing,,Single Family Residential,807 Rustic Harbor Ct,Houston,TX,77062,400000,5,2.5,Bay Knoll Sec 06,2565,7813,1990,1,156,33,Pre On-Market,,,https://www.redfin.com/TX/Houston/807-Rustic-Harbor-Ct-77062/home/30617829,HARMLS,59111824,N,Y,29.5724925,-95.1476254
MLS Listing,,Single Family Residential,10006 Tiger Flower Ln,Houston,TX,77016,229990,3,2.0,Wayside Village,1200,,2024,1,192,38,Active,,,https://www.redfin.com/TX/Houston/10006-Tiger-Flower-Ln-77016/home/192595595,HARMLS,44380119,N,Y,29.859232,-95.286518
MLS Listing,,Single Family Residential,10210 Fairland Dr,Houston,TX,77051,159800,3,1.0,Blueridge Add Sec 02,1276,6475,1955,1,125,,Active,,,https://www.redfin.com/TX/Houston/10210-Fairland-Dr-77051/home/30094343,HARMLS,97289190,N,Y,29.6479164,-95.3738368
MLS Listing,,Single Family Residential,5603 Lodge Creek Dr,Houston,TX,77066,350000,4,2.5,Greenwood Forest Sec 02 Prcl R,2620,9360,1972,1,134,47,Active,September-22-2024 01:00 PM,September-22-2024 03:00 PM,https://www.redfin.com/TX/Houston/5603-Lodge-Creek-Dr-77066/home/30245225,HARMLS,30643224,N,Y,29.9764046,-95.5085708
MLS Listing,,Townhouse,12150 Beamer Rd,Houston,TX,77089,159900,2,1.5,Sagemont T/h U/r,1318,1343,1975,1,121,200,Active,,,https://www.redfin.com/TX/Houston/12150-Beamer-Rd-77089/home/30287882,HARMLS,92597627,N,Y,29.590875,-95.222346
MLS Listing,,Single Family Residential,1505 Biondo Way,Houston,TX,77008,685000,4,3.5,Heights/minimax,2716,2205,2020,1,252,192,Active,,,https://www.redfin.com/TX/Houston/1505-Biondo-Way-77008/home/170256828,HARMLS,45606734,N,Y,29.7962738,-95.4460157
MLS Listing,,Single Family Residential,6526 Foxfern Cir,Houston,TX,77049,239900,3,2.0,Hunterwood Village,1405,6300,1979,1,171,18,Active,,,https://www.redfin.com/TX/Houston/6526-Foxfern-Cir-77049/home/30459403,HARMLS,72109047,N,Y,29.8211915,-95.2071978
MLS Listing,,Single Family Residential,5205 Mohawk St,Houston,TX,77093,119000,2,1.0,Melwood Place,1536,6325,1955,1,77,,Active,,,https://www.redfin.com/TX/Houston/5205-Mohawk-St-77093/home/30024204,HARMLS,68170856,N,Y,29.8780456,-95.3136832
MLS Listing,,Multi-Family (2-4 Unit),614 Mayford St Unit A/B,Houston,TX,77076,497000,9,2.0,Hawthorne Place Sec 07,2796,7308,2024,1,178,,Pre On-Market,,,https://www.redfin.com/TX/Houston/614-Mayford-St-77076/unit-A-B/home/192273583,HARMLS,39991340,N,Y,29.8613031,-95.3686292
MLS Listing,,Vacant Land,20202 Belleau Wood Dr,Houston,TX,77338,43500,,,Belleau Woods Sec 01 R/p,,24500,,1,,4,Active,,,https://www.redfin.com/TX/Humble/20202-Belleau-Wood-Dr-77338/home/188090605,HARMLS,35108755,N,Y,30.0149687,-95.2209799
MLS Listing,,Single Family Residential,16922 Manowar Ln,Friendswood,TX,77546,288500,3,2.0,Heritage Park Sec 10,1641,6825,1984,1,176,14,Active,,,https://www.redfin.com/TX/Friendswood/16922-Man-O-War-Ln-77546/home/30556660,HARMLS,62835786,N,Y,29.5400398,-95.1654161
MLS Listing,,Single Family Residential,4902 Mint Trl,Houston,TX,77066,339500,4,2.5,Klein Arbor,3068,4622,2015,1,111,54,Active,,,https://www.redfin.com/TX/Houston/4902-Mint-Trails-77066/home/112807295,HARMLS,88626293,N,Y,29.963074,-95.492499
MLS Listing,,Townhouse,5000 Schuler St Unit D,Houston,TX,77007,448000,3,3.0,Schuler Place Gardens Sec 2,1796,1500,2006,1,249,42,Active,,,https://www.redfin.com/TX/Houston/5000-Schuler-St-77007/unit-D/home/29537598,HARMLS,61473743,N,Y,29.7728359,-95.4117498
MLS Listing,,Condo/Co-op,3100 Walnut Bend Ln #303,Houston,TX,77042,140000,2,2.0,Terra Courtyard Condo,1100,367630,1980,1,127,325,Active,,,https://www.redfin.com/TX/Houston/3100-Walnut-Bend-Ln-77042/unit-303/home/30515376,HARMLS,87855114,N,Y,29.7301055,-95.5691409
MLS Listing,,Condo/Co-op,2000 Bagby St #13441,Houston,TX,77002,369000,1,1.5,Rise Condo,1170,,2004,1,315,537,Active,,,https://www.redfin.com/TX/Houston/2000-Bagby-St-77002/unit-13441/home/29515796,HARMLS,90058457,N,Y,29.7526195,-95.3765748
MLS Listing,,Single Family Residential,14619 Cypress Cottage Ct,Cypress,TX,77429,275000,3,2.0,Cypress Mill Park,1589,5980,2002,1,173,57,Active,,,https://www.redfin.com/TX/Cypress/14619-Cypress-Cottage-Ct-77429/home/29162872,HARMLS,38834827,N,Y,29.9830335,-95.6970206
MLS Listing,,Single Family Residential,4515 Salina St,Houston,TX,77026,325000,4,2.0,Augusta,1620,7085,1965,1,201,,Active,,,https://www.redfin.com/TX/Houston/4515-Salina-St-77026/home/29645748,HARMLS,88106434,N,Y,29.7918902,-95.3241519
MLS Listing,,Single Family Residential,9411 Braesheather Ct,Houston,TX,77096,1895000,5,5.5,Meyerland Sec 07 R/p C,4523,13052,2017,1,419,57,Active,,,https://www.redfin.com/TX/Houston/9411-Braesheather-Ct-77096/home/30143018,HARMLS,54086200,N,Y,29.6781828,-95.4605394
MLS Listing,,Single Family Residential,2806 Halton Ct,Kingwood,TX,77345,465000,3,2.5,Kings Crossing,2702,9091,1997,1,172,61,Active,,,https://www.redfin.com/TX/Kingwood/2806-Halton-Ct-77345/home/30655528,HARMLS,80136860,N,Y,30.0487188,-95.178289
MLS Listing,,Single Family Residential,1418 Chantilly Ln,Houston,TX,77018,1199000,4,3.5,Oak Forest Sec Add 09,3507,7436,2020,1,342,,Active,September-21-2024 01:00 PM,September-21-2024 02:30 PM,https://www.redfin.com/TX/Houston/1418-Chantilly-Ln-77018/home/29993055,HARMLS,83834043,N,Y,29.8327909,-95.4361053
MLS Listing,,Single Family Residential,1827 Chantilly Ln,Houston,TX,77018,1399000,5,5.5,Oak Forest,4069,7080,2025,1,344,,Active,,,https://www.redfin.com/TX/Houston/1827-Chantilly-Ln-77018/home/29993884,HARMLS,46481499,N,Y,29.8282264,-95.4460655
MLS Listing,,Single Family Residential,6606 Saxet St,Houston,TX,77055,1535000,5,6.0,Westview Terrace,4648,8255,2024,1,330,2,Active,September-21-2024 01:00 PM,September-21-2024 03:00 PM,https://www.redfin.com/TX/Houston/6606-Saxet-St-77055/home/30017904,HARMLS,74265784,N,Y,29.7980094,-95.4666663
MLS Listing,,Single Family Residential,15607 Dawnbrook Dr,Houston,TX,77068,275000,4,2.5,Olde Oaks Sec 01,2614,11440,1979,1,105,38,Active,,,https://www.redfin.com/TX/Houston/15607-Dawnbrook-Dr-77068/home/30336348,HARMLS,52479879,N,Y,30.0107859,-95.4894354
MLS Listing,,Single Family Residential,22610 Little Blue Stem Dr,Tomball,TX,77375,340000,4,2.0,Wildwood Glen,2053,6875,2014,1,166,,Active,,,https://www.redfin.com/TX/Tomball/22610-Little-Blue-Stem-Dr-77375/home/112817583,HARMLS,78817501,N,Y,30.080043,-95.5592525
MLS Listing,,Single Family Residential,10009 Morocco Rd,Houston,TX,77041,329900,3,2.5,Morocco Estates,1983,3500,2024,1,166,,Active,,,https://www.redfin.com/TX/Houston/10009-Morocco-Rd-77041/home/188351624,HARMLS,96044437,N,Y,29.848865,-95.541006
MLS Listing,,Single Family Residential,15711 Buccaneer Ln,Houston,TX,77062,315000,4,2.5,Clear Lake City,1907,8230,1968,1,165,5,Active,September-22-2024 01:00 PM,September-22-2024 03:00 PM,https://www.redfin.com/TX/Houston/15711-Buccaneer-Ln-77062/home/30190155,HARMLS,29426988,N,Y,29.5678738,-95.1296344
MLS Listing,,Single Family Residential,526 Highland St,Houston,TX,77009,875000,3,2.0,Woodland Heights Add,1594,7500,1920,1,549,,Active,September-22-2024 02:00 PM,September-22-2024 04:00 PM,https://www.redfin.com/TX/Houston/526-Highland-St-77009/home/29765514,HARMLS,92723640,N,Y,29.7872553,-95.377471
MLS Listing,,Single Family Residential,1714 Capstan Rd,Houston,TX,77062,365000,4,2.5,Clear Lake City Sec 03,2057,7800,1965,1,177,5,Active,,,https://www.redfin.com/TX/Houston/1714-Capstan-Rd-77062/home/30187620,HARMLS,34431747,N,Y,29.574599,-95.1211193
MLS Listing,,Single Family Residential,21142 Garden Palm,Cypress,TX,77433,416215,4,2.5,Marvida,2425,5820,2024,1,172,103,Active,,,https://www.redfin.com/TX/Cypress/21142-Garden-Palm-Dr-77433/home/192594115,HARMLS,24466320,N,Y,29.8933454,-95.7318243
MLS Listing,,Single Family Residential,8320 Cedarspur Dr,Houston,TX,77055,952000,3,2.0,Brighton Place,2327,10295,1979,1,409,17,Active,,,https://www.redfin.com/TX/Houston/8320-Cedarspur-Dr-77055/home/30361002,HARMLS,65749574,N,Y,29.7904544,-95.4942085
MLS Listing,,Single Family Residential,8410 Ash Garden Ct,Houston,TX,77083,279000,4,2.0,Mission Glen Estates Sec 4,2357,6922,1998,1,118,33,Active,September-21-2024 01:00 PM,September-21-2024 03:00 PM,https://www.redfin.com/TX/Houston/8410-Ash-Garden-Ct-77083/home/32953879,HARMLS,8996715,N,Y,29.6847523,-95.6719718
MLS Listing,,Single Family Residential,21134 Garden Palm,Cypress,TX,77433,379790,4,2.5,Marvida,2202,5820,2024,1,172,103,Active,,,https://www.redfin.com/TX/Cypress/21134-Garden-Palm-Dr-77433/home/192593841,HARMLS,34089554,N,Y,29.8933454,-95.7318243
MLS Listing,,Single Family Residential,5407 Oaklynn Dr,Spring,TX,77373,190000,3,2.0,Post Wood,1457,6300,1978,1,130,33,Active,,,https://www.redfin.com/TX/Spring/5407-Oaklynn-Dr-77373/home/30356717,HARMLS,52659598,N,Y,30.0476368,-95.35075
MLS Listing,,Multi-Family (2-4 Unit),3346 Blodgett St,Houston,TX,77004,525000,8,1.0,Haden Terace Sec 03,2432,6955,1949,1,216,,Active,,,https://www.redfin.com/TX/Houston/3346-Blodgett-St-77004/home/29970313,HARMLS,74188388,N,Y,29.7190758,-95.3618839
MLS Listing,,Single Family Residential,7926 Palm Sails,Cypress,TX,77433,348940,3,2.0,Marvida,1702,6585,2024,1,205,103,Active,,,https://www.redfin.com/TX/Cypress/7926-Palm-Sails-Ln-77433/home/192593094,HARMLS,22243343,N,Y,29.8926264,-95.7315161
MLS Listing,,Single Family Residential,12342 Kings Meadow Dr,Houston,TX,77044,214900,3,2.5,Kings Lake Forest Sec 01 R/p,1236,6760,2018,1,174,28,Active,,,https://www.redfin.com/TX/Houston/12342-Kings-Meadow-Dr-77044/home/145175126,HARMLS,27841497,N,Y,29.9004329,-95.2232568
MLS Listing,,Single Family Residential,12614 Hunting Briar Dr,Houston,TX,77099,229000,3,2.0,Huntington Village Sec 04,1796,7475,1975,1,128,15,Active,,,https://www.redfin.com/TX/Houston/12614-Hunting-Briar-Dr-77099/home/30309753,HARMLS,88457889,N,Y,29.6698401,-95.6060658
MLS Listing,,Single Family Residential,4110 Terry St,Houston,TX,77009,399000,3,2.5,Terry View,1815,2500,2024,1,220,,Active,,,https://www.redfin.com/TX/Houston/4110-Terry-St-77009/home/190824834,HARMLS,91368414,N,Y,29.7978415,-95.353037
MLS Listing,,Single Family Residential,1458 Oak Tree Dr,Houston,TX,77055,350000,2,1.0,Long Point Woods,941,9100,1954,1,372,,Active,,,https://www.redfin.com/TX/Houston/1458-Oak-Tree-Dr-77055/home/30056132,HARMLS,76047073,N,Y,29.7963562,-95.5260894
MLS Listing,,Single Family Residential,10019 Green Tree Rd,Houston,TX,77042,945000,3,2.5,Briargrove Park,2393,10019,1962,1,395,62,Active,,,https://www.redfin.com/TX/Houston/10019-Green-Tree-Rd-77042/home/30160783,HARMLS,88164427,N,Y,29.7564719,-95.5501207
MLS Listing,,Single Family Residential,2345 Paul Quinn St,Houston,TX,77091,339900,3,2.5,Estates/west Tidwell,1935,2925,2024,1,176,29,Active,,,https://www.redfin.com/TX/Houston/2345-Paul-Quinn-St-77091/home/176860230,HARMLS,82833108,N,Y,29.847782,-95.445223
MLS Listing,,Single Family Residential,21126 Garden Palm,Cypress,TX,77433,345290,3,2.0,Marvida,1683,5820,2024,1,205,103,Active,,,https://www.redfin.com/TX/Cypress/21126-Garden-Palm-Dr-77433/home/192592398,HARMLS,40400040,N,Y,29.8933454,-95.7318243
MLS Listing,,Single Family Residential,6302 W Mystic Meadow Mdw,Houston,TX,77021,1140000,5,4.5,Hermann Lake,4528,5437,2003,1,252,333,Pre On-Market,,,https://www.redfin.com/TX/Houston/6302-W-Mystic-Mdw-77021/home/29160034,HARMLS,95733030,N,Y,29.7096143,-95.3808478
MLS Listing,,Single Family Residential,11003 Malden Dr,Houston,TX,77075,285000,3,2.0,Bridgegate Sec 3,1911,6647,2001,1,149,,Active,,,https://www.redfin.com/TX/Houston/11003-Malden-Dr-77075/home/30720347,HARMLS,20420365,N,Y,29.6055765,-95.2507046
MLS Listing,,Vacant Land,6523 Tuskegee St,Houston,TX,77091,166000,,,Highland Heights,,6000,,1,,,Active,,,https://www.redfin.com/TX/Houston/6523-Tuskegee-St-77091/home/29685205,HARMLS,40832627,N,Y,29.858929,-95.426156
MLS Listing,,Single Family Residential,5542 Ambern Dr,Houston,TX,77053,220000,3,2.0,Briar Villa Sec 1,1258,5400,1983,1,175,23,Active,,,https://www.redfin.com/TX/Houston/5542-Ambern-Dr-77053/home/32822913,HARMLS,45946716,N,Y,29.5922856,-95.4699378
MLS Listing,,Single Family Residential,7310 Corta Calle Dr,Houston,TX,77083,260000,3,2.0,Mission Bend Sec 6,1918,7057,1979,1,136,23,Active,,,https://www.redfin.com/TX/Houston/7310-Corta-Calle-Dr-77083/home/32943450,HARMLS,73080807,N,Y,29.6954488,-95.6627217
MLS Listing,,Single Family Residential,12514 Berry Laurel Ln,Houston,TX,77014,275000,4,2.5,Laurel Oaks Sec 05 Amd,2642,7841,2000,1,104,44,Active,,,https://www.redfin.com/TX/Houston/12514-Berry-Laurel-Ln-77014/home/30683289,HARMLS,47055086,N,Y,29.970216,-95.4504875
MLS Listing,,Townhouse,5639 Kiam St Unit A,Houston,TX,77007,425000,3,3.0,Cottage Grove Sec 03,2328,2688,2004,1,183,,Active,,,https://www.redfin.com/TX/Houston/5639-Kiam-St-77007/unit-A/home/29364476,HARMLS,11646130,N,Y,29.7810093,-95.4240198
MLS Listing,,Single Family Residential,2742 Triway Ln,Houston,TX,77043,640000,4,4.0,Spring Shadows,2114,9900,1972,1,303,28,Active,,,https://www.redfin.com/TX/Houston/2742-Triway-Ln-77043/home/30233752,HARMLS,31144231,N,Y,29.8225924,-95.5490794
MLS Listing,,Single Family Residential,1621 W 23rd St Unit A,Houston,TX,77008,579000,3,3.5,Shady Acres Pt Rep 6,2365,3281,2012,1,245,222,Active,September-22-2024 02:00 PM,September-22-2024 04:00 PM,https://www.redfin.com/TX/Houston/1621-W-23rd-St-77008/unit-A/home/40211388,HARMLS,38943052,N,Y,29.8068652,-95.4281085
MLS Listing,,Single Family Residential,615 Northew St Unit C,Houston,TX,77091,299888,3,2.5,Northew Square,1552,1700,2024,1,193,117,Active,,,https://www.redfin.com/TX/Houston/615-Northew-St-77091/unit-C/home/192591768,HARMLS,10388622,N,Y,29.8507272,-95.4100663
MLS Listing,,Single Family Residential,3743 Addicks Clodine Rd,Houston,TX,77082,269000,3,2.0,Clayton Sec 02,1492,7500,1999,1,180,38,Pre On-Market,,,https://www.redfin.com/TX/Houston/3743-Addicks-Clodine-Rd-77082/home/30384614,HARMLS,47743878,N,Y,29.7144166,-95.6600713
MLS Listing,,Single Family Residential,5930 Mcknight St,Houston,TX,77035,460000,4,2.5,Parkwest Sec 03,2337,8400,1964,1,197,,Active,,,https://www.redfin.com/TX/Houston/5930-McKnight-St-77035/home/30166411,HARMLS,49280143,N,Y,29.655645,-95.494946
MLS Listing,,Single Family Residential,11115 Hillcroft St,Houston,TX,77096,475000,4,3.0,Parkwest Sec 02,2307,10920,1973,1,206,24,Active,,,https://www.redfin.com/TX/Houston/11115-Hillcroft-St-77096/home/30147626,HARMLS,64955625,N,Y,29.6581272,-95.4916683
MLS Listing,,Townhouse,9013 Lonestar Creekbend Ln,Houston,TX,77080,345000,3,2.0,Spring Branch Twnhms,1596,1400,2021,1,216,158,Active,,,https://www.redfin.com/TX/Houston/9013-Lonestar-Creekbend-Ln-77080/home/170257053,HARMLS,19414100,N,Y,29.8075869,-95.513161
MLS Listing,,Single Family Residential,930 Chantilly Ln,Houston,TX,77018,799000,3,2.5,Shepherd Park Plaza Sec 02 R/p,2190,8400,1965,1,365,,Active,September-21-2024 02:00 PM,September-21-2024 04:00 PM,https://www.redfin.com/TX/Houston/930-Chantilly-Ln-77018/home/30178802,HARMLS,67957772,N,Y,29.8333746,-95.4180713
MLS Listing,,Single Family Residential,6807 Hopper Rd,Houston,TX,77016,159950,4,1.5,Northwood Manor,1025,7750,1962,1,156,,Active,,,https://www.redfin.com/TX/Houston/6807-Hopper-Rd-77016/home/30245669,HARMLS,79646554,N,Y,29.8784582,-95.2886703
MLS Listing,,Single Family Residential,725 E 37th St,Houston,TX,77022,499000,3,2.5,Independence Heights,2100,2399,2024,1,238,,Active,,,https://www.redfin.com/TX/Houston/725-E-37th-St-77022/home/192562175,HARMLS,61337244,N,Y,29.8203794,-95.3893243
MLS Listing,,Single Family Residential,2415 Jasmine Ridge Ct,Houston,TX,77062,325000,4,2.5,Northfork Sec 6,2536,7482,1997,1,128,50,Pre On-Market,,,https://www.redfin.com/TX/Houston/2415-Jasmine-Ridge-Ct-77062/home/30666921,HARMLS,51134874,N,Y,29.5938388,-95.1388683
MLS Listing,,Townhouse,4918 Yoakum Blvd,Houston,TX,77006,625000,3,3.5,Turner N/p,2124,2189,1985,1,294,,Pre On-Market,,,https://www.redfin.com/TX/Houston/4918-Yoakum-Blvd-77006/home/29761882,HARMLS,74183355,N,Y,29.728664,-95.392978
MLS Listing,,Condo/Co-op,14555 Wunderlich Dr #3501,Houston,TX,77069,179900,2,2.0,Trophy Club Condo Sec 01 Ph 02,1223,463557,1981,1,147,353,Active,,,https://www.redfin.com/TX/Houston/14555-Wunderlich-Dr-77069/unit-3501/home/30448257,HARMLS,65296922,N,Y,29.992058,-95.512915
MLS Listing,,Single Family Residential,18130 Somerset Knls,Houston,TX,77094,448000,3,2.0,Green Trails Crossing Sec 01,2244,6668,1995,1,200,108,Pre On-Market,,,https://www.redfin.com/TX/Houston/18130-Somerset-Knls-77094/home/30658119,HARMLS,20410470,N,Y,29.7808437,-95.6919434
MLS Listing,,Single Family Residential,13407 Spring Line Ct,Houston,TX,77086,339000,5,2.5,Blue Creek Sec 06,3331,6192,2005,1,102,37,Active,,,https://www.redfin.com/TX/Houston/13407-Spring-Line-Ct-77086/home/29268572,HARMLS,55457418,N,Y,29.929274,-95.5113986
MLS Listing,,Single Family Residential,9710 Valiant Dr,Houston,TX,77044,175000,4,2.0,Fauna Mobile Estates,1856,12600,1980,1,94,,Active,,,https://www.redfin.com/TX/Houston/9710-Valiant-Dr-77044/home/30347382,HARMLS,52962619,N,Y,29.8660495,-95.1795225
MLS Listing,,Single Family Residential,2109 Mcgowen St,Houston,TX,77004,619500,3,3.5,Modern ON Mcgowen,2294,1829,2023,1,270,150,Active,September-22-2024 12:00 PM,September-22-2024 03:00 PM,https://www.redfin.com/TX/Houston/2109-McGowen-St-77004/home/188345906,HARMLS,90163338,N,Y,29.739699,-95.3640209
MLS Listing,,Single Family Residential,9415 Barretts Glen Ct,Houston,TX,77065,359000,4,2.0,Crossroads Park,2239,7560,1997,1,160,63,Active,September-22-2024 02:00 PM,September-22-2024 04:00 PM,https://www.redfin.com/TX/Houston/9415-Barretts-Glen-Ct-77065/home/30643565,HARMLS,72243102,N,Y,29.9091518,-95.6044732
MLS Listing,,Single Family Residential,11730 Lima Dr,Houston,TX,77099,299999,3,2.0,Kirkwood Village R/p,2280,5077,1980,1,132,21,Active,,,https://www.redfin.com/TX/Houston/11730-Lima-Dr-77099/home/30414625,HARMLS,29235307,N,Y,29.6831623,-95.5854212
MLS Listing,,Single Family Residential,427 Gregg St,Houston,TX,77020,435000,3,3.5,Eado Riverside Twnhse Developm,2200,1805,2019,1,198,,Active,,,https://www.redfin.com/TX/Houston/427-Gregg-St-77020/home/161435503,HARMLS,31131744,N,Y,29.766445,-95.335855
MLS Listing,,Vacant Land,3705 Love St,Houston,TX,77026,94000,,,Collinswood Sec 01,,9000,,1,,,Active,,,https://www.redfin.com/TX/Houston/3705-Love-St-77026/home/30007108,HARMLS,2050264,N,Y,29.794452,-95.329064
MLS Listing,,Single Family Residential,1106 Olivier Ln,Houston,TX,77055,398000,3,2.5,Cedarpost Park,1580,1525,2022,1,252,183,Active,,,https://www.redfin.com/TX/Houston/1106-Olivier-Ln-77055/home/170262268,HARMLS,88779196,N,Y,29.7899551,-95.5249146
MLS Listing,,Vacant Land,2207 Nina Lee Ln,Houston,TX,77018,310000,,,Oak Forest Sec 14,,7569,,1,,,Active,,,https://www.redfin.com/TX/Houston/2207-Nina-Lee-Ln-77018/home/29994226,HARMLS,44877515,N,Y,29.8314838,-95.4513505
MLS Listing,,Condo/Co-op,11550 Chimney Rock Rd #400,Houston,TX,77035,167500,2,2.5,Westbury Square T/h Condo,1440,334827,1971,1,116,472,Active,,,https://www.redfin.com/TX/Houston/11550-Chimney-Rock-Rd-77035/unit-400/home/190884183,HARMLS,64700121,N,Y,29.6548627,-95.4797586
MLS Listing,,Single Family Residential,15910 Cavendish Dr,Houston,TX,77059,275000,3,2.0,Middlebrook Sec 02,1719,7130,1976,1,160,39,Active,,,https://www.redfin.com/TX/Houston/15910-Cavendish-Dr-77059/home/30330910,HARMLS,23205721,N,Y,29.5986546,-95.1169267
MLS Listing,,Single Family Residential,10719 Landsdowne Dr,Houston,TX,77096,557989,4,2.0,Parkwest Sec 02,2401,9240,1960,1,232,24,Active,September-21-2024 01:00 PM,September-21-2024 03:00 PM,https://www.redfin.com/TX/Houston/10719-Landsdowne-Dr-77096/home/30147163,HARMLS,96226642,N,Y,29.663672,-95.4868955
MLS Listing,,Single Family Residential,970 Bethlehem St,Houston,TX,77018,675000,3,2.0,Candlelight Plaza Sec 01,2198,8280,1967,1,307,,Pre On-Market,,,https://www.redfin.com/TX/Houston/970-Bethlehem-St-77018/home/30196121,HARMLS,73008648,N,Y,29.8380805,-95.4192784
MLS Listing,,Townhouse,6407 W Linpar Ct,Houston,TX,77040,275000,3,2.5,Enclave By Texas Casador,2062,1863,2003,1,133,285,Active,,,https://www.redfin.com/TX/Houston/6407-W-Linpar-Ct-77040/home/29200608,HARMLS,37473430,N,Y,29.85504,-95.507458
MLS Listing,,Condo/Co-op,5100 San Felipe St #75,Houston,TX,77056,285000,1,1.5,Four Leaf Towers Condo 22nd Am,1015,,1981,1,281,1050,Pre On-Market,,,https://www.redfin.com/TX/Houston/5100-San-Felipe-St-77056/unit-75/home/30542467,HARMLS,32302164,N,Y,29.7515355,-95.4637744
MLS Listing,,Townhouse,10323 Rockcrest Dr,Houston,TX,77041,209990,3,1.5,Westway Sec 01 R/p,1296,2321,1977,1,162,50,Active,,,https://www.redfin.com/TX/Houston/10323-Rockcrest-Dr-77041/home/30308150,HARMLS,8069410,N,Y,29.8350981,-95.549444
MLS Listing,,Single Family Residential,4733 Warm Springs Rd,Houston,TX,77035,330000,3,1.5,Post Oak Manor Sec 05,1100,7006,1957,1,300,,Active,September-22-2024 02:00 PM,September-22-2024 04:00 PM,https://www.redfin.com/TX/Houston/4733-Warm-Springs-Rd-77035/home/30130475,HARMLS,14263205,N,Y,29.6551829,-95.4588417
MLS Listing,,Single Family Residential,14815 El Grande Dr,Houston,TX,77083,319999,4,2.0,Mission Bend Msn Lwona Sec 02,2318,7752,2002,1,138,44,Active,September-21-2024 10:00 AM,September-21-2024 01:00 PM,https://www.redfin.com/TX/Houston/14815-El-Grande-Dr-77083/home/30442357,HARMLS,20571407,N,Y,29.7016239,-95.6476309
MLS Listing,,Single Family Residential,3103 Royal Crescent Dr,Houston,TX,77339,349900,3,2.0,Kingwood Lakes Village,2094,10378,1975,1,167,51,Active,September-21-2024 01:00 PM,September-21-2024 04:00 PM,https://www.redfin.com/TX/Humble/3103-Royal-Crescent-Dr-77339/home/30324316,HARMLS,54236067,N,Y,30.0441141,-95.2048329
MLS Listing,,Condo/Co-op,7555 Katy Fwy #53,Houston,TX,77024,210000,2,2.0,Bayou Woods Condo,1163,288867,1972,1,181,835,Active,,,https://www.redfin.com/TX/Houston/7555-Katy-Fwy-77024/unit-53/home/30399753,HARMLS,85709784,N,Y,29.7831752,-95.4630783
MLS Listing,,Single Family Residential,16315 Hollow Wood Dr,Houston,TX,77090,220000,3,2.0,North Forest Sec 02,1272,7150,1972,1,173,42,Active,,,https://www.redfin.com/TX/Houston/16315-Hollow-Wood-Dr-77090/home/30236511,HARMLS,92610789,N,Y,30.0037001,-95.4372341
MLS Listing,,Single Family Residential,9723 Coahuila St,Houston,TX,77013,217900,4,2.0,Eldorado,1532,6160,1970,1,142,,Active,,,https://www.redfin.com/TX/Houston/9723-Coahuila-St-77013/home/30104646,HARMLS,15698604,N,Y,29.799464,-95.2561991
MLS Listing,,Single Family Residential,20114 Cypresswood Estates Run,Spring,TX,77373,357000,4,2.5,Cypresswood Lake Sec 06,2462,6000,2008,1,145,63,Active,,,https://www.redfin.com/TX/Spring/20114-Cypresswood-Estates-Run-77373/home/29279075,HARMLS,41446019,N,Y,30.0603857,-95.42863
MLS Listing,,Single Family Residential,1323 Studer St,Houston,TX,77007,425000,2,2.5,Memorial Park Village 02 Pt Rep,1743,2029,2007,1,244,120,Active,,,https://www.redfin.com/TX/Houston/1323-Studer-St-77007/home/29429433,HARMLS,28566694,N,Y,29.7733562,-95.4162262
MLS Listing,,Single Family Residential,14210 Beech Glen Dr,Houston,TX,77083,305000,3,2.5,Beechnut Meadows,2060,3920,2003,1,148,40,Active,,,https://www.redfin.com/TX/Houston/14210-Beech-Glen-Dr-77083/home/29147663,HARMLS,57637067,N,Y,29.6898578,-95.6362042
MLS Listing,,Single Family Residential,3114 Kentucky St St,Houston,TX,77026,184900,2,1.0,Fosters,900,5000,1949,2,205,,Active,,,https://www.redfin.com/TX/Houston/3114-Kentucky-St-77026/home/29675334,HARMLS,44066620,N,Y,29.7863379,-95.3378474
MLS Listing,,Single Family Residential,8523 Alcott Dr,Houston,TX,77080,230000,3,1.0,Langwood Sec 02,1276,6270,1959,2,180,,Active,,,https://www.redfin.com/TX/Houston/8523-Alcott-Dr-77080/home/30100367,HARMLS,86036571,N,Y,29.8174863,-95.5019041
MLS Listing,,Single Family Residential,5518 Enchanted Timbers Dr,Humble,TX,77346,295000,4,2.5,Oaks Atascocita Sec 01,2516,7935,1976,2,117,42,Active,,,https://www.redfin.com/TX/Humble/5518-Enchanted-Timbers-Dr-77346/home/30334986,HARMLS,26328720,N,Y,30.0009082,-95.1906886
MLS Listing,,Townhouse,16727 Mammoth Springs Dr,Houston,TX,77095,239000,3,2.5,Canyon Lks/stonegate Sec 09,1821,3223,2013,2,131,86,Active,,,https://www.redfin.com/TX/Houston/16727-Mammoth-Springs-Dr-77095/home/66035786,HARMLS,86773306,N,Y,29.9153332,-95.6643518
MLS Listing,,Multi-Family (2-4 Unit),4650 Phlox St,Houston,TX,77051,379000,6,2.0,Flower City,3186,5000,2005,2,119,,Active,,,https://www.redfin.com/TX/Houston/4650-Phlox-St-77051/home/29988574,HARMLS,90108903,N,Y,29.6589317,-95.3567202
MLS Listing,,Multi-Family (2-4 Unit),3110 Bolt St,Houston,TX,77051,379000,6,3.0,Reedwoods,3416,7150,2006,2,111,,Active,,,https://www.redfin.com/TX/Houston/3110-Bolt-St-77051/home/30069929,HARMLS,61916938,N,Y,29.6570824,-95.3782104
MLS Listing,,Single Family Residential,19710 Whitewind Dr,Houston,TX,77094,550000,4,3.5,Green Trails Park Sec 02 Amd,3038,8400,1991,2,181,112,Active,,,https://www.redfin.com/TX/Houston/19710-Whitewind-Dr-77094/home/30621464,HARMLS,94235939,N,Y,29.7697761,-95.7144758
MLS Listing,,Single Family Residential,30006 Nanton Dr,Spring,TX,77386,375000,4,2.5,Imperial Oaks,2642,11583,1992,2,142,42,Active,,,https://www.redfin.com/TX/Spring/30006-Nanton-Dr-77386/home/33032186,HARMLS,44625999,N,Y,30.1244705,-95.4119244
MLS Listing,,Single Family Residential,1220 Neyland St,Houston,TX,77022,135000,4,2.0,Whitney Place Sec 01,1584,4300,1945,2,85,,Active,,,https://www.redfin.com/TX/Houston/1220-Neyland-St-77022/home/29886260,HARMLS,76735792,N,Y,29.825486,-95.3852672
MLS Listing,,Single Family Residential,14523 Mountain Cliff Ln,Houston,TX,77044,435000,4,3.5,Summerwood,3382,7808,2014,2,129,77,Active,,,https://www.redfin.com/TX/Houston/14523-Mountain-Cliff-Ln-77044/home/55126345,HARMLS,81449080,N,Y,29.9270369,-95.1653845
MLS Listing,,Single Family Residential,3930 Hidden Glen Dr,Houston,TX,77339,225000,4,2.5,Elm Grove Village Sec 01,2378,13011,1978,2,95,42,Active,September-21-2024 11:00 AM,September-21-2024 02:00 PM,https://www.redfin.com/TX/Kingwood/3930-Hidden-Glen-Dr-77339/home/30357660,HARMLS,43720581,N,Y,30.0697261,-95.191137
MLS Listing,,Single Family Residential,9331 Wickford Dr,Houston,TX,77024,1989500,4,4.5,Oak Hill,4951,14195,2005,2,402,,Active,,,https://www.redfin.com/TX/Houston/9331-Wickford-Dr-77024/home/30072644,HARMLS,10813313,N,Y,29.781035,-95.4691499
MLS Listing,,Vacant Land,1208 E 34th St,Houston,TX,77022,259000,,,Laurel Heights,,7620,,2,,,Active,,,https://www.redfin.com/TX/Houston/1208-E-34th-St-77022/home/29845185,HARMLS,96376459,N,Y,29.8172088,-95.3840807
MLS Listing,,Single Family Residential,7006 Narcissus St,Houston,TX,77087,150000,2,1.0,Pecan Park R/p,869,5500,1948,2,173,,Active,,,https://www.redfin.com/TX/Houston/7006-Narcissus-St-77087/home/29879488,HARMLS,50601750,N,Y,29.7067885,-95.2942085
MLS Listing,,Single Family Residential,6042 Cebra St,Houston,TX,77091,389990,3,2.5,Cebra Court,1762,3037,2024,2,221,,Active,September-21-2024 12:00 PM,September-21-2024 04:00 PM,https://www.redfin.com/TX/Houston/6042-Cebra-St-77091/home/192583982,HARMLS,67897031,N,Y,29.853164,-95.4425009
MLS Listing,,Townhouse,3028 Holly Hall St #3028,Houston,TX,77054,185000,2,2.5,Holly Hall T/h Condo,1600,677039,1984,2,116,774,Active,,,https://www.redfin.com/TX/Houston/3028-Holly-Hall-St-77054/unit-3028/home/30588708,HARMLS,39472750,N,Y,29.6859941,-95.3826173
MLS Listing,,Single Family Residential,14531 Royal Mountain Dr,Houston,TX,77090,245000,3,2.0,Eagle Lndg,1897,6050,2011,2,129,43,Active,,,https://www.redfin.com/TX/Houston/14531-Royal-Mountain-Dr-77090/home/43485119,HARMLS,26167211,N,Y,29.9942847,-95.4465983
MLS Listing,,Condo/Co-op,207 Pierce St #308,Houston,TX,77002,215000,1,1.0,Pierce Street Flats Condo,1035,21621,2007,2,208,588,Active,,,https://www.redfin.com/TX/Houston/207-Pierce-St-77002/unit-308/home/34238719,HARMLS,42169448,N,Y,29.7538058,-95.3773517
MLS Listing,,Single Family Residential,7515 Hereford St,Houston,TX,77087,284900,4,2.0,Santa Rosa Sec 03,2055,7200,1950,2,139,,Pre On-Market,,,https://www.redfin.com/TX/Houston/7515-Hereford-St-77087/home/29972361,HARMLS,26319541,N,Y,29.6804165,-95.2922069
MLS Listing,,Condo/Co-op,5343 Richmond Ave #30,Houston,TX,77056,169000,2,2.0,Courtyards Condo,1135,93606,1965,2,149,747,Active,September-21-2024 12:00 PM,September-21-2024 02:00 PM,https://www.redfin.com/TX/Houston/5343-Richmond-Ave-77056/unit-30/home/30379351,HARMLS,60125420,N,Y,29.7310263,-95.4700401
MLS Listing,,Single Family Residential,5703 Balbo St Unit G,Houston,TX,77091,404990,3,3.5,Highland Place,2062,1607,2024,2,196,,Active,,,https://www.redfin.com/TX/Houston/5703-Balbo-St-77091/unit-G/home/192462764,HARMLS,6884414,N,Y,29.848354,-95.454695
MLS Listing,,Single Family Residential,4820 Pinemont Dr Unit A,Houston,TX,77091,369990,3,3.5,Pinemont Park Place,1892,3000,2024,2,196,,Active,,,https://www.redfin.com/TX/Houston/4820-Pinemont-Dr-77092/unit-A/home/192583365,HARMLS,84603253,N,Y,29.8412718,-95.4619486
MLS Listing,,Single Family Residential,8224 Willow St Unit AB,Houston,TX,77088,650000,3,2.5,Highland Acre Homes,4150,7750,2024,2,157,,Active,,,https://www.redfin.com/TX/Houston/8224-Willow-St-77088/unit-AB/home/192583363,HARMLS,32579497,N,Y,29.8762278,-95.4351742
MLS Listing,,Multi-Family (2-4 Unit),7318 Dahlia St,Houston,TX,77012,500000,4,1.0,Pecan Park,2592,8153,1949,2,193,,Active,,,https://www.redfin.com/TX/Houston/7318-Dahlia-St-77012/home/29878397,HARMLS,21467299,N,Y,29.7142728,-95.2877273
MLS Listing,,Single Family Residential,4711 Country Spring Rd,Houston,TX,77084,369900,4,2.0,Rolling Creek,2376,7131,2001,2,156,38,Pre On-Market,,,https://www.redfin.com/TX/Houston/4711-Country-Spring-Rd-77084/home/30589843,HARMLS,58704447,N,Y,29.8399952,-95.6992819
MLS Listing,,Single Family Residential,4424 Edmund St,Houston,TX,77020,459990,3,3.5,Oleander Crossing,2013,2312,2024,2,229,,Active,,,https://www.redfin.com/TX/Houston/4424-Edmund-St-77020/home/192458107,HARMLS,59365888,N,Y,29.7670975,-95.3251502
MLS Listing,,Single Family Residential,513 Egan St,Houston,TX,77020,449990,3,3.5,Oleander Crossing,2118,1710,2024,2,212,,Active,,,https://www.redfin.com/TX/Houston/513-Egan-St-77020/home/29812447,HARMLS,25339517,N,Y,29.7668028,-95.3252282
MLS Listing,,Single Family Residential,5703 Balbo St Unit B,Houston,TX,77091,404990,3,3.5,Highland Place,2062,1606,2024,2,196,,Active,,,https://www.redfin.com/TX/Houston/5703-Balbo-St-77091/unit-B/home/192462814,HARMLS,50891016,N,Y,29.848354,-95.454695
MLS Listing,,Single Family Residential,5703 Balbo St Unit D,Houston,TX,77091,399990,3,3.5,Highland Place,2062,1607,2024,2,194,,Active,,,https://www.redfin.com/TX/Houston/5703-Balbo-St-77091/unit-D/home/192462664,HARMLS,53695897,N,Y,29.848354,-95.454695
MLS Listing,,Single Family Residential,6515 Beldart St,Houston,TX,77087,220000,3,1.5,Overbrook Sec 02,1122,6480,1955,2,196,,Active,,,https://www.redfin.com/TX/Houston/6515-Beldart-St-77087/home/30056436,HARMLS,58160703,N,Y,29.6633994,-95.3127508
MLS Listing,,Single Family Residential,5827 Petty St,Houston,TX,77007,475000,2,1.0,Cottage Grove Sec 04,895,5025,1930,2,531,,Active,,,https://www.redfin.com/TX/Houston/5827-Petty-St-77007/home/29660332,HARMLS,90849351,N,Y,29.7802628,-95.427843
MLS Listing,,Single Family Residential,9506 Winter Run Dr,Houston,TX,77064,395000,4,2.5,Willowlake Sec 01,2240,10748,1994,2,176,58,Active,,,https://www.redfin.com/TX/Houston/9506-Winter-Run-Dr-77064/home/30653044,HARMLS,48582483,N,Y,29.9103451,-95.5581844
MLS Listing,,Single Family Residential,9922 Victoria Grove Lane Ln,Houston,TX,77075,255000,3,2.5,Victoria Park Sec 01,1963,4689,2004,2,130,25,Active,,,https://www.redfin.com/TX/Houston/9922-Victoria-Grove-Ln-77075/home/29223900,HARMLS,45260112,N,Y,29.6240505,-95.2380163
MLS Listing,,Single Family Residential,3003 Pelon Cay Dr,Houston,TX,77051,309990,4,2.5,Cay Landing,,,2024,2,,83,Active,,,https://www.redfin.com/TX/Houston/3003-Pelon-Cay-DR-77051/home/192582220,HARMLS,73153115,N,Y,29.833916,-95.64722
MLS Listing,,Townhouse,15600 Barkers Landing Rd #20,Houston,TX,77079,530000,3,3.5,Barker Place T/h,3228,5112,1981,2,164,333,Active,,,https://www.redfin.com/TX/Houston/15600-Barkers-Landing-Rd-77079/unit-20/home/30418213,HARMLS,7627519,N,Y,29.779205,-95.6311321
MLS Listing,,Single Family Residential,3019 Pelon Cay Dr,Houston,TX,77047,299990,4,2.5,Cay Landing,,2776,2024,2,,83,Active,,,https://www.redfin.com/TX/Houston/3019-Pelon-Cay-DR-77047/home/192582209,HARMLS,90716981,N,Y,29.815104,-95.484798
MLS Listing,,Single Family Residential,3007 Pelon Cay Dr,Houston,TX,77047,299990,4,2.5,Cay Landing,1659,2415,2024,2,181,83,Active,,,https://www.redfin.com/TX/Houston/3007-Pelon-Cay-DR-77047/home/192582202,HARMLS,4860247,N,Y,29.815104,-95.484798
MLS Listing,,Single Family Residential,1213 Noble St,Houston,TX,77009,329900,3,2.0,Little & Dickinson,1308,5000,1945,2,252,,Active,,,https://www.redfin.com/TX/Houston/1213-Noble-St-77009/home/29709903,HARMLS,85136565,N,Y,29.780626,-95.3553346
MLS Listing,,Single Family Residential,108 E 27th St,Houston,TX,77008,524000,2,2.0,Sunset Heights,912,4500,1920,2,575,,Active,,,https://www.redfin.com/TX/Houston/108-E-27th-St-77008/home/29756855,HARMLS,7701841,N,Y,29.8111506,-95.3986271
MLS Listing,,Condo/Co-op,10855 Meadowglen Ln #1124,Houston,TX,77042,155000,2,2.0,Riverstone 02 Condo Ph 02,1080,99275,1982,2,144,462,Active,,,https://www.redfin.com/TX/Houston/10855-Meadowglen-Ln-77042/unit-1124/home/30526386,HARMLS,75436919,N,Y,29.7317466,-95.5660146
MLS Listing,,Single Family Residential,635 Creek Forest Ln,Spring,TX,77380,250000,4,2.5,Vicksburg,2251,9506,1974,2,111,42,Pre On-Market,,,https://www.redfin.com/TX/Spring/635-Creek-Forest-Ln-77380/home/33201381,HARMLS,2697091,N,Y,30.1313189,-95.4554621
MLS Listing,,Single Family Residential,340 W 26th St,Houston,TX,77008,739900,3,2.5,Houston Heights,2532,4032,2024,2,292,,Active,September-21-2024 12:00 PM,September-21-2024 05:00 PM,https://www.redfin.com/TX/Houston/340-W-26th-St-77008/home/180694087,HARMLS,11670898,N,Y,29.8096307,-95.4030894
MLS Listing,,Single Family Residential,2911 Riata Ln,Houston,TX,77043,895000,5,3.5,Spring Shadows Reserve D S,3590,8880,1973,2,249,28,Pre On-Market,,,https://www.redfin.com/TX/Houston/2911-Riata-Ln-77043/home/30284124,HARMLS,66174958,N,Y,29.8256647,-95.5470859
MLS Listing,,Multi-Family (2-4 Unit),7926 Gladstone Street St,Sunnyside,TX,77051,479900,0,2.0,Sunnyside Place,,2420,2024,2,,,Active,,,https://www.redfin.com/TX/Houston/7926-Gladstone-St-77051/home/192581996,HARMLS,58470310,N,Y,29.6761624,-95.3682237
MLS Listing,,Townhouse,1222 Glenwood Canyon Ln,Houston,TX,77077,321000,3,2.5,Terraces/memorial,2134,2780,2009,2,150,500,Active,,,https://www.redfin.com/TX/Houston/1222-Glenwood-Canyon-Ln-77077/home/34092823,HARMLS,23419222,N,Y,29.765704,-95.6437536
MLS Listing,,Single Family Residential,1110 Twin Falls Rd,Houston,TX,77088,238000,3,2.0,Hidden Valley Sec 05,1344,9000,1966,2,177,4,Active,,,https://www.redfin.com/TX/Houston/1110-Twin-Falls-Rd-77088/home/30194314,HARMLS,73090813,N,Y,29.8977247,-95.4203219
MLS Listing,,Single Family Residential,627 Bizerte St,Houston,TX,77022,180000,3,1.5,Glenburnie Sec 03,1136,8400,1956,2,158,,Active,,,https://www.redfin.com/TX/Houston/627-Bizerte-St-77022/home/30099610,HARMLS,73585405,N,Y,29.8379999,-95.3897017
MLS Listing,,Vacant Land,0 Bertwood Rd,Houston,TX,77016,169900,,,Shadydale,,15776,,2,,,Active,,,https://www.redfin.com/TX/Houston/Bertwood-St-77016/home/30205409,HARMLS,60299149,N,Y,29.852832,-95.310779
MLS Listing,,Single Family Residential,4822 Whispering Falls Dr,Houston,TX,77084,249900,4,2.0,Bear Creek Village Sec 09,2663,7140,1977,2,94,39,Active,,,https://www.redfin.com/TX/Houston/4822-Whispering-Falls-Dr-77084/home/30362540,HARMLS,56072291,N,Y,29.8467041,-95.6362863
MLS Listing,,Single Family Residential,9409 Blalock Tree Ct,Houston,TX,77080,349500,3,2.5,Blalock Park,1986,1766,2014,2,176,180,Pre On-Market,,,https://www.redfin.com/TX/Houston/9409-Blalock-Tree-Ct-77080/home/52965124,HARMLS,38866919,N,Y,29.816582,-95.523366
MLS Listing,,Single Family Residential,5440 Huckleberry Ln,Houston,TX,77056,3875000,6,8.0,Tanglewood,8501,22440,2004,2,456,202,Active,,,https://www.redfin.com/TX/Houston/5440-Huckleberry-Ln-77056/home/30016906,HARMLS,35852801,N,Y,29.7508623,-95.4697894
MLS Listing,,Single Family Residential,15819 Mesa Gardens Dr,Houston,TX,77095,384900,4,2.5,Copperfield Southdown Village,2747,9000,1982,2,140,57,Active,,,https://www.redfin.com/TX/Houston/15819-Mesa-Gardens-Dr-77095/home/30473006,HARMLS,71011686,N,Y,29.88657,-95.6484708
MLS Listing,,Single Family Residential,6315 Maple Hill Dr,Houston,TX,77088,250000,4,3.5,Chateau Forest Sec 01 R/p & Ext,1608,6820,1966,2,155,,Active,September-21-2024 11:00 AM,September-21-2024 02:00 PM,https://www.redfin.com/TX/Houston/6315-Maple-Hill-Dr-77088/home/30220629,HARMLS,20533989,N,Y,29.870451,-95.4851339
MLS Listing,,Single Family Residential,5511 Green Timbers Dr,Humble,TX,77346,389900,5,3.5,Oaks Atascocita Sec 01,3082,7616,1976,2,127,43,Active,,,https://www.redfin.com/TX/Humble/5511-Green-Timbers-Dr-77346/home/30334979,HARMLS,598202,N,Y,30.0005971,-95.1911573
MLS Listing,,Single Family Residential,11034 Stoneridge Canyon Ct,Houston,TX,77089,315000,3,2.5,Riverstone Ranch Sec 02,1752,6290,2002,2,180,60,Pre On-Market,,,https://www.redfin.com/TX/Houston/11034-Stoneridge-Canyon-Ct-77089/home/29188640,HARMLS,54131289,N,Y,29.5811399,-95.2465931
MLS Listing,,Single Family Residential,12006 Sambuco Ct,Richmond,TX,77406,429000,3,3.5,Lakes of Bella Terra,2541,5443,2016,2,169,93,Pre On-Market,,,https://www.redfin.com/TX/Richmond/12006-Sambuco-Ct-77406/home/109806027,HARMLS,8960852,N,Y,29.6952463,-95.7911484
MLS Listing,,Condo/Co-op,9538 Pagewood Ln #9538,Houston,TX,77063,95000,2,2.5,Tanglewilde South Condo Sec 01,1224,222260,1978,2,78,409,Active,,,https://www.redfin.com/TX/Houston/9538-Pagewood-Ln-77063/unit-9538/home/147209453,HARMLS,3962499,N,Y,29.7249569,-95.5331889
MLS Listing,,Single Family Residential,18019 Hollywell Dr,Houston,TX,77084,349999,4,2.5,Deerfield Village Sec 02,2449,9800,1978,2,143,77,Active,,,https://www.redfin.com/TX/Houston/18019-Hollywell-Dr-77084/home/30354150,HARMLS,69928173,N,Y,29.8404631,-95.6764234
MLS Listing,,Single Family Residential,925 W 21st St,Houston,TX,77008,529900,3,3.5,Costa Del Sol,2660,1962,2006,2,199,125,Active,,,https://www.redfin.com/TX/Houston/925-W-21st-St-77008/home/29499364,HARMLS,14018854,N,Y,29.8049379,-95.4156572
MLS Listing,,Single Family Residential,5003 Higgins St Unit A,Houston,TX,77033,285000,3,2.5,Higgins Manor,1892,3705,2019,2,151,,Active,,,https://www.redfin.com/TX/Houston/5003-Higgins-St-77033/unit-A/home/170042487,HARMLS,26550555,N,Y,29.6546044,-95.3484706
MLS Listing,,Single Family Residential,4517 Normandy Way,Houston,TX,77021,275000,2,1.0,Southern Village,1102,7936,1941,2,250,,Active,,,https://www.redfin.com/TX/Houston/4517-Normandy-Way-77021/home/29968480,HARMLS,66657837,N,Y,29.6996243,-95.3476237
