SALE TYPE,SOLD DATE,PROPERTY TYPE,ADDRESS,CITY,STATE OR PROVINCE,ZIP OR POSTAL CODE,PRICE,BEDS,BATHS,LOCATION,SQUARE FEET,LOT SIZE,YEAR BUILT,DAYS ON MARKET,$/SQUARE FEET,HOA/MONTH,STATUS,NEXT OPEN HOUSE START TIME,NEXT OPEN HOUSE END TIME,URL (SEE https://www.redfin.com/buy-a-home/comparative-market-analysis FOR INFO ON PRICING),SOURCE,MLS#,FAVORITE,INTERESTED,LATITUDE,LONGITUDE
MLS Listing,,Single Family Residential,8815 Sharpview Dr,Houston,TX,77036,235000,4,2.0,Sharpstown Country Club Terrac,1951,8330,1968,1,120,21,Active,,,https://www.redfin.com/TX/Houston/8815-Sharpview-Dr-77036/home/30163589,HARMLS,41353621,N,Y,29.6979095,-95.5397868
MLS Listing,,Single Family Residential,9226 Kerrwood Ln,Houston,TX,77080,744900,4,2.5,Spring Branch Estates Sec 02,2389,23900,2000,1,312,2,Pre On-Market,,,https://www.redfin.com/TX/Houston/9226-Kerrwood-Ln-77080/home/29964751,HARMLS,8906440,N,Y,29.8124165,-95.5189606
MLS Listing,,Single Family Residential,1630 Live Oak St,Houston,TX,77003,430000,3,3.0,Signe Oaks,1972,1744,2007,2,218,83,Pre On-Market,,,https://www.redfin.com/TX/Houston/1630-Live-Oak-St-77003/home/29429455,HARMLS,84404476,N,Y,29.7438089,-95.3555556
MLS Listing,,Townhouse,52 Legend Ln,Houston,TX,77024,665000,3,3.0,Legend Lane T/h R/p,3005,2400,1973,4,221,167,Pre On-Market,,,https://www.redfin.com/TX/Houston/52-Legend-Ln-77024/home/30224114,HARMLS,31247262,N,Y,29.7614547,-95.5541347
MLS Listing,,Single Family Residential,13419 Popes Creek Ln,Houston,TX,77044,450000,4,2.5,Summerwood,2824,9044,2005,4,159,77,Pre On-Market,,,https://www.redfin.com/TX/Houston/13419-Popes-Creek-Ln-77044/home/29327676,HARMLS,3837776,N,Y,29.9213921,-95.1703141
MLS Listing,,Single Family Residential,3519 Westridge St,Houston,TX,77025,440000,3,2.0,Woodside Sec 02,2268,7504,1955,4,194,,Active,,,https://www.redfin.com/TX/Houston/3519-Westridge-St-77025/home/30069563,HARMLS,11520971,N,Y,29.6818421,-95.4323861
MLS Listing,,Single Family Residential,10026 Fairplum Dr,Houston,TX,77099,221000,3,2.0,Keegans Glen Sec 06 R/p,1216,5580,1983,4,182,26,Active,,,https://www.redfin.com/TX/Houston/10026-Fairplum-Dr-77099/home/30510379,HARMLS,77719320,N,Y,29.6687407,-95.5884563
MLS Listing,,Single Family Residential,2110 Willowlake Dr,Houston,TX,77077,430000,4,2.5,Shadowbriar,2755,8050,1981,4,156,52,Active,,,https://www.redfin.com/TX/Houston/2110-Willowlake-Dr-77077/home/30396094,HARMLS,88339652,N,Y,29.7424453,-95.5946755
MLS Listing,,Single Family Residential,5607 Evening Shore Dr,Houston,TX,77041,625000,5,3.5,Lakes On Eldridge,3942,10132,1995,5,159,155,Active,,,https://www.redfin.com/TX/Houston/5607-Evening-Shore-Dr-77041/home/30659674,HARMLS,27233327,N,Y,29.8494136,-95.5990056
MLS Listing,,Single Family Residential,3935 Alberta St,Houston,TX,77021,245000,4,2.0,Scott Terrace,1673,6150,1951,5,146,,Active,,,https://www.redfin.com/TX/Houston/3935-Alberta-St-77021/home/30019484,HARMLS,31165255,N,Y,29.6942115,-95.3596398
MLS Listing,,Single Family Residential,7255 Shady Arbor Ln,Houston,TX,77040,219000,3,2.0,Woodland Trails Sec 04,1571,7320,1972,5,139,10,Active,September-21-2024 12:00 PM,September-21-2024 02:00 PM,https://www.redfin.com/TX/Houston/7255-Shady-Arbor-Ln-77040/home/30266872,HARMLS,56905337,N,Y,29.8719174,-95.4998032
MLS Listing,,Single Family Residential,3918 Brook Shadow Dr,Kingwood,TX,77345,475000,4,2.0,Greentree Village,2570,8540,1987,5,185,40,Active,,,https://www.redfin.com/TX/Kingwood/3918-Brook-Shadow-Dr-77345/home/30551475,HARMLS,98820992,N,Y,30.0632996,-95.1783
MLS Listing,,Single Family Residential,3319 Palm St,Houston,TX,77004,295000,3,2.0,Southwood,1650,6900,1945,6,179,,Active,,,https://www.redfin.com/TX/Houston/3319-Palm-St-77004/home/29897478,HARMLS,47922340,N,Y,29.7161798,-95.364456
MLS Listing,,Single Family Residential,1603 Knox St Unit B,Houston,TX,77007,775000,3,3.5,Woodcrest,3162,2500,2014,6,245,,Pre On-Market,,,https://www.redfin.com/TX/Houston/1603-Knox-St-77007/unit-B/home/108960190,HARMLS,76274765,N,Y,29.7748242,-95.4213118
MLS Listing,,Single Family Residential,2611 Riverside Dr Unit E,Houston,TX,77004,424990,3,3.5,Hutchinson,2071,2214,2017,8,205,100,Active,,,https://www.redfin.com/TX/Houston/2611-Riverside-Dr-77004/unit-E/home/171401423,HARMLS,41547714,N,Y,29.715328,-95.3743645
MLS Listing,,Single Family Residential,13526 Hammond Hills Ln,Houston,TX,77044,525000,4,3.5,Summerwood,3858,10029,2010,8,136,83,Active,,,https://www.redfin.com/TX/Houston/13526-Hammond-Hills-Ln-77044/home/34229592,HARMLS,71925135,N,Y,29.9182541,-95.1681752
MLS Listing,,Single Family Residential,14623 Monterey Cypress Dr,Houston,TX,77068,355000,4,2.5,Cypress Creek Crossing,2596,5625,2020,11,137,54,Active,,,https://www.redfin.com/TX/Houston/14623-Monterey-Cypress-Dr-77068/home/176862556,HARMLS,62170360,N,Y,29.9989455,-95.5013585
MLS Listing,,Single Family Residential,18302 Mossy Creek Ln,Richmond,TX,77407,369900,4,3.5,Mission Sierra Sec 5,2561,5400,2013,11,144,64,Active,,,https://www.redfin.com/TX/Richmond/18302-Mossy-Creek-Ln-77407/home/33244978,HARMLS,25582741,N,Y,29.6835932,-95.6989324
MLS Listing,,Single Family Residential,7615 Brae Acres Ct,Houston,TX,77074,440000,3,2.5,Mockingbird,2686,3500,2000,12,164,125,Active,,,https://www.redfin.com/TX/Houston/7615-Brae-Acres-Ct-77074/home/30549971,HARMLS,33125992,N,Y,29.6826039,-95.5211126
MLS Listing,,Single Family Residential,14214 Parable Ln,Cypress,TX,77429,484999,3,3.5,Northlake Forest,3306,7969,2006,13,147,83,Active,,,https://www.redfin.com/TX/Cypress/14214-Parable-Ln-77429/home/29216996,HARMLS,94313036,N,Y,29.9858705,-95.6588181
MLS Listing,,Single Family Residential,9519 Bertwood St,Houston,TX,77016,159000,3,1.5,Tidwell Timbers,1015,7315,1964,14,157,,Active,,,https://www.redfin.com/TX/Houston/9519-Bertwood-St-77016/home/30165073,HARMLS,70784330,N,Y,29.8492426,-95.3101484
MLS Listing,,Single Family Residential,13014 Caldbeck Creek Ln,Houston,TX,77044,260000,3,2.0,Hidden Meadows,1766,6178,2017,14,147,21,Active,,,https://www.redfin.com/TX/Houston/13014-Caldbeck-Creek-Ln-77044/home/167834173,HARMLS,55744864,N,Y,29.8634833,-95.1995538
MLS Listing,,Condo/Co-op,2000 Bagby St #11439,Houston,TX,77002,292000,1,1.5,Rise Condo,857,,2004,19,341,430,Active,,,https://www.redfin.com/TX/Houston/2000-Bagby-St-77002/unit-11439/home/29515805,HARMLS,41312537,N,Y,29.7526195,-95.3765748
MLS Listing,,Condo/Co-op,2574 Marilee Ln #37,Houston,TX,77057,125000,2,2.0,Wharton House Condo,989,57636,1960,19,126,565,Active,,,https://www.redfin.com/TX/Houston/2574-Marilee-Ln-77057/unit-37/home/30380167,HARMLS,15028486,N,Y,29.7401572,-95.4990024
MLS Listing,,Single Family Residential,15818 Munson Ln,Houston,TX,77053,245000,3,2.0,Ridgegate Sub Sec 1,1596,6599,1978,22,154,15,Active,,,https://www.redfin.com/TX/Houston/15818-Munson-Ln-77053/home/33014708,HARMLS,75143248,N,Y,29.5968528,-95.4744889
MLS Listing,,Single Family Residential,13907 Skylark Bend Ln,Cypress,TX,77429,675000,4,3.5,Enclave/longwood,3688,7800,2020,25,183,92,Active,,,https://www.redfin.com/TX/Cypress/13907-Skylark-Bend-Ln-77429/home/167829275,HARMLS,67412161,N,Y,29.9795009,-95.6489343
MLS Listing,,Single Family Residential,1022 Patterson St,Houston,TX,77007,499900,3,3.5,Patterson Street Lndg,2163,1717,2017,25,231,108,Active,,,https://www.redfin.com/TX/Houston/1022-Patterson-St-77007/home/112825892,HARMLS,90776976,N,Y,29.7709434,-95.4056336
MLS Listing,,Single Family Residential,11223 Rocky Mill Dr,Cypress,TX,77429,300000,4,2.5,Mill Ridge North,2316,7800,1984,26,130,45,Active,,,https://www.redfin.com/TX/Cypress/11223-Rocky-Mill-Dr-77429/home/30473314,HARMLS,64979608,N,Y,29.9527782,-95.5899615
MLS Listing,,Single Family Residential,406 Avondale St,Houston,TX,77006,1575000,5,4.0,Montrose Add Amd,3632,6500,1922,26,434,,Active,,,https://www.redfin.com/TX/Houston/406-Avondale-St-77006/home/29723072,HARMLS,58542247,N,Y,29.7451547,-95.3864617
MLS Listing,,Single Family Residential,3818 Brandt St,Houston,TX,77006,899000,4,3.0,Bute,2857,5625,1930,26,315,,Active,,,https://www.redfin.com/TX/Houston/3818-Brandt-St-77006/home/29655859,HARMLS,34662109,N,Y,29.7382136,-95.3837439
MLS Listing,,Multi-Family (2-4 Unit),8705 Westcott Rd Unit A/B,Houston,TX,77016,415000,9,2.0,Gods Plan ON Westcott,2550,7521,2022,27,163,,Active,,,https://www.redfin.com/TX/Houston/8705-Westcott-Rd-77016/unit-A/home/181153612,HARMLS,57317144,N,Y,29.8390511,-95.30288
MLS Listing,,Single Family Residential,1105 W 17th St,Houston,TX,77008,399900,3,2.5,Trinity Xing,2246,2142,2007,32,178,120,Active,,,https://www.redfin.com/TX/Houston/1105-W-17th-St-77008/home/29337387,HARMLS,88668434,N,Y,29.8009818,-95.4184089
MLS Listing,,Townhouse,8710 Beverlyhill St #204,Houston,TX,77063,240000,2,2.0,Contemporary West Twnhse Condo,1492,98984,2014,32,161,345,Active,,,https://www.redfin.com/TX/Houston/8710-Beverlyhill-St-77063/unit-204/home/29517660,HARMLS,45297451,N,Y,29.7300603,-95.5173211
MLS Listing,,Single Family Residential,2612 W Tidwell Rd,Houston,TX,77091,415000,3,2.5,Estates/hlnd Heights,2178,4550,2019,32,191,150,Active,,,https://www.redfin.com/TX/Houston/2612-W-Tidwell-Rd-77091/home/170260688,HARMLS,54153455,N,Y,29.847187,-95.4483177
MLS Listing,,Single Family Residential,6729 Tournament Dr,Houston,TX,77069,325000,3,2.0,Champions Creek,2159,3500,1983,32,151,125,Active,,,https://www.redfin.com/TX/Houston/6729-Tournament-Dr-77069/home/30553437,HARMLS,74026662,N,Y,29.9876231,-95.5391182
MLS Listing,,Townhouse,1709 W 15th St,Houston,TX,77008,505000,3,2.5,Dian Court,2544,2325,2008,33,199,,Active,,,https://www.redfin.com/TX/Houston/1709-W-15th-St-77008/home/29625833,HARMLS,66869322,N,Y,29.7979606,-95.4137083
MLS Listing,,Single Family Residential,15802 Mission Estates Ct,Houston,TX,77083,415000,5,3.5,Mission Glen Reserves,3809,9148,1995,35,109,33,Active,,,https://www.redfin.com/TX/Houston/15802-Mission-Estates-Ct-77083/home/32954000,HARMLS,56867838,N,Y,29.6874597,-95.6636368
MLS Listing,,Multi-Family (2-4 Unit),5518 Deep Forest Dr,Houston,TX,77092,385000,6,4.0,Forest West Sec 01,3215,8510,1968,39,120,17,Active,,,https://www.redfin.com/TX/Houston/5518-Deep-Forest-Dr-77092/home/30188860,HARMLS,39252746,N,Y,29.845327,-95.4745
MLS Listing,,Townhouse,1353 Studer St,Houston,TX,77007,500000,3,2.5,Memorial Park Village Two,2192,1778,2007,40,228,120,Active,,,https://www.redfin.com/TX/Houston/1353-Studer-St-77007/home/29429448,HARMLS,61219541,N,Y,29.7739225,-95.4160294
MLS Listing,,Single Family Residential,4114 Lemac Dr,Houston,TX,77025,289000,3,2.0,Westwood,1579,7164,1954,41,183,,Active,,,https://www.redfin.com/TX/Houston/4114-Lemac-Dr-77025/home/30040115,HARMLS,26780727,N,Y,29.6787411,-95.4436757
MLS Listing,,Single Family Residential,2930 Ellington St,Houston,TX,77088,205000,3,2.0,Montgomery Terrace Tr A U/r,1264,7140,1980,43,162,,Active,,,https://www.redfin.com/TX/Houston/2930-Ellington-St-77088/home/30209626,HARMLS,76196301,N,Y,29.8814158,-95.4542542
MLS Listing,,Single Family Residential,15106 Hard Rock Dr,Houston,TX,77084,380000,4,2.5,Hearthstone Sec 08,2502,5250,1998,44,152,40,Active,,,https://www.redfin.com/TX/Houston/15106-Hard-Rock-Dr-77084/home/30653855,HARMLS,88178197,N,Y,29.8767688,-95.6349264
MLS Listing,,Single Family Residential,2127 Taft St,Houston,TX,77006,750000,3,3.5,Views/taft,2968,1640,2015,49,253,165,Active,,,https://www.redfin.com/TX/Houston/2127-Taft-St-77006/home/110192041,HARMLS,74164371,N,Y,29.7500194,-95.3856324
MLS Listing,,Single Family Residential,3211 Bend Willow Ln,Katy,TX,77450,424900,3,2.5,Cinco Ranch Meadow Place,2665,8220,2000,54,159,104,Active,,,https://www.redfin.com/TX/Katy/3211-Bend-Willow-Ln-77450/home/33114951,HARMLS,38420633,N,Y,29.7374606,-95.7518202
MLS Listing,,Single Family Residential,2415 Village Dale Ave,Houston,TX,77059,351000,4,2.5,Northfork,2196,9163,1991,60,160,45,Active,,,https://www.redfin.com/TX/Houston/2415-Village-Dale-Ave-77059/home/30625204,HARMLS,70899373,N,Y,29.5991411,-95.1442116
MLS Listing,,Single Family Residential,611 Heidrich St,Houston,TX,77018,399900,3,2.0,Kentwood Manor,1732,10112,1958,61,231,,Active,,,https://www.redfin.com/TX/Houston/611-Heidrich-St-77018/home/30062310,HARMLS,69858069,N,Y,29.8307244,-95.4086701
MLS Listing,,Single Family Residential,12822 Winding Manor Dr,Houston,TX,77044,375000,4,3.5,Summerwood,2975,8400,2004,61,126,79,Active,,,https://www.redfin.com/TX/Houston/12822-Winding-Manor-Dr-77044/home/29232770,HARMLS,35023761,N,Y,29.9272496,-95.1932971
MLS Listing,,Townhouse,727 Bunker Hill Rd #12,Houston,TX,77024,485000,4,3.0,Bunker Hill Place T/h,2632,1277,1979,74,184,485,Active,,,https://www.redfin.com/TX/Houston/727-Bunker-Hill-Rd-77024/unit-12/home/30332716,HARMLS,56847323,N,Y,29.7749577,-95.5328986
MLS Listing,,Single Family Residential,5509 Cornish St,Houston,TX,77007,425000,3,2.5,Cornish Place Sec 04,2447,2675,2000,74,174,,Active,,,https://www.redfin.com/TX/Houston/5509-Cornish-St-77007/home/30717010,HARMLS,18403846,N,Y,29.7781248,-95.4205367
MLS Listing,,Single Family Residential,2026 Lake Hills Dr,Houston,TX,77339,395000,5,2.5,Woodland Hills Village,2864,9112,1975,74,138,23,Active,,,https://www.redfin.com/TX/Kingwood/2026-Lake-Hills-Dr-77339/home/30309784,HARMLS,38738132,N,Y,30.0591855,-95.2198369
MLS Listing,,Single Family Residential,5450 Loch Lomond Dr,Houston,TX,77096,315000,3,2.0,Maplewood,1662,8030,1960,74,190,5,Active,,,https://www.redfin.com/TX/Houston/5450-Loch-Lomond-Dr-77096/home/30155985,HARMLS,91246187,N,Y,29.6806874,-95.4824303
MLS Listing,,Single Family Residential,1041 Tulane St,Houston,TX,77008,1199000,4,3.5,Tulane Courtyards,3348,5498,2015,76,358,,Active,,,https://www.redfin.com/TX/Houston/1041-Tulane-St-77008/home/66050358,HARMLS,70210520,N,Y,29.7904702,-95.4024819
MLS Listing,,Single Family Residential,4610 Brinkman St,Houston,TX,77018,414900,3,2.0,Lowell Heights,1773,6992,1940,81,234,,Active,,,https://www.redfin.com/TX/Houston/4610-Brinkman-St-77018/home/29956709,HARMLS,90837489,N,Y,29.8320301,-95.4160556
MLS Listing,,Condo/Co-op,5711 Sugar Hill Dr #69,Houston,TX,77057,175000,2,1.0,Sugar Hill Condo,968,185534,1977,81,181,493,Active,,,https://www.redfin.com/TX/Houston/5711-Sugar-Hill-Dr-77057/unit-69/home/30399624,HARMLS,38311829,N,Y,29.7561015,-95.4788051
MLS Listing,,Condo/Co-op,1901 Post Oak Blvd #4208,Houston,TX,77056,289000,1,1.0,Lofts/post Oak,1246,225401,2003,83,232,760,Active,,,https://www.redfin.com/TX/Houston/1901-Post-Oak-Blvd-77056/unit-4208/home/29403768,HARMLS,91735109,N,Y,29.7468536,-95.4591882
MLS Listing,,Vacant Land,1111 Hardy St,Houston,TX,77020,550000,,,Noble,,5000,,83,,,Active,,,https://www.redfin.com/TX/Houston/1111-Hardy-St-77020/home/167115760,HARMLS,52987659,N,Y,29.7710074,-95.351541
MLS Listing,,Single Family Residential,19822 Skycountry Ln,Houston,TX,77094,995950,4,4.5,Green Trails,5939,11160,1985,91,168,82,Active,,,https://www.redfin.com/TX/Houston/19822-Skycountry-Ln-77094/home/30524355,HARMLS,70647589,N,Y,29.7654924,-95.7155451
MLS Listing,,Single Family Residential,6323 Tulsa Rd,Houston,TX,77092,259000,3,1.0,Bolin Place,1124,7200,1952,96,230,,Active,,,https://www.redfin.com/TX/Houston/6323-Tulsa-Rd-77092/home/30126584,HARMLS,41094086,N,Y,29.8207981,-95.4826761
MLS Listing,,Townhouse,8518 Montridge Dr,Houston,TX,77055,400000,3,1.0,Ridgecrest Sec,1212,8659,1952,98,330,,Active,,,https://www.redfin.com/TX/Houston/8518-Montridge-Dr-77055/home/30031795,HARMLS,80292310,N,Y,29.8083949,-95.4977939
MLS Listing,,Townhouse,8514 Montridge Dr,Houston,TX,77055,400000,3,1.0,Ridgecrest,1272,8588,1952,98,314,,Active,,,https://www.redfin.com/TX/Houston/8514-Montridge-Dr-77055/home/30031798,HARMLS,85362599,N,Y,29.8084288,-95.4976255
MLS Listing,,Single Family Residential,8546 Western Dr,Houston,TX,77055,400000,3,1.0,Ridgecrest,1350,8400,1960,99,296,,Active,,,https://www.redfin.com/TX/Houston/8546-Western-Dr-77055/home/30031756,HARMLS,44910522,N,Y,29.805003,-95.4992791
MLS Listing,,Single Family Residential,6717 Barney Rd,Houston,TX,77092,239000,3,2.0,Langwood Sec 01,1264,6050,1954,103,189,,Active,,,https://www.redfin.com/TX/Houston/6717-Barney-Rd-77092/home/30062573,HARMLS,3833072,N,Y,29.8317947,-95.4920643
MLS Listing,,Single Family Residential,4341 Citadel Ln,Houston,TX,77092,239000,3,1.0,Langwood Sec 01,1070,7490,1955,103,223,,Active,,,https://www.redfin.com/TX/Houston/4341-Citadel-Ln-77092/home/30062714,HARMLS,46044375,N,Y,29.8343514,-95.4906235
MLS Listing,,Single Family Residential,4337 Citadel Ln,Houston,TX,77092,239000,3,2.0,Langwood Sec 01,1204,8613,1955,103,199,,Active,,,https://www.redfin.com/TX/Houston/4337-Citadel-Ln-77092/home/30062709,HARMLS,67442627,N,Y,29.8344397,-95.4907614
MLS Listing,,Single Family Residential,12838 Colony Heath Ln,Houston,TX,77085,285000,4,2.5,Greenpark,1800,5175,2006,106,158,15,Active,,,https://www.redfin.com/TX/Houston/12838-Colony-Heath-Ln-77085/home/29386699,HARMLS,34648947,N,Y,29.6364656,-95.4735828
MLS Listing,,Single Family Residential,6006 Sanford Rd,Houston,TX,77096,325000,3,2.0,Westbury,1644,7318,1965,111,198,,Active,,,https://www.redfin.com/TX/Houston/6006-Sanford-Rd-77096/home/30125222,HARMLS,43617100,N,Y,29.659952,-95.4953623
MLS Listing,,Single Family Residential,1906 Vernlake Cir,Houston,TX,77084,299999,4,2.5,Westlake Sec 01,1768,17856,1977,116,170,50,Active,,,https://www.redfin.com/TX/Houston/1906-Vernlake-Cir-77084/home/30293789,HARMLS,27358474,N,Y,29.7949079,-95.713386
MLS Listing,,Townhouse,2889 Panagard Dr #42,Houston,TX,77082,185000,2,1.5,Westhollow Villa T/h,1254,1424,1981,123,148,355,Active,,,https://www.redfin.com/TX/Houston/2889-Panagard-Dr-77082/unit-42/home/30318128,HARMLS,53980386,N,Y,29.7301011,-95.6321551
MLS Listing,,Single Family Residential,1038 W 43rd St,Houston,TX,77018,525000,3,1.0,Garden Oaks Sec 05 Rev,1224,8520,1947,126,429,,Active,,,https://www.redfin.com/TX/Houston/1038-W-43rd-St-77018/home/29945709,HARMLS,58593692,N,Y,29.829048,-95.425587
MLS Listing,,Condo/Co-op,8055 Cambridge St #54,Houston,TX,77054,150000,2,2.0,Cambridge Court Condo,975,169569,1984,193,154,564,Active,,,https://www.redfin.com/TX/Houston/8055-Cambridge-St-77054/unit-54/home/30561080,HARMLS,758975,N,Y,29.6896847,-95.3930123
MLS Listing,,Single Family Residential,19 Southside Cir,Houston,TX,77025,1545000,4,4.5,Southside Circle,4550,3677,2014,214,340,314,Active,,,https://www.redfin.com/TX/Houston/19-Southside-Cir-77025/home/66052223,HARMLS,5412771,N,Y,29.7055154,-95.4360372
MLS Listing,,Condo/Co-op,2224 S Piney Point Rd #112,Houston,TX,77063,250000,2,2.0,Deerwood,1365,344193,1967,228,183,756,Active,,,https://www.redfin.com/TX/Houston/2224-S-Piney-Point-Rd-77063/unit-112/home/30346612,HARMLS,57708125,N,Y,29.7428903,-95.5239033
MLS Listing,,Vacant Land,5201 Martin Luther King Blvd,Houston,TX,77021,750000,,,South,,23750,,277,,,Active,,,https://www.redfin.com/TX/Houston/5201-Martin-Luther-King-Blvd-77021/home/188875082,HARMLS,55438241,N,Y,29.703432,-95.334046
MLS Listing,,Multi-Family (2-4 Unit),8003 Knox St,Houston,TX,77088,410000,0,2.0,Lincoln City,1800,7510,2020,279,228,,Active,,,https://www.redfin.com/TX/Houston/8003-Knox-St-77088/home/29981892,HARMLS,81115607,N,Y,29.8734887,-95.4249069
MLS Listing,,Single Family Residential,10410 Stover St,Houston,TX,77075,290000,4,3.0,Palm Spgs 1,2254,8680,1970,354,129,,Active,,,https://www.redfin.com/TX/Houston/10410-Stover-St-77075/home/30170289,HARMLS,55881597,N,Y,29.6161589,-95.2449205
MLS Listing,,Single Family Residential,3114 Kentucky St St,Houston,TX,77026,184900,2,1.0,Fosters,900,5000,1949,1,205,,Active,,,https://www.redfin.com/TX/Houston/3114-Kentucky-St-77026/home/29675334,HARMLS,44066620,N,Y,29.7863379,-95.3378474
MLS Listing,,Single Family Residential,8523 Alcott Dr,Houston,TX,77080,230000,3,1.0,Langwood Sec 02,1276,6270,1959,1,180,,Active,,,https://www.redfin.com/TX/Houston/8523-Alcott-Dr-77080/home/30100367,HARMLS,86036571,N,Y,29.8174863,-95.5019041
MLS Listing,,Single Family Residential,5518 Enchanted Timbers Dr,Humble,TX,77346,295000,4,2.5,Oaks Atascocita Sec 01,2516,7935,1976,1,117,42,Active,,,https://www.redfin.com/TX/Humble/5518-Enchanted-Timbers-Dr-77346/home/30334986,HARMLS,26328720,N,Y,30.0009082,-95.1906886
MLS Listing,,Townhouse,16727 Mammoth Springs Dr,Houston,TX,77095,239000,3,2.5,Canyon Lks/stonegate Sec 09,1821,3223,2013,1,131,86,Active,,,https://www.redfin.com/TX/Houston/16727-Mammoth-Springs-Dr-77095/home/66035786,HARMLS,86773306,N,Y,29.9153332,-95.6643518
MLS Listing,,Multi-Family (2-4 Unit),4650 Phlox St,Houston,TX,77051,379000,6,2.0,Flower City,3186,5000,2005,1,119,,Active,,,https://www.redfin.com/TX/Houston/4650-Phlox-St-77051/home/29988574,HARMLS,90108903,N,Y,29.6589317,-95.3567202
MLS Listing,,Multi-Family (2-4 Unit),9217 Carousel Ln Ln #4,Houston,TX,77080,1000000,,3.0,Spring Branch Estates Sec 02,5408,10250,1982,1,185,,Active,,,https://www.redfin.com/TX/Houston/9217-Carousel-Ln-77080/unit-4/home/29964640,HARMLS,86692310,N,Y,29.8144374,-95.5184803
MLS Listing,,Multi-Family (2-4 Unit),3110 Bolt St,Houston,TX,77051,379000,6,3.0,Reedwoods,3416,7150,2006,1,111,,Active,,,https://www.redfin.com/TX/Houston/3110-Bolt-St-77051/home/30069929,HARMLS,61916938,N,Y,29.6570824,-95.3782104
MLS Listing,,Single Family Residential,19710 Whitewind Dr,Houston,TX,77094,550000,4,3.5,Green Trails Park Sec 02 Amd,3038,8400,1991,1,181,112,Active,,,https://www.redfin.com/TX/Houston/19710-Whitewind-Dr-77094/home/30621464,HARMLS,94235939,N,Y,29.7697761,-95.7144758
MLS Listing,,Single Family Residential,30006 Nanton Dr,Spring,TX,77386,375000,4,2.5,Imperial Oaks,2642,11583,1992,1,142,42,Active,,,https://www.redfin.com/TX/Spring/30006-Nanton-Dr-77386/home/33032186,HARMLS,44625999,N,Y,30.1244705,-95.4119244
MLS Listing,,Single Family Residential,1220 Neyland St,Houston,TX,77022,135000,4,2.0,Whitney Place Sec 01,1584,4300,1945,1,85,,Active,,,https://www.redfin.com/TX/Houston/1220-Neyland-St-77022/home/29886260,HARMLS,76735792,N,Y,29.825486,-95.3852672
MLS Listing,,Single Family Residential,14523 Mountain Cliff Ln,Houston,TX,77044,435000,4,3.5,Summerwood,3382,7808,2014,1,129,77,Active,,,https://www.redfin.com/TX/Houston/14523-Mountain-Cliff-Ln-77044/home/55126345,HARMLS,81449080,N,Y,29.9270369,-95.1653845
MLS Listing,,Single Family Residential,3930 Hidden Glen Dr,Houston,TX,77339,225000,4,2.5,Elm Grove Village Sec 01,2378,13011,1978,1,95,42,Active,,,https://www.redfin.com/TX/Kingwood/3930-Hidden-Glen-Dr-77339/home/30357660,HARMLS,43720581,N,Y,30.0697261,-95.191137
MLS Listing,,Vacant Land,1208 E 34th St,Houston,TX,77022,259000,,,Laurel Heights,,7620,,1,,,Active,,,https://www.redfin.com/TX/Houston/1208-E-34th-St-77022/home/29845185,HARMLS,96376459,N,Y,29.8172088,-95.3840807
MLS Listing,,Single Family Residential,19322 Forest Fern Ct,Humble,TX,77346,3500,4,2.5,Oaks of 1,2626,9040,1976,1,1,,Active,,,https://www.redfin.com/TX/Humble/19322-Forest-Fern-Ct-77346/home/30334890,HARMLS,2473288,N,Y,30.0028119,-95.1921574
MLS Listing,,Single Family Residential,7006 Narcissus St,Houston,TX,77087,150000,2,1.0,Pecan Park R/p,869,5500,1948,1,173,,Active,,,https://www.redfin.com/TX/Houston/7006-Narcissus-St-77087/home/29879488,HARMLS,50601750,N,Y,29.7067885,-95.2942085
MLS Listing,,Single Family Residential,6042 Cebra St,Houston,TX,77091,389990,3,2.5,Cebra Court,1762,3037,2024,1,221,,Active,September-21-2024 12:00 PM,September-21-2024 04:00 PM,https://www.redfin.com/TX/Houston/6042-Cebra-St-77091/home/192583982,HARMLS,67897031,N,Y,29.853164,-95.4425009
MLS Listing,,Townhouse,3028 Holly Hall St #3028,Houston,TX,77054,185000,2,2.5,Holly Hall T/h Condo,1600,677039,1984,1,116,774,Active,,,https://www.redfin.com/TX/Houston/3028-Holly-Hall-St-77054/unit-3028/home/30588708,HARMLS,39472750,N,Y,29.6859941,-95.3826173
MLS Listing,,Single Family Residential,14531 Royal Mountain Dr,Houston,TX,77090,245000,3,2.0,Eagle Lndg,1897,6050,2011,1,129,43,Active,,,https://www.redfin.com/TX/Houston/14531-Royal-Mountain-Dr-77090/home/43485119,HARMLS,26167211,N,Y,29.9942847,-95.4465983
MLS Listing,,Condo/Co-op,207 Pierce St #308,Houston,TX,77002,215000,1,1.0,Pierce Street Flats Condo,1035,21621,2007,1,208,588,Active,,,https://www.redfin.com/TX/Houston/207-Pierce-St-77002/unit-308/home/34238719,HARMLS,42169448,N,Y,29.7538058,-95.3773517
MLS Listing,,Single Family Residential,7515 Hereford St,Houston,TX,77087,284900,4,2.0,Santa Rosa Sec 03,2055,7200,1950,1,139,,Pre On-Market,,,https://www.redfin.com/TX/Houston/7515-Hereford-St-77087/home/29972361,HARMLS,26319541,N,Y,29.6804165,-95.2922069
MLS Listing,,Condo/Co-op,5343 Richmond Ave #30,Houston,TX,77056,169000,2,2.0,Courtyards Condo,1135,93606,1965,1,149,747,Active,,,https://www.redfin.com/TX/Houston/5343-Richmond-Ave-77056/unit-30/home/30379351,HARMLS,60125420,N,Y,29.7310263,-95.4700401
MLS Listing,,Single Family Residential,5703 Balbo St Unit G,Houston,TX,77091,404990,3,3.5,Highland Place,2062,1607,2024,1,196,,Active,,,https://www.redfin.com/TX/Houston/5703-Balbo-St-77091/unit-G/home/192462764,HARMLS,6884414,N,Y,29.848354,-95.454695
MLS Listing,,Single Family Residential,4820 Pinemont Dr Unit A,Houston,TX,77091,369990,3,3.5,Pinemont Park Place,1892,3000,2024,1,196,,Active,,,https://www.redfin.com/TX/Houston/4820-Pinemont-Dr-77092/unit-A/home/192583365,HARMLS,84603253,N,Y,29.8412718,-95.4619486
MLS Listing,,Single Family Residential,8224 Willow St Unit AB,Houston,TX,77088,650000,3,2.5,Highland Acre Homes,4150,7750,2024,1,157,,Active,,,https://www.redfin.com/TX/Houston/8224-Willow-St-77088/unit-AB/home/192583363,HARMLS,32579497,N,Y,29.8762278,-95.4351742
MLS Listing,,Multi-Family (2-4 Unit),7318 Dahlia St,Houston,TX,77012,500000,4,1.0,Pecan Park,2592,8153,1949,1,193,,Active,,,https://www.redfin.com/TX/Houston/7318-Dahlia-St-77012/home/29878397,HARMLS,21467299,N,Y,29.7142728,-95.2877273
MLS Listing,,Single Family Residential,4711 Country Spring Rd,Houston,TX,77084,369900,4,2.0,Rolling Creek,2376,7131,2001,1,156,38,Pre On-Market,,,https://www.redfin.com/TX/Houston/4711-Country-Spring-Rd-77084/home/30589843,HARMLS,58704447,N,Y,29.8399952,-95.6992819
MLS Listing,,Single Family Residential,4424 Edmund St,Houston,TX,77020,459990,3,3.5,Oleander Crossing,2013,2312,2024,1,229,,Active,,,https://www.redfin.com/TX/Houston/4424-Edmund-St-77020/home/192458107,HARMLS,59365888,N,Y,29.7670975,-95.3251502
MLS Listing,,Single Family Residential,513 Egan St,Houston,TX,77020,449990,3,3.5,Oleander Crossing,2118,1710,2024,1,212,,Active,,,https://www.redfin.com/TX/Houston/513-Egan-St-77020/home/29812447,HARMLS,25339517,N,Y,29.7668028,-95.3252282
MLS Listing,,Single Family Residential,5703 Balbo St Unit B,Houston,TX,77091,404990,3,3.5,Highland Place,2062,1606,2024,1,196,,Active,,,https://www.redfin.com/TX/Houston/5703-Balbo-St-77091/unit-B/home/192462814,HARMLS,50891016,N,Y,29.848354,-95.454695
MLS Listing,,Single Family Residential,5703 Balbo St Unit D,Houston,TX,77091,399990,3,3.5,Highland Place,2062,1607,2024,1,194,,Active,,,https://www.redfin.com/TX/Houston/5703-Balbo-St-77091/unit-D/home/192462664,HARMLS,53695897,N,Y,29.848354,-95.454695
MLS Listing,,Single Family Residential,6515 Beldart St,Houston,TX,77087,220000,3,1.5,Overbrook Sec 02,1122,6480,1955,1,196,,Active,,,https://www.redfin.com/TX/Houston/6515-Beldart-St-77087/home/30056436,HARMLS,58160703,N,Y,29.6633994,-95.3127508
MLS Listing,,Single Family Residential,5827 Petty St,Houston,TX,77007,475000,2,1.0,Cottage Grove Sec 04,895,5025,1930,1,531,,Active,,,https://www.redfin.com/TX/Houston/5827-Petty-St-77007/home/29660332,HARMLS,90849351,N,Y,29.7802628,-95.427843
MLS Listing,,Single Family Residential,427 Gregg St,Houston,TX,77020,435000,3,3.5,Eado Riverside Twnhse Developm,2200,1805,2019,1,198,,Pre On-Market,,,https://www.redfin.com/TX/Houston/427-Gregg-St-77020/home/161435503,HARMLS,31131744,N,Y,29.766445,-95.335855
MLS Listing,,Single Family Residential,9506 Winter Run Dr,Houston,TX,77064,395000,4,2.5,Willowlake Sec 01,2240,10748,1994,1,176,58,Active,,,https://www.redfin.com/TX/Houston/9506-Winter-Run-Dr-77064/home/30653044,HARMLS,48582483,N,Y,29.9103451,-95.5581844
MLS Listing,,Single Family Residential,9922 Victoria Grove Lane Ln,Houston,TX,77075,255000,3,2.5,Victoria Park Sec 01,1963,4689,2004,1,130,25,Active,,,https://www.redfin.com/TX/Houston/9922-Victoria-Grove-Ln-77075/home/29223900,HARMLS,45260112,N,Y,29.6240505,-95.2380163
MLS Listing,,Single Family Residential,3003 Pelon Cay Dr,Houston,TX,77051,309990,4,2.5,Cay Landing,,,2024,1,,83,Active,,,https://www.redfin.com/TX/Houston/3003-Pelon-Cay-DR-77051/home/192582220,HARMLS,73153115,N,Y,29.833916,-95.64722
MLS Listing,,Townhouse,15600 Barkers Landing Rd #20,Houston,TX,77079,530000,3,3.5,Barker Place T/h,3228,5112,1981,1,164,333,Active,,,https://www.redfin.com/TX/Houston/15600-Barkers-Landing-Rd-77079/unit-20/home/30418213,HARMLS,7627519,N,Y,29.779205,-95.6311321
MLS Listing,,Single Family Residential,3019 Pelon Cay Dr,Houston,TX,77047,299990,4,2.5,Cay Landing,,2776,2024,1,,83,Active,,,https://www.redfin.com/TX/Houston/3019-Pelon-Cay-DR-77047/home/192582209,HARMLS,90716981,N,Y,29.815104,-95.484798
MLS Listing,,Single Family Residential,3007 Pelon Cay Dr,Houston,TX,77047,299990,4,2.5,Cay Landing,1659,2415,2024,1,181,83,Active,,,https://www.redfin.com/TX/Houston/3007-Pelon-Cay-DR-77047/home/192582202,HARMLS,4860247,N,Y,29.815104,-95.484798
MLS Listing,,Single Family Residential,1213 Noble St,Houston,TX,77009,329900,3,2.0,Little & Dickinson,1308,5000,1945,1,252,,Active,,,https://www.redfin.com/TX/Houston/1213-Noble-St-77009/home/29709903,HARMLS,85136565,N,Y,29.780626,-95.3553346
MLS Listing,,Single Family Residential,108 E 27th St,Houston,TX,77008,524000,2,2.0,Sunset Heights,912,4500,1920,1,575,,Active,,,https://www.redfin.com/TX/Houston/108-E-27th-St-77008/home/29756855,HARMLS,7701841,N,Y,29.8111506,-95.3986271
MLS Listing,,Condo/Co-op,10855 Meadowglen Ln #1124,Houston,TX,77042,155000,2,2.0,Riverstone 02 Condo Ph 02,1080,99275,1982,1,144,462,Active,,,https://www.redfin.com/TX/Houston/10855-Meadowglen-Ln-77042/unit-1124/home/30526386,HARMLS,75436919,N,Y,29.7317466,-95.5660146
MLS Listing,,Single Family Residential,635 Creek Forest Ln,Spring,TX,77380,250000,4,2.5,Vicksburg,2251,9506,1974,1,111,42,Pre On-Market,,,https://www.redfin.com/TX/Spring/635-Creek-Forest-Ln-77380/home/33201381,HARMLS,2697091,N,Y,30.1313189,-95.4554621
MLS Listing,,Single Family Residential,340 W 26th St,Houston,TX,77008,739900,3,2.5,Houston Heights,2532,4032,2024,1,292,,Active,,,https://www.redfin.com/TX/Houston/340-W-26th-St-77008/home/180694087,HARMLS,11670898,N,Y,29.8096307,-95.4030894
MLS Listing,,Single Family Residential,2911 Riata Ln,Houston,TX,77043,895000,5,3.5,Spring Shadows Reserve D S,3590,8880,1973,1,249,28,Pre On-Market,,,https://www.redfin.com/TX/Houston/2911-Riata-Ln-77043/home/30284124,HARMLS,66174958,N,Y,29.8256647,-95.5470859
MLS Listing,,Multi-Family (2-4 Unit),7926 Gladstone St,Sunnyside,TX,77051,479900,0,2.0,Sunnyside Place,,,2024,1,,,Active,,,https://www.redfin.com/TX/Houston/7926-Gladstone-St-77051/home/192581996,HARMLS,58470310,N,Y,29.6761624,-95.3682237
MLS Listing,,Townhouse,1222 Glenwood Canyon Ln,Houston,TX,77077,321000,3,2.5,Terraces/memorial,2134,2780,2009,1,150,500,Active,,,https://www.redfin.com/TX/Houston/1222-Glenwood-Canyon-Ln-77077/home/34092823,HARMLS,23419222,N,Y,29.765704,-95.6437536
MLS Listing,,Single Family Residential,1110 Twin Falls Rd,Houston,TX,77088,238000,3,2.0,Hidden Valley Sec 05,1344,9000,1966,1,177,4,Active,,,https://www.redfin.com/TX/Houston/1110-Twin-Falls-Rd-77088/home/30194314,HARMLS,73090813,N,Y,29.8977247,-95.4203219
MLS Listing,,Single Family Residential,627 Bizerte St,Houston,TX,77022,180000,3,1.5,Glenburnie Sec 03,1136,8400,1956,1,158,,Active,,,https://www.redfin.com/TX/Houston/627-Bizerte-St-77022/home/30099610,HARMLS,73585405,N,Y,29.8379999,-95.3897017
MLS Listing,,Vacant Land,0 Bertwood Rd,Houston,TX,77016,169900,,,Shadydale,,15776,,1,,,Active,,,https://www.redfin.com/TX/Houston/Bertwood-St-77016/home/30205409,HARMLS,60299149,N,Y,29.852832,-95.310779
MLS Listing,,Single Family Residential,4822 Whispering Falls Dr,Houston,TX,77084,249900,4,2.0,Bear Creek Village Sec 09,2663,7140,1977,1,94,39,Active,,,https://www.redfin.com/TX/Houston/4822-Whispering-Falls-Dr-77084/home/30362540,HARMLS,56072291,N,Y,29.8467041,-95.6362863
MLS Listing,,Single Family Residential,9409 Blalock Tree Ct,Houston,TX,77080,349500,3,2.5,Blalock Park,1986,1766,2014,1,176,180,Pre On-Market,,,https://www.redfin.com/TX/Houston/9409-Blalock-Tree-Ct-77080/home/52965124,HARMLS,38866919,N,Y,29.816582,-95.523366
MLS Listing,,Single Family Residential,5440 Huckleberry Ln,Houston,TX,77056,3875000,6,8.0,Tanglewood,8501,22440,2004,1,456,202,Active,,,https://www.redfin.com/TX/Houston/5440-Huckleberry-Ln-77056/home/30016906,HARMLS,35852801,N,Y,29.7508623,-95.4697894
MLS Listing,,Single Family Residential,15819 Mesa Gardens Dr,Houston,TX,77095,384900,4,2.5,Copperfield Southdown Village,2747,9000,1982,1,140,57,Active,,,https://www.redfin.com/TX/Houston/15819-Mesa-Gardens-Dr-77095/home/30473006,HARMLS,71011686,N,Y,29.88657,-95.6484708
MLS Listing,,Single Family Residential,6315 Maple Hill Dr,Houston,TX,77088,250000,4,3.5,Chateau Forest Sec 01 R/p & Ext,1608,6820,1966,1,155,,Active,September-21-2024 12:00 PM,September-21-2024 02:00 PM,https://www.redfin.com/TX/Houston/6315-Maple-Hill-Dr-77088/home/30220629,HARMLS,20533989,N,Y,29.870451,-95.4851339
MLS Listing,,Single Family Residential,5511 Green Timbers Dr,Humble,TX,77346,389900,5,3.5,Oaks Atascocita Sec 01,3082,7616,1976,1,127,43,Active,,,https://www.redfin.com/TX/Humble/5511-Green-Timbers-Dr-77346/home/30334979,HARMLS,598202,N,Y,30.0005971,-95.1911573
MLS Listing,,Single Family Residential,11034 Stoneridge Canyon Ct,Houston,TX,77089,315000,3,2.5,Riverstone Ranch Sec 02,1752,6290,2002,1,180,60,Pre On-Market,,,https://www.redfin.com/TX/Houston/11034-Stoneridge-Canyon-Ct-77089/home/29188640,HARMLS,54131289,N,Y,29.5811399,-95.2465931
MLS Listing,,Single Family Residential,12006 Sambuco Ct,Richmond,TX,77406,429000,3,3.5,Lakes of Bella Terra,2541,5443,2016,1,169,93,Pre On-Market,,,https://www.redfin.com/TX/Richmond/12006-Sambuco-Ct-77406/home/109806027,HARMLS,8960852,N,Y,29.6952463,-95.7911484
MLS Listing,,Condo/Co-op,9538 Pagewood Ln #9538,Houston,TX,77063,95000,2,2.5,Tanglewilde South Condo Sec 01,1224,222260,1978,1,78,409,Active,,,https://www.redfin.com/TX/Houston/9538-Pagewood-Ln-77063/unit-9538/home/147209453,HARMLS,3962499,N,Y,29.7249569,-95.5331889
MLS Listing,,Single Family Residential,18019 Hollywell Dr,Houston,TX,77084,349999,4,2.5,Deerfield Village Sec 02,2449,9800,1978,1,143,77,Active,,,https://www.redfin.com/TX/Houston/18019-Hollywell-Dr-77084/home/30354150,HARMLS,69928173,N,Y,29.8404631,-95.6764234
MLS Listing,,Single Family Residential,2117 Huldy St,Houston,TX,77019,750000,2,1.0,Hyde Park Main,961,6250,1935,1,780,,Active,,,https://www.redfin.com/TX/Houston/2117-Huldy-St-77019/home/29815759,HARMLS,2551068,N,Y,29.7462604,-95.4095153
MLS Listing,,Single Family Residential,925 W 21st St,Houston,TX,77008,529900,3,3.5,Costa Del Sol,2660,1962,2006,1,199,125,Active,,,https://www.redfin.com/TX/Houston/925-W-21st-St-77008/home/29499364,HARMLS,14018854,N,Y,29.8049379,-95.4156572
MLS Listing,,Single Family Residential,5003 Higgins St Unit A,Houston,TX,77033,285000,3,2.5,Higgins Manor,1892,3705,2019,1,151,,Active,,,https://www.redfin.com/TX/Houston/5003-Higgins-St-77033/unit-A/home/170042487,HARMLS,26550555,N,Y,29.6546044,-95.3484706
MLS Listing,,Single Family Residential,4517 Normandy Way,Houston,TX,77021,275000,2,1.0,Southern Village,1102,7936,1941,1,250,,Active,,,https://www.redfin.com/TX/Houston/4517-Normandy-Way-77021/home/29968480,HARMLS,66657837,N,Y,29.6996243,-95.3476237
MLS Listing,,Single Family Residential,15875 Ridgecroft Rd,Houston,TX,77053,180000,3,2.0,Ridgemont Sec 7,1312,4834,1995,1,137,,Active,,,https://www.redfin.com/TX/Houston/15875-Ridgecroft-Rd-77053/home/33019724,HARMLS,87221183,N,Y,29.5912247,-95.4484815
MLS Listing,,Single Family Residential,5014 Lido Ln,Houston,TX,77092,419000,3,2.0,Oak Forest Sec 16,1693,7630,1955,1,247,,Active,,,https://www.redfin.com/TX/Houston/5014-Lido-Ln-77092/home/30067171,HARMLS,27212983,N,Y,29.8336683,-95.4646548
MLS Listing,,Townhouse,9788 Clarewood Dr #201,Houston,TX,77036,495000,2,1.5,United Spg Mill Condo,2388,3662,2006,1,207,230,Active,,,https://www.redfin.com/TX/Houston/9788-Clarewood-Dr-77036/unit-201/home/43494684,HARMLS,46491273,N,Y,29.707813,-95.5532376
MLS Listing,,Single Family Residential,4205 New Orleans St,Houston,TX,77020,250000,3,2.0,Burke,1350,5600,1925,1,185,,Active,,,https://www.redfin.com/TX/Houston/4205-New-Orleans-St-77020/home/29814525,HARMLS,38646013,N,Y,29.7769934,-95.3279722
MLS Listing,,Single Family Residential,2113 Huldy St,Houston,TX,77019,750000,2,1.0,Hyde Park Main,1021,6250,1935,1,735,,Active,,,https://www.redfin.com/TX/Houston/2113-Huldy-St-77019/home/29815758,HARMLS,93656282,N,Y,29.7463901,-95.409518
MLS Listing,,Single Family Residential,13511 Lynnville Dr,Houston,TX,77065,280000,3,2.0,White Oak Landing Sec 04,2030,6300,1993,1,138,25,Active,,,https://www.redfin.com/TX/Houston/13511-Lynnville-Dr-77065/home/30623741,HARMLS,81700130,N,Y,29.9297442,-95.6251942
MLS Listing,,Single Family Residential,8619 Plum Lake Dr,Houston,TX,77095,281000,3,2.0,Copperfield Northmead Village,1594,6498,1988,1,176,55,Active,,,https://www.redfin.com/TX/Houston/8619-Plum-Lake-Dr-77095/home/30549132,HARMLS,45788443,N,Y,29.9033267,-95.6495546
MLS Listing,,Single Family Residential,2065 Southgate Blvd,Houston,TX,77030,2850000,5,6.0,Southgate,5992,6900,2024,1,476,,Active,,,https://www.redfin.com/TX/Houston/2065-Southgate-Blvd-77030/home/29917228,HARMLS,8922346,N,Y,29.7090951,-95.4069427
MLS Listing,,Single Family Residential,2018 Cambridge Heights Pl,Houston,TX,77045,420000,3,3.5,Cambridge Heights,2300,1801,2019,1,183,144,Active,,,https://www.redfin.com/TX/Houston/2018-Cambridge-Heights-Pl-77045/home/144615680,HARMLS,63390465,N,Y,29.6648296,-95.4002684
MLS Listing,,Single Family Residential,16106 Indian Mill Dr,Houston,TX,77082,266000,3,2.0,Wingate Sec 02,1424,5310,1980,1,187,15,Active,,,https://www.redfin.com/TX/Houston/16106-Indian-Mill-Dr-77082/home/30495871,HARMLS,29385320,N,Y,29.7162888,-95.6671353
MLS Listing,,Vacant Land,220 Latham St,Houston,TX,77011,550000,,,Fullerton Place,,11500,,1,,,Active,,,https://www.redfin.com/TX/Houston/220-Latham-St-77011/home/29676626,HARMLS,60305218,N,Y,29.742123,-95.319404
MLS Listing,,Single Family Residential,3314 Owl Crossing Ln,Humble,TX,77338,260000,3,2.5,Arbor Trls Sec 01,2358,5858,2007,1,110,23,Pre On-Market,,,https://www.redfin.com/TX/Humble/3314-Owl-Crossing-Ln-77338/home/29559706,HARMLS,12953287,N,Y,30.0313079,-95.379174
MLS Listing,,Single Family Residential,18210 Bayou Branch Dr,Houston,TX,77084,339900,5,3.0,Barkers Branch Sec 02,3655,6490,2006,1,93,40,Active,,,https://www.redfin.com/TX/Houston/18210-Bayou-Branch-Dr-77084/home/29371818,HARMLS,72244132,N,Y,29.822445,-95.6824889
MLS Listing,,Single Family Residential,5750 Kiam St,Houston,TX,77007,680000,4,4.5,Cottage Grove Haven,3431,1690,2013,1,198,150,Pre On-Market,,,https://www.redfin.com/TX/Houston/5750-Kiam-St-77007/home/52561507,HARMLS,11828106,N,Y,29.7813524,-95.4262351
MLS Listing,,Vacant Land,0 Wheatley St St,Houston,TX,77091,1650000,,,Highland Heights,,87074,,1,,,Pre On-Market,,,https://www.redfin.com/TX/Houston/Wheatley-St-77091/home/29686505,HARMLS,50089384,N,Y,29.849502,-95.42818
MLS Listing,,Vacant Land,726 E 39th St,Houston,TX,77022,130000,,,Independence Heights Park,,4000,,1,,,Active,,,https://www.redfin.com/TX/Houston/726-E-39th-St-77022/home/29705226,HARMLS,89154239,N,Y,29.8212489,-95.3897753
MLS Listing,,Vacant Land,2 Magnolia Bend Dr,Houston,TX,77024,649000,,,Bayou Bend Estates,,25988,,1,,,Active,,,https://www.redfin.com/TX/Houston/2-Magnolia-Bend-Dr-77024/home/30522342,HARMLS,10352266,N,Y,29.760308,-95.500199
MLS Listing,,Single Family Residential,4903 Augusta Pointe Ct,Katy,TX,77494,397000,2,2.0,Cinco Ranch Southwest,1737,6571,2013,1,229,119,Active,,,https://www.redfin.com/TX/Katy/4903-Augusta-Pointe-Ct-77494/home/45371663,HARMLS,41881580,N,Y,29.7172904,-95.8138321
MLS Listing,,Single Family Residential,11003 Malden Dr,Houston,TX,77075,285000,3,2.0,Bridgegate Sec 3,1911,6647,2001,1,149,,Pre On-Market,,,https://www.redfin.com/TX/Houston/11003-Malden-Dr-77075/home/30720347,HARMLS,20420365,N,Y,29.6055765,-95.2507046
MLS Listing,,Single Family Residential,12511 Taylorwood Ln,Houston,TX,77070,308000,4,2.0,Linnfield,1897,7744,2005,1,162,38,Active,September-21-2024 12:00 PM,September-21-2024 02:00 PM,https://www.redfin.com/TX/Houston/12511-Taylorwood-Ln-77070/home/29265515,HARMLS,4048489,N,Y,29.9549401,-95.5619535
MLS Listing,,Single Family Residential,5622 Lyden Ridge Dr,Houston,TX,77053,240000,3,2.0,Briar Villa Sec 1,1258,6301,1983,1,191,23,Active,,,https://www.redfin.com/TX/Houston/5622-Lyden-Ridge-Dr-77053/home/32822238,HARMLS,76810118,N,Y,29.5934819,-95.4709931
MLS Listing,,Single Family Residential,411 San Julio Dr,Houston,TX,77091,295000,3,2.0,San Julio Manor Sec 01,1481,5000,2007,1,199,165,Active,,,https://www.redfin.com/TX/Houston/411-San-Julio-Dr-77091/home/29411023,HARMLS,42908001,N,Y,29.8404757,-95.4042427
MLS Listing,,Single Family Residential,906 Blanchard Hill Ln,Houston,TX,77047,225000,3,2.0,Regal Oaks Sec 4,1320,4733,2005,1,170,36,Active,,,https://www.redfin.com/TX/Houston/906-Blanchard-Hill-Ln-77047/home/29360124,HARMLS,80217184,N,Y,29.6165374,-95.4091542
MLS Listing,,Single Family Residential,19402 Bear Meadow Ln,Katy,TX,77449,364990,3,2.0,Bear Creek Plantation Sec 04,2390,9801,1998,1,153,58,Active,,,https://www.redfin.com/TX/Katy/19402-Bear-Meadow-Ln-77449/home/30686138,HARMLS,11856384,N,Y,29.8660584,-95.7078181
MLS Listing,,Single Family Residential,975 W 43rd St,Houston,TX,77018,475000,3,2.0,Garden Oaks,1294,7850,1942,1,367,,Active,,,https://www.redfin.com/TX/Houston/975-W-43rd-St-77018/home/29945780,HARMLS,6482225,N,Y,29.8285617,-95.4232533
MLS Listing,,Single Family Residential,11343 Barrett Brae Dr,Houston,TX,77072,255000,4,2.0,Leawood,1459,6900,1968,1,175,13,Active,,,https://www.redfin.com/TX/Houston/11343-Barrett-Brae-Dr-77072/home/30218289,HARMLS,91662364,N,Y,29.6860075,-95.5777838
MLS Listing,,Single Family Residential,11019 Heron Nest St,Houston,TX,77064,339000,4,2.5,Heron Nest,2776,6050,2001,1,122,67,Active,,,https://www.redfin.com/TX/Houston/11019-Heron-Nest-St-77064/home/29171265,HARMLS,45656257,N,Y,29.9344982,-95.5482242
MLS Listing,,Single Family Residential,3325 Morrison St,Houston,TX,77009,2195000,3,2.5,Woodland Heights,4044,9750,1907,1,543,,Active,,,https://www.redfin.com/TX/Houston/3325-Morrison-St-77009/home/29765642,HARMLS,91146828,N,Y,29.7884411,-95.3734248
MLS Listing,,Single Family Residential,2318 Mcilhenny,Houston,TX,77004,525000,3,3.5,Emancipation Gardens,2028,1650,2024,1,259,,Active,,,https://www.redfin.com/TX/Houston/2318-McIlhenny-St-77004/home/192580137,HARMLS,76094435,N,Y,29.739182,-95.3618012
MLS Listing,,Single Family Residential,1106 Paul Quinn St Unit D,Houston,TX,77091,369900,3,2.5,Acres Urban Space,1763,2384,2024,1,210,117,Pre On-Market,,,https://www.redfin.com/TX/Houston/1106-Paul-Quinn-St-77091/unit-D/home/176866887,HARMLS,12471918,N,Y,29.8491984,-95.4295756
MLS Listing,,Single Family Residential,7815 Evergreen Terrace Ln,Houston,TX,77040,322900,3,2.0,Woodland Oaks,2281,6242,2005,1,142,16,Pre On-Market,,,https://www.redfin.com/TX/Houston/7815-Evergreen-Terrace-Ln-77040/home/29243645,HARMLS,84628458,N,Y,29.892727,-95.5102747
MLS Listing,,Single Family Residential,1106 Paul Quinn St Unit E,Houston,TX,77091,369900,3,2.5,Acres Urban Space,1763,2384,2024,1,210,117,Pre On-Market,,,https://www.redfin.com/TX/Houston/1106-Paul-Quinn-St-77091/unit-E/home/192580103,HARMLS,87463913,N,Y,29.8491984,-95.4295756
MLS Listing,,Single Family Residential,3009 Moonlit Mesa Ln,Houston,TX,77063,378140,3,2.5,Dunvale Village TH,1703,,2024,1,222,208,Active,,,https://www.redfin.com/TX/Houston/3009-Moonlit-Mesa-Ln-77063/home/192580102,HARMLS,86865636,N,Y,29.7323164,-95.5115165
MLS Listing,,Single Family Residential,2320 Mcilhenny,Houston,TX,77004,525000,3,3.5,Emancipation Gardens,2028,1650,2024,1,259,,Active,,,https://www.redfin.com/TX/Houston/2320-McIlhenny-St-77004/home/192580080,HARMLS,53115115,N,Y,29.7391769,-95.3617927
MLS Listing,,Single Family Residential,7559 Autumn Sun Dr,Houston,TX,77083,315000,3,2.5,Terra Del Sol Sec 04,2115,4176,2007,1,149,46,Active,,,https://www.redfin.com/TX/Houston/7559-Autumn-Sun-Dr-77083/home/29326027,HARMLS,49843314,N,Y,29.6964289,-95.6398442
MLS Listing,,Single Family Residential,2511 Langston St,Houston,TX,77007,599990,3,3.5,Villas at Kansas,2100,1908,2024,1,286,,Active,,,https://www.redfin.com/TX/Houston/2511-Langston-St-77007/home/192579767,HARMLS,72879822,N,Y,29.7814968,-95.4290555
MLS Listing,,Single Family Residential,2509 Langston St,Houston,TX,77007,589990,3,3.5,Villas at Kansas,2100,1558,2024,1,281,,Active,,,https://www.redfin.com/TX/Houston/2509-Langston-St-77007/home/190536789,HARMLS,26332361,N,Y,29.7814883,-95.4290554
MLS Listing,,Vacant Land,11115 Jutland Rd,Houston,TX,77048,70000,,,Crestmont Park Sec 02,,6032,,1,,,Active,,,https://www.redfin.com/TX/Houston/11115-Jutland-Rd-77048/home/30148909,HARMLS,14324489,N,Y,29.6380922,-95.3481028
MLS Listing,,Single Family Residential,2507 Langston St,Houston,TX,77007,589990,3,3.5,Villas at Kansas,2100,1658,2024,1,281,,Active,,,https://www.redfin.com/TX/Houston/2507-Langston-St-77007/home/190537079,HARMLS,40943118,N,Y,29.7814793,-95.4290553
MLS Listing,,Single Family Residential,409 Stonework Sage Ln,Houston,TX,77076,279900,3,2.5,Stoneworks Park Plaza,1568,2008,2023,1,179,50,Active,September-17-2024 02:00 PM,September-17-2024 06:00 PM,https://www.redfin.com/TX/Houston/409-Stonework-Sage-LN-77076/home/179318847,HARMLS,67509207,N,Y,29.866472,-95.376524
MLS Listing,,Single Family Residential,6317 Brighton Oaks Ln,Houston,TX,77008,507700,3,3.5,Palisades Park,2011,1861,2024,1,252,93,Active,September-17-2024 12:00 PM,September-17-2024 05:00 PM,https://www.redfin.com/TX/Houston/6317-Brighton-Oaks-Cir-77008/home/176865701,HARMLS,52963616,N,Y,29.784472,-95.4265829
MLS Listing,,Single Family Residential,4417 Hain St,Houston,TX,77009,475000,3,2.5,Irvington,1741,5500,1945,1,273,,Active,,,https://www.redfin.com/TX/Houston/4417-Hain-St-77009/home/29706194,HARMLS,64646502,N,Y,29.8006154,-95.3650916
MLS Listing,,Single Family Residential,3214 Echo Mountain Dr,Houston,TX,77345,399000,4,2.5,Mills Branch Village Sec 04,2607,7749,1992,1,153,40,Active,,,https://www.redfin.com/TX/Kingwood/3214-Echo-Mountain-Dr-77345/home/30628375,HARMLS,34929098,N,Y,30.079654,-95.1907409
MLS Listing,,Single Family Residential,3230 Barkers Crossing Ave,Houston,TX,77084,269900,3,2.0,Barkers Xing,1528,4725,2007,1,177,,Active,,,https://www.redfin.com/TX/Houston/3230-Barkers-Crossing-Ave-77084/home/29533971,HARMLS,77404933,N,Y,29.8156411,-95.6798378
MLS Listing,,Single Family Residential,2920 San Felipe St,Houston,TX,77019,1895000,3,3.5,River Oaks,2538,15250,1928,1,747,225,Active,,,https://www.redfin.com/TX/Houston/2920-San-Felipe-St-77019/home/29880605,HARMLS,68125963,N,Y,29.7485234,-95.4197944
MLS Listing,,Single Family Residential,31002 Myers Haven Ln,Hockley,TX,77447,354265,4,2.5,Dellrose,2206,5013,2024,1,161,83,Active,,,https://www.redfin.com/TX/Hockley/31002-Myers-Haven-Ln-77447/home/192579517,HARMLS,2218449,N,Y,30.0117971,-95.7826773
MLS Listing,,Single Family Residential,7514 Salge Dr,Houston,TX,77040,244990,3,1.5,Woodland Trails North Sec 3,1036,6820,1972,1,236,,Active,,,https://www.redfin.com/TX/Houston/7514-Salge-Dr-77040/home/30270088,HARMLS,32276426,N,Y,29.8823256,-95.504063
MLS Listing,,Single Family Residential,18610 Martinique Dr,Nassau Bay,TX,77058,479500,6,4.0,Nassau Bay,4170,21258,1967,1,115,18,Active,,,https://www.redfin.com/TX/Houston/18610-Martinique-Dr-77058/home/30206858,HARMLS,42316733,N,Y,29.5408709,-95.0899467
MLS Listing,,Single Family Residential,5921 Jasper Jones Way,Houston,TX,77091,299700,3,2.5,Mansfield Park,1611,1550,2024,1,186,100,Active,September-17-2024 11:00 AM,September-17-2024 05:00 PM,https://www.redfin.com/TX/Houston/5921-Jasper-Jones-Way-77091/home/182931639,HARMLS,88356968,N,Y,29.852392,-95.443856
MLS Listing,,Single Family Residential,6803 Cortenridge Ln,Houston,TX,77048,285000,3,3.0,Southridge Xing,2085,5913,2017,1,137,25,Active,,,https://www.redfin.com/TX/Houston/6803-Cortenridge-Ln-77048/home/144617667,HARMLS,18546665,N,Y,29.6058444,-95.3030104
MLS Listing,,Townhouse,12824 Verdi Dr,Houston,TX,77024,1179000,3,3.5,Memorial Townhomes at Verdi,2701,1800,2024,1,437,150,Active,,,https://www.redfin.com/TX/Houston/12824-Verdi-Dr-77024/home/190216804,HARMLS,26735114,N,Y,29.767309,-95.5608328
MLS Listing,,Single Family Residential,18310 Bluebird Branch Ln,Cypress,TX,77429,551683,3,2.5,Towne Lake,1985,7371,2025,1,278,159,Active,,,https://www.redfin.com/TX/Cypress/18310-Bluebird-Branch-Ln-77433/home/192578897,HARMLS,48181890,N,Y,29.9604649,-95.6956126
MLS Listing,,Single Family Residential,5603 Chevy Chase Dr,Houston,TX,77056,825000,3,2.0,Briarcroft,2194,9600,1954,1,376,,Pre On-Market,,,https://www.redfin.com/TX/Houston/5603-Chevy-Chase-Dr-77056/home/30050016,HARMLS,53094964,N,Y,29.7454389,-95.4746586
MLS Listing,,Single Family Residential,2026 Ashford Hollow Ln,Houston,TX,77077,399900,3,2.0,Ashford Hollow Sec 01,2224,5750,1981,1,180,38,Pre On-Market,,,https://www.redfin.com/TX/Houston/2026-Ashford-Hollow-Ln-77077/home/30402537,HARMLS,14439264,N,Y,29.7432947,-95.6039517
MLS Listing,,Single Family Residential,2819 Toyah Ave,Houston,TX,77039,339000,3,2.0,Castlewood Trc U/r,,,1964,1,,,Pre On-Market,,,https://www.redfin.com/TX/Houston/2819-Toyah-Ave-77039/home/30194750,HARMLS,85541084,N,Y,29.914132,-95.342714
MLS Listing,,Single Family Residential,6407 Lamayah St,Houston,TX,77091,359999,3,2.5,Indus Oak Residence,1653,1626,2024,1,218,,Active,,,https://www.redfin.com/TX/Houston/6407-Lamayah-ST-77091/home/192578778,HARMLS,16076528,N,Y,29.85643,-95.441092
MLS Listing,,Vacant Land,1265 Morris St,Houston,TX,77009,239000,,,Little & Dickinson,,5000,,1,,,Active,,,https://www.redfin.com/TX/Houston/1265-Morris-St-77009/home/29710226,HARMLS,68370855,N,Y,29.7844721,-95.3558108
MLS Listing,,Single Family Residential,5913 Jasper Jones Way,Houston,TX,77091,297700,3,2.5,Mansfield Park,1656,1572,2024,1,180,100,Active,September-17-2024 11:00 AM,September-17-2024 05:00 PM,https://www.redfin.com/TX/Houston/5913-Jasper-Jones-Way-77091/home/182931644,HARMLS,76116735,N,Y,29.852113,-95.443855
MLS Listing,,Single Family Residential,12807 Louisville St,Houston,TX,77015,229000,3,2.0,Hidden Forest Sec 01,1239,14984,1966,1,185,,Active,,,https://www.redfin.com/TX/Houston/12807-Louisville-St-77015/home/30150059,HARMLS,98374278,N,Y,29.7868246,-95.1968839
MLS Listing,,Single Family Residential,8334 Pebbledowne Dr,Houston,TX,77064,265000,4,2.0,Westbank,1716,8450,1980,1,154,29,Active,,,https://www.redfin.com/TX/Houston/8334-Pebbledowne-Dr-77064/home/30460998,HARMLS,47408399,N,Y,29.9025455,-95.5060602
MLS Listing,,Single Family Residential,2321 Silva Park Ln,Houston,TX,77091,294700,3,2.5,Mansfield Park,1534,1643,2024,1,192,100,Active,September-17-2024 11:00 AM,September-17-2024 05:00 PM,https://www.redfin.com/TX/Houston/2321-Silva-Park-Ln-77091/home/182931629,HARMLS,69514259,N,Y,29.852583,-95.444447
MLS Listing,,Vacant Land,0 Ella Blvd,Houston,TX,77014,685000,,,John W Bryan Abs,,90979,,1,,,Active,,,https://www.redfin.com/TX/Houston/0-Ella-BLVD-77090/home/188094588,HARMLS,92983484,N,Y,29.98391,-95.434782
MLS Listing,,Single Family Residential,2736 Albans Rd,Houston,TX,77005,1350000,3,2.5,Evanston Add,2374,6300,1938,1,569,,Active,September-18-2024 12:00 PM,September-18-2024 02:00 PM,https://www.redfin.com/TX/Houston/2736-Albans-Rd-77005/home/29960597,HARMLS,28413207,N,Y,29.7242403,-95.421934
MLS Listing,,Single Family Residential,636 E 12th 1/2 St,Houston,TX,77008,1200000,4,3.0,Stude Sec 02,2557,7750,1950,1,469,,Pre On-Market,,,https://www.redfin.com/TX/Houston/636-E-12th-1-2-St-77008/home/29755613,HARMLS,32832144,N,Y,29.7933424,-95.3905587
MLS Listing,,Vacant Land,6302 Ezzard Charles Ln,Houston,TX,77091,89000,,,International Sec 02,,5712,,1,,,Active,,,https://www.redfin.com/TX/Houston/6302-Ezzard-Charles-Ln-77091/home/30076356,HARMLS,10791167,N,Y,29.8562305,-95.4443058
MLS Listing,,Single Family Residential,7918 Lawn Wood Ln,Houston,TX,77086,235000,3,2.0,Willowood Sec 05,1384,7500,1976,1,170,25,Active,,,https://www.redfin.com/TX/Houston/7918-Lawn-Wood-Ln-77086/home/30331201,HARMLS,41001227,N,Y,29.9226394,-95.5117265
MLS Listing,,Condo/Co-op,16800 Sugar Pine Dr,Houston,TX,77090,98900,2,1.5,Woods Sugar Pine Condo,1074,123552,1983,1,92,340,Active,,,https://www.redfin.com/TX/Houston/16800-Sugar-Pine-Dr-77090/home/30572654,HARMLS,47244386,N,Y,30.0053293,-95.4552518
MLS Listing,,Townhouse,5014 Feagan St,Houston,TX,77007,499900,3,3.5,Feagan Terrace,2212,2193,2005,1,226,,Active,,,https://www.redfin.com/TX/Houston/5014-Feagan-St-77007/home/29400791,HARMLS,49169742,N,Y,29.7662658,-95.4118919
MLS Listing,,Condo/Co-op,8100 Creekbend Dr #192,Houston,TX,77071,80000,2,2.0,Braeswood Forest Condo,807,145495,1976,1,99,325,Active,,,https://www.redfin.com/TX/Houston/8100-Creekbend-Dr-77071/unit-192/home/29612251,HARMLS,91101224,N,Y,29.6658438,-95.5209048
MLS Listing,,Single Family Residential,9035 Gable Glen Ln,Houston,TX,77095,549990,4,2.0,Copper Lakes Sec 15,2314,14937,2007,1,238,83,Active,,,https://www.redfin.com/TX/Houston/9035-Gable-Glen-Ln-77095/home/29539823,HARMLS,41467017,N,Y,29.9093204,-95.6794541
MLS Listing,,Single Family Residential,5730 Balcones Ridge Ln,Houston,TX,77059,959999,4,3.5,El Dorado Clear Lake City Sec 3,4408,9145,2017,1,218,87,Active,,,https://www.redfin.com/TX/Houston/5730-Balcones-Ridge-Ln-77059/home/112826954,HARMLS,82510342,N,Y,29.6118373,-95.1246812
MLS Listing,,Single Family Residential,5522 Theall Rd,Houston,TX,77066,599700,5,3.5,Greenwood Forest,4849,18720,1975,1,124,94,Active,September-21-2024 11:00 AM,September-21-2024 02:00 PM,https://www.redfin.com/TX/Houston/5522-Theall-Rd-77066/home/30267553,HARMLS,23896284,N,Y,29.9739076,-95.5069309
MLS Listing,,Townhouse,1403 Delano St #2,Houston,TX,77003,325000,2,2.5,Delano Place Condos,1598,16345,2008,1,203,300,Pre On-Market,,,https://www.redfin.com/TX/Houston/1403-Delano-St-77003/unit-2/home/29615319,HARMLS,79956281,N,Y,29.7443267,-95.3518832
MLS Listing,,Condo/Co-op,8425 Sands Point Dr,Houston,TX,77036,120000,1,1.0,Townhomes On Park Ph 01,758,97066,1980,1,158,260,Active,,,https://www.redfin.com/TX/Houston/8425-Sands-Point-Dr-77036/home/30525271,HARMLS,67339695,N,Y,29.7142345,-95.5312708
MLS Listing,,Single Family Residential,8006 Lichen Ln,Spring,TX,77379,379788,4,3.5,Memorial Northwest Sec 02 R/p,3739,10800,1971,1,102,54,Active,,,https://www.redfin.com/TX/Spring/8006-Lichen-Ln-77379/home/30259356,HARMLS,13586352,N,Y,30.0164664,-95.5355239
MLS Listing,,Single Family Residential,2516 Avenue Of Oaks St,Houston,TX,77026,349900,3,2.5,Central Gardens Sec 02,1738,10537,2022,1,201,,Active,,,https://www.redfin.com/TX/Houston/2516-Avenue-of-Oaks-St-77026/home/190570424,HARMLS,37510795,N,Y,29.8117647,-95.3463104
MLS Listing,,Townhouse,1029 Country Place Dr #1029,Houston,TX,77079,225900,3,2.5,Willow Hollow T/h,2064,117105,1980,1,109,230,Active,,,https://www.redfin.com/TX/Houston/1029-Country-Place-Dr-77079/unit-1029/home/30404049,HARMLS,71953076,N,Y,29.7785617,-95.5997752
MLS Listing,,Single Family Residential,11 Wellford St Unit D,Houston,TX,77022,305990,3,2.5,Wellford Village,1556,1890,2024,1,197,70,Active,,,https://www.redfin.com/TX/Houston/11-Wellford-St-77022/unit-D/home/190337806,HARMLS,53853345,N,Y,29.83887,-95.3828107
MLS Listing,,Single Family Residential,2714 Tuam St,Houston,TX,77004,180000,2,1.0,Holman Outlot 23,872,2500,1938,1,206,,Active,,,https://www.redfin.com/TX/Houston/2714-Tuam-St-77004/home/29693031,HARMLS,55579585,N,Y,29.7342525,-95.3604909
MLS Listing,,Townhouse,17814 Kings Park Ln #33,Houston,TX,77058,179900,2,2.5,Kings Park T/h Condo,1350,104878,1979,1,133,2,Active,,,https://www.redfin.com/TX/Houston/17814-Kings-Park-Ln-77058/unit-33/home/30483262,HARMLS,89034391,N,Y,29.549414,-95.102289
MLS Listing,,Vacant Land,0 Laura Koppe Rd Rd,Houston,TX,77028,45000,,,Rosewood Estates,,3850,,1,,,Active,,,https://www.redfin.com/TX/Houston/Laura-Koppe-Rd-77028/home/188253704,HARMLS,59306946,N,Y,29.840084,-95.293523
MLS Listing,,Vacant Land,0 Laura Koppe Rd,Houston,TX,77028,45000,,,Rosewood Estates,,5250,,1,,,Active,,,https://www.redfin.com/TX/Houston/Laura-Koppe-Rd-77028/home/188253703,HARMLS,18257158,N,Y,29.840084,-95.293625
MLS Listing,,Single Family Residential,5406 Olympia Fields Ln,Houston,TX,77069,400000,5,3.5,Huntwick Forest Sec 08,3200,11430,1976,1,125,13,Active,,,https://www.redfin.com/TX/Houston/5406-Olympia-Fields-Ln-77069/home/30302214,HARMLS,63696074,N,Y,29.9847141,-95.5144315
MLS Listing,,Single Family Residential,14507 Ravenhurst Ln,Houston,TX,77070,348000,4,2.5,Prestonwood Forest Sec 05,2661,8904,1976,1,131,63,Active,,,https://www.redfin.com/TX/Houston/14507-Ravenhurst-Ln-77070/home/30322530,HARMLS,70347295,N,Y,29.986386,-95.5539963
MLS Listing,,Single Family Residential,1312 Zora St,Houston,TX,77055,1065000,4,3.5,Westview Terrace,3141,7605,2019,1,339,,Pre On-Market,,,https://www.redfin.com/TX/Houston/1312-Zora-St-77055/home/30018489,HARMLS,75662617,N,Y,29.7939541,-95.4631694
MLS Listing,,Single Family Residential,5902 Templegate Dr,Houston,TX,77066,369000,7,3.5,Greenwood Forest Sec 01,4216,11137,1970,1,88,47,Active,September-21-2024 10:00 AM,September-21-2024 02:00 PM,https://www.redfin.com/TX/Houston/5902-Templegate-Dr-77066/home/30245026,HARMLS,35868013,N,Y,29.9772119,-95.5168516
MLS Listing,,Single Family Residential,118 W Candler Dr,Houston,TX,77037,299900,4,3.0,Northline Terrace,1918,10477,1968,1,156,,Active,,,https://www.redfin.com/TX/Houston/118-W-Candler-Dr-77037/home/30214881,HARMLS,68945550,N,Y,29.8776262,-95.3998753
MLS Listing,,Single Family Residential,9 Wellford st St Unit D,Houston,TX,77022,318990,3,2.5,Wellford Village,1553,1870,2024,1,205,70,Active,,,https://www.redfin.com/TX/Houston/9-Wellford-St-77022/unit-D/home/189886168,HARMLS,13986115,N,Y,29.8388383,-95.3830356
MLS Listing,,Single Family Residential,13814 Dentwood Dr,Houston,TX,77014,249900,3,2.0,Cranbrook 1,1671,5460,1990,1,150,42,Active,,,https://www.redfin.com/TX/Houston/13814-Dentwood-Dr-77014/home/30535677,HARMLS,56369440,N,Y,29.9691003,-95.4371423
MLS Listing,,Single Family Residential,17431 Prospect Meadows Dr,Houston,TX,77095,350000,3,2.5,Canyon Lakes Village Sec 03,2645,5132,2003,1,132,78,Pre On-Market,,,https://www.redfin.com/TX/Houston/17431-Prospect-Meadows-Dr-77095/home/29276643,HARMLS,82169529,N,Y,29.9250938,-95.6823768
MLS Listing,,Single Family Residential,10910 Castle Peak Dr,Houston,TX,77095,525000,5,3.5,Stone Gate Sec 05,3261,9600,2004,1,161,103,Active,,,https://www.redfin.com/TX/Houston/10910-Castle-Peak-Dr-77095/home/30715157,HARMLS,3532148,N,Y,29.9293258,-95.6692551
MLS Listing,,Single Family Residential,12326 Silo Ln,Houston,TX,77071,250000,3,2.5,Fondren Sw Southmeadow,2442,6300,1978,1,102,30,Active,,,https://www.redfin.com/TX/Houston/12326-Silo-Ln-77071/home/30330131,HARMLS,94665162,N,Y,29.6430854,-95.5110708
MLS Listing,,Single Family Residential,15534 Wooden Oak Ct,Houston,TX,77059,639000,5,3.5,Bay Oaks Sec 15,4191,11674,1999,1,152,96,Active,,,https://www.redfin.com/TX/Houston/15534-Wooden-Oak-Ct-77059/home/30686207,HARMLS,94116060,N,Y,29.5938105,-95.1189822
MLS Listing,,Condo/Co-op,6001 Reims Rd #311,Houston,TX,77036,90000,1,1.0,Silverfield Condo Ph 1 & 2,693,142188,1979,1,130,265,Pre On-Market,,,https://www.redfin.com/TX/Houston/6001-Reims-Rd-77036/unit-311/home/30483035,HARMLS,59936305,N,Y,29.7154358,-95.5152053
MLS Listing,,Single Family Residential,11534 Meadow Lake Dr,Houston,TX,77077,324900,4,2.5,Village West,2468,11606,1978,1,132,66,Active,,,https://www.redfin.com/TX/Houston/11534-Meadow-Lake-Dr-77077/home/30355172,HARMLS,49678991,N,Y,29.7419144,-95.5804878
MLS Listing,,Single Family Residential,17527 Rose Summit Ln,Richmond,TX,77407,360000,4,2.0,Mission Trace Sec 5,2032,6606,2015,1,177,64,Active,,,https://www.redfin.com/TX/Richmond/17527-Rose-Summit-Ln-77407/home/109790080,HARMLS,61194451,N,Y,29.6774985,-95.6883421
MLS Listing,,Single Family Residential,62 Trenwood Ln,Houston,TX,77022,238500,3,1.0,Meadow Lea Annex Sec 02,1294,6240,1951,1,184,,Active,,,https://www.redfin.com/TX/Houston/62-Trenwood-Ln-77022/home/29976152,HARMLS,90222005,N,Y,29.8394421,-95.3778847
MLS Listing,,Single Family Residential,2509 Westgate Dr,Houston,TX,77019,2000000,5,7.0,Glendower Court,5361,7700,1989,1,373,79,Active,,,https://www.redfin.com/TX/Houston/2509-Westgate-Dr-77019/home/29839049,HARMLS,41086651,N,Y,29.7435578,-95.414431
MLS Listing,,Single Family Residential,4706 Devon St,Houston,TX,77027,2375000,5,7.0,Afton Oaks,5141,9452,2017,1,462,83,Pre On-Market,,,https://www.redfin.com/TX/Houston/4706-Devon-St-77027/home/30045591,HARMLS,11099566,N,Y,29.7358278,-95.4561858
MLS Listing,,Vacant Land,10121 Stonewood St,Houston,TX,77078,75000,,,Melbourne Place Sec 03,,7215,,1,,,Active,,,https://www.redfin.com/TX/Houston/10121-Stonewood-St-77078/home/30110039,HARMLS,33756258,N,Y,29.859611,-95.2766989
MLS Listing,,Single Family Residential,10511 Timberwood Dr,Houston,TX,77043,475000,3,2.0,Shadow Oaks,1824,8580,1969,1,260,,Active,,,https://www.redfin.com/TX/Houston/10511-Timberwood-Dr-77043/home/30161765,HARMLS,11822085,N,Y,29.8024622,-95.555965
MLS Listing,,Vacant Land,0 Hermann Rd,Houston,TX,77050,525000,,,Houston Suburban Heights,,125375,,1,,,Active,,,https://www.redfin.com/TX/Houston/Hermann-Rd-77050/home/29687940,HARMLS,92217277,N,Y,29.894222,-95.297713
MLS Listing,,Condo/Co-op,1409 Post Oak #1304,Houston,TX,77056,1395000,3,3.5,Astoria Condos,2826,,2014,1,494,2307,Active,,,https://www.redfin.com/TX/Houston/1409-Post-Oak-Blvd-77056/unit-1304/home/110195125,HARMLS,91930615,N,Y,29.7526197,-95.4593519
MLS Listing,,Single Family Residential,1204 W 22nd St Unit E,Houston,TX,77008,649900,3,3.5,Benys Estate Pt Rep #1,2402,1697,2023,1,271,,Active,,,https://www.redfin.com/TX/Houston/1204-W-22nd-St-77008/unit-E/home/188254523,HARMLS,57898363,N,Y,29.805554,-95.420677
MLS Listing,,Single Family Residential,12415 Shepherds Ridge Dr,Houston,TX,77077,399000,4,2.0,Ashford Forest Sec,1997,8750,1969,1,200,90,Active,,,https://www.redfin.com/TX/Houston/12415-Shepherds-Ridge-Dr-77077/home/30214405,HARMLS,82725953,N,Y,29.7549133,-95.5991438
MLS Listing,,Single Family Residential,10613 Chadwick St,Houston,TX,77029,149900,3,2.0,Industrial Add,1600,5000,1950,1,94,,Active,,,https://www.redfin.com/TX/Houston/10613-Chadwick-St-77029/home/29834597,HARMLS,35345895,N,Y,29.7626088,-95.2413281
MLS Listing,,Townhouse,412 N Post Oak Ln,Houston,TX,77024,399000,3,2.5,Post Oak Lane T/h Condo Ph 01,2016,190643,1968,1,198,847,Pre On-Market,,,https://www.redfin.com/TX/Houston/412-N-Post-Oak-Ln-77024/home/30317911,HARMLS,44691283,N,Y,29.7750402,-95.4572631
MLS Listing,,Multi-Family (2-4 Unit),7926 Count St,Houston,TX,77028,400000,0,2.0,Parkhurst Crossing,2298,3600,2024,1,174,,Active,,,https://www.redfin.com/TX/Houston/7926-Count-St-77028/home/192575980,HARMLS,33362953,N,Y,29.8473109,-95.2829848
MLS Listing,,Single Family Residential,12310 Village Of Kings Lake Blvd,Houston,TX,77044,289990,5,3.0,Village of Kings Lake Sec 02,2610,6050,2011,1,111,30,Active,,,https://www.redfin.com/TX/Houston/12310-Village-of-Kings-Lake-Blvd-77044/home/43485049,HARMLS,60274916,N,Y,29.8998428,-95.2164525
MLS Listing,,Multi-Family (2-4 Unit),10004 Haddick St,Houston,TX,77078,400000,0,2.0,Madera Villas,2298,3450,2024,1,174,,Active,,,https://www.redfin.com/TX/Houston/10004-Haddick-St-77078/home/192575979,HARMLS,5050083,N,Y,29.8580087,-95.2711951
MLS Listing,,Single Family Residential,11535 Noblewood Crest Ln,Houston,TX,77082,2100000,5,6.0,Royal Oaks Country Club 01 R/p,6553,12327,2000,1,320,261,Active,,,https://www.redfin.com/TX/Houston/11535-Noblewood-Crest-Ln-77082/home/30701840,HARMLS,32517762,N,Y,29.7243301,-95.5788354
MLS Listing,,Townhouse,9200 W Bellfort Ave #90,Houston,TX,77031,119900,2,1.5,Bellfort Place Condo,1152,,1979,1,104,386,Pre On-Market,,,https://www.redfin.com/TX/Houston/9200-W-Bellfort-Ave-77031/unit-90/home/30397232,HARMLS,58695138,N,Y,29.6565601,-95.5400348
MLS Listing,,Single Family Residential,6895 Oakwood Grv,Houston,TX,77040,210000,2,2.5,Oakwood Forest Sec 02,2229,3480,1991,1,94,199,Active,,,https://www.redfin.com/TX/Houston/6895-Oakwood-Grv-77040/home/30558417,HARMLS,44484685,N,Y,29.8684849,-95.5129151
MLS Listing,,Single Family Residential,2454 Brandy Mill Rd,Houston,TX,77067,250000,3,2.0,Heritage Village Sec 01,2021,5250,1990,1,124,40,Active,,,https://www.redfin.com/TX/Houston/2454-Brandy-Mill-Rd-77067/home/30550841,HARMLS,96225443,N,Y,29.9628639,-95.4585567
MLS Listing,,Single Family Residential,5762 Birdwood Rd,Houston,TX,77096,699999,7,4.5,Meyerland Sec 10,3594,11111,1967,1,195,49,Active,,,https://www.redfin.com/TX/Houston/5762-Birdwood-Rd-77096/home/30179526,HARMLS,46202825,N,Y,29.6821057,-95.4925036
MLS Listing,,Single Family Residential,731 Remwick Dr,Houston,TX,77073,185000,3,2.0,Remington Ranch Sec 14,1146,4415,2006,1,161,70,Active,,,https://www.redfin.com/TX/Houston/731-Remwick-Dr-77073/home/29363178,HARMLS,52175077,N,Y,29.9721269,-95.4073109
MLS Listing,,Single Family Residential,12518 Colony Hill Ln,Houston,TX,77014,330000,3,2.5,Sliverglen North Sec,2777,6555,2008,1,119,,Active,,,https://www.redfin.com/TX/Houston/12518-Colony-Hill-Ln-77014/home/29608115,HARMLS,9998679,N,Y,29.9763382,-95.4532511
MLS Listing,,Single Family Residential,202 Black Forest Dr,Spring,TX,77388,350000,4,2.5,Enchanted Oaks,2573,9225,1968,1,136,21,Active,,,https://www.redfin.com/TX/Spring/202-Black-Forest-Dr-77388/home/30209045,HARMLS,95220983,N,Y,30.044454,-95.4339907
MLS Listing,,Vacant Land,1802 Portsmouth St,Houston,TX,77098,900000,,,Richwood Add,,9102,,1,,,Active,,,https://www.redfin.com/TX/Houston/1802-Portsmouth-St-77098/home/29951851,HARMLS,5652758,N,Y,29.7338537,-95.4046415
MLS Listing,,Single Family Residential,12126 Attlee Dr,Houston,TX,77077,525000,6,4.0,Briar Lake,3953,8680,1973,1,133,70,Active,,,https://www.redfin.com/TX/Houston/12126-Attlee-Dr-77077/home/30279217,HARMLS,59046540,N,Y,29.7510272,-95.5954348
MLS Listing,,Single Family Residential,701 Coronado St,Houston,TX,77009,520000,3,2.0,Brooke Smith,1404,7500,1920,1,370,,Active,,,https://www.redfin.com/TX/Houston/701-Coronado-St-77009/home/167422416,HARMLS,20613956,N,Y,29.7998321,-95.3740677
MLS Listing,,Single Family Residential,4810 Bayou Vista Dr,Houston,TX,77091,649900,4,2.5,Candlelight Oaks Sec 02 R/p,2790,8160,1970,1,233,30,Active,,,https://www.redfin.com/TX/Houston/4810-Bayou-Vista-Dr-77091/home/30241903,HARMLS,25225804,N,Y,29.8472621,-95.462894
MLS Listing,,Single Family Residential,519 Milwaukee St,Houston,TX,77009,1250000,4,3.5,Lindale Park Sec 02,3561,5300,2024,1,351,,Active,,,https://www.redfin.com/TX/Houston/519-Milwaukee-St-77009/home/29947599,HARMLS,40365967,N,Y,29.8096147,-95.3638802
MLS Listing,,Single Family Residential,7205 Gonzales St,Houston,TX,77020,259000,3,2.5,Houston Harbor,1724,2500,2024,1,150,,Active,,,https://www.redfin.com/TX/Houston/7205-Gonzales-St-77020/home/29692267,HARMLS,92818172,N,Y,29.769955,-95.297359
MLS Listing,,Single Family Residential,609 E Wellington St,Houston,TX,77076,50000,2,1.0,F & T U/r,1054,4550,1940,1,47,,Active,,,https://www.redfin.com/TX/Houston/609-E-Wellington-St-77076/home/30095647,HARMLS,95575177,N,Y,29.8578919,-95.3905764
MLS Listing,,Townhouse,519 W Bell St,Houston,TX,77019,665000,3,3.5,Bellfordyce Place,2415,1465,2013,1,275,,Active,,,https://www.redfin.com/TX/Houston/519-W-Bell-St-77019/home/66048913,HARMLS,52262530,N,Y,29.7546537,-95.3878775
MLS Listing,,Single Family Residential,505 Graceland St,Houston,TX,77009,1450000,4,4.5,Lindale Park Sec 03,4260,7500,2025,1,340,,Active,,,https://www.redfin.com/TX/Houston/505-Graceland-St-77009/home/29947505,HARMLS,4940785,N,Y,29.8088436,-95.3648307
MLS Listing,,Single Family Residential,7203 Gonzales St,Houston,TX,77020,259000,3,2.5,Houston Harbor,1724,2500,2024,1,150,,Active,,,https://www.redfin.com/TX/Houston/7203-Gonzales-St-77020/home/29692266,HARMLS,36634035,N,Y,29.7699428,-95.2974888
MLS Listing,,Single Family Residential,5426 Whispering Creek Way,Houston,TX,77017,299000,3,2.0,Meadowcreek Village Sec 08,2032,8635,1959,1,147,,Pre On-Market,,,https://www.redfin.com/TX/Houston/5426-Whispering-Creek-Way-77017/home/30140200,HARMLS,33669510,N,Y,29.6721564,-95.2398969
MLS Listing,,Single Family Residential,4302 Gibson St Unit B,Houston,TX,77007,649900,3,3.5,Gibson Court,2367,2367,2006,1,275,,Active,,,https://www.redfin.com/TX/Houston/4302-Gibson-St-77007/unit-B/home/29526423,HARMLS,59459584,N,Y,29.7671635,-95.4033992
MLS Listing,,Single Family Residential,4422 Phlox St,Houston,TX,77051,299999,3,2.5,Reed Terrace,1585,2500,2024,1,189,,Active,,,https://www.redfin.com/TX/Houston/4422-Phlox-St-77051/home/29988725,HARMLS,35074880,N,Y,29.6589395,-95.3614699
MLS Listing,,Single Family Residential,15703 Easton Gate Ln,Houston,TX,77044,345000,3,2.0,Lakewood Pines,2195,7800,2019,1,157,92,Active,,,https://www.redfin.com/TX/Houston/15703-Easton-Gate-Ln-77044/home/170250688,HARMLS,80267211,N,Y,29.9473843,-95.1744495
MLS Listing,,Condo/Co-op,2016 Main St #1707,Houston,TX,77002,188000,1,1.0,Main Condo 03 Amd,625,,1964,1,301,662,Active,,,https://www.redfin.com/TX/Houston/2016-Main-St-77002/unit-1707/home/30489251,HARMLS,84528280,N,Y,29.7491884,-95.3716479
MLS Listing,,Condo/Co-op,7555 Katy Fwy #53,Houston,TX,77024,210000,2,2.0,Bayou Woods Condo,1163,288867,1972,1,181,835,Pre On-Market,,,https://www.redfin.com/TX/Houston/7555-Katy-Fwy-77024/unit-53/home/30399753,HARMLS,85709784,N,Y,29.7831752,-95.4630783
MLS Listing,,Single Family Residential,954 W 41st St,Houston,TX,77018,625000,3,2.0,Garden Oaks,1522,8070,1940,1,411,,Active,September-21-2024 02:00 PM,September-21-2024 04:00 PM,https://www.redfin.com/TX/Houston/954-W-41st-St-77018/home/29944625,HARMLS,32019252,N,Y,29.8243957,-95.4232087
MLS Listing,,Single Family Residential,23202 Twilight Oaks Ct,Katy,TX,77493,450000,5,3.0,Katy Trails,3275,12885,2018,1,137,50,Pre On-Market,,,https://www.redfin.com/TX/Katy/23202-Twilight-Oaks-Ct-77493/home/167837085,HARMLS,20497719,N,Y,29.8311658,-95.7771634
MLS Listing,,Single Family Residential,9622 Clanton St,Houston,TX,77080,277000,3,2.0,Kempwood North,1900,7520,1970,1,146,,Active,,,https://www.redfin.com/TX/Houston/9622-Clanton-St-77080/home/30208404,HARMLS,30134124,N,Y,29.8315484,-95.5302223
MLS Listing,,Condo/Co-op,1701 Hermann Dr Unit 28E,Houston,TX,77004,645900,2,2.0,Parklane Condo,1126,,1983,1,574,846,Active,,,https://www.redfin.com/TX/Houston/1701-Hermann-Dr-77004/unit-28E/home/30561317,HARMLS,40905044,N,Y,29.7189238,-95.38324
MLS Listing,,Single Family Residential,1519 Brendon Trails Dr,Spring,TX,77379,469000,3,2.5,Gleannloch Farms Sec 28,2936,8637,2005,1,160,96,Pre On-Market,,,https://www.redfin.com/TX/Spring/1519-Brendon-Trails-Dr-77379/home/29231767,HARMLS,96671209,N,Y,30.0507609,-95.5785392
MLS Listing,,Condo/Co-op,1701 Hermann Dr Unit 10E,Houston,TX,77004,512900,2,2.0,Parklane Condo,1126,,1983,1,456,950,Active,,,https://www.redfin.com/TX/Houston/1701-Hermann-Dr-77004/unit-10E/home/30560653,HARMLS,38871660,N,Y,29.7189238,-95.38324
MLS Listing,,Townhouse,15763 Tanya Cir,Houston,TX,77079,425000,4,3.5,The Oaks Of Fleetwood Th,3808,2970,2001,1,112,361,Active,,,https://www.redfin.com/TX/Houston/15763-Tanya-Cir-77079/home/147201761,HARMLS,96028321,N,Y,29.7721527,-95.6353006
MLS Listing,,Townhouse,5523 Darling St Unit A,Houston,TX,77007,575000,3,2.5,Cottage Grove Sec 03,2401,2688,2008,1,239,,Active,,,https://www.redfin.com/TX/Houston/5523-Darling-St-77007/unit-A/home/29618533,HARMLS,21395380,N,Y,29.7795969,-95.4211771
MLS Listing,,Single Family Residential,13526 Pegasus Rd,Cypress,TX,77429,690000,5,5.0,Lakewood Oaks Estates,4009,12500,1999,1,172,75,Active,,,https://www.redfin.com/TX/Cypress/13526-Pegasus-Rd-77429/home/30681817,HARMLS,68315688,N,Y,30.0054978,-95.6287708
MLS Listing,,Single Family Residential,8006 Hoffman St,Houston,TX,77016,125000,2,1.0,Triangle Gardens,1100,7320,1958,1,114,,Active,,,https://www.redfin.com/TX/Houston/8006-Hoffman-St-77016/home/29979986,HARMLS,37636134,N,Y,29.8335563,-95.3118793
MLS Listing,,Single Family Residential,11905 Barryknoll Ln,Houston,TX,77024,3399000,7,7.5,Riedel Estates,5865,15000,2020,1,580,,Pre On-Market,,,https://www.redfin.com/TX/Houston/11905-Barryknoll-Ln-77024/home/30025747,HARMLS,57523777,N,Y,29.7783078,-95.5352958
MLS Listing,,Single Family Residential,15519 Summer Briar Ct,Houston,TX,77489,170000,3,2.0,Briargate Sec 9,1460,6600,1979,1,116,12,Active,,,https://www.redfin.com/TX/Missouri-City/15519-Summer-Briar-Ct-77489/home/32818741,HARMLS,53755357,N,Y,29.6008116,-95.4792242
MLS Listing,,Single Family Residential,5415 Gano St,Houston,TX,77009,130000,0,,Ryon,768,5000,1952,1,169,,Active,,,https://www.redfin.com/TX/Houston/5415-Gano-St-77009/home/29741443,HARMLS,66063221,N,Y,29.8090627,-95.3557479
MLS Listing,,Vacant Land,0 Bryce,Houston,TX,77008,415000,,,Timbergrove Manor,,9304,,1,,,Active,,,https://www.redfin.com/TX/Houston/Bryce-77008/home/192573642,HARMLS,58646753,N,Y,29.790299,-95.419429
MLS Listing,,Single Family Residential,3346 Reeves St,Houston,TX,77004,319900,4,3.0,George Kulhman,1352,5000,1950,1,237,,Active,,,https://www.redfin.com/TX/Houston/3346-Reeves-St-77004/home/29708191,HARMLS,30207067,N,Y,29.7272077,-95.355081
MLS Listing,,Single Family Residential,707 Kahlden Ct,Houston,TX,77079,735000,4,3.5,Fleetwood Sec 01,2893,7052,1974,1,254,72,Pre On-Market,,,https://www.redfin.com/TX/Houston/707-Kahlden-Ct-77079/home/30279138,HARMLS,91378377,N,Y,29.7764842,-95.6378676
MLS Listing,,Vacant Land,2404 Live Oak St,Houston,TX,77004,90000,,,Holman Outlot 02,,5000,,1,,,Pre On-Market,,,https://www.redfin.com/TX/Houston/2404-Live-Oak-St-77004/home/29693178,HARMLS,7498510,N,Y,29.737991,-95.360031
MLS Listing,,Single Family Residential,1126 Gardencrest Ln,Houston,TX,77077,535000,3,2.5,Parkway Village,2665,4306,2002,1,201,233,Active,,,https://www.redfin.com/TX/Houston/1126-Gardencrest-Ln-77077/home/30721215,HARMLS,50742955,N,Y,29.7666868,-95.6265328
MLS Listing,,Single Family Residential,23915 Spring Moss Dr,Spring,TX,77373,264000,3,2.0,North Spring Sec 01 U/r & R/p,1637,7475,1975,1,161,18,Active,,,https://www.redfin.com/TX/Spring/23915-Spring-Moss-Dr-77373/home/30317799,HARMLS,43155988,N,Y,30.057031,-95.3919638
MLS Listing,,Single Family Residential,4422 Sorsby Dr,Houston,TX,77047,279000,4,2.5,Cullen Estates Sec 02,2005,7816,2005,1,139,20,Active,,,https://www.redfin.com/TX/Houston/4422-Sorsby-Dr-77047/home/29294987,HARMLS,82054749,N,Y,29.6285605,-95.3576313
MLS Listing,,Single Family Residential,6023 Glen Lee Dr,Houston,TX,77396,235000,3,1.5,Glen Lee Place,1280,7200,2003,1,184,,Active,,,https://www.redfin.com/TX/Humble/6023-Glen-Lee-Dr-77396/home/29302066,HARMLS,10449481,N,Y,29.9612642,-95.3011595
MLS Listing,,Single Family Residential,12035 Royal Oaks Run Dr,Houston,TX,77082,524000,3,2.5,Royal Oaks Landing,2199,3350,2024,1,238,200,Active,September-19-2024 12:00 PM,September-19-2024 04:00 PM,https://www.redfin.com/TX/Houston/12035-Royal-Oaks-Run-Dr-77082/home/170255241,HARMLS,79389813,N,Y,29.7248687,-95.5921318
MLS Listing,,Vacant Land,6229 Dixie Dr,Houston,TX,77087,675000,,,Kings Court,,7802,,1,,,Active,,,https://www.redfin.com/TX/Houston/6229-Dixie-Dr-77087/home/192572439,HARMLS,49993807,N,Y,29.6790196,-95.3176435
MLS Listing,,Single Family Residential,2624 Quenby Ave,West University Place,TX,77005,2320000,5,4.5,Quenby Court Add,4509,7234,1998,1,515,,Active,September-18-2024 12:00 PM,September-18-2024 02:00 PM,https://www.redfin.com/TX/Houston/2624-Quenby-Ave-77005/home/29995273,HARMLS,31857425,N,Y,29.7218978,-95.4200951
MLS Listing,,Single Family Residential,11929 W Lakewood West Dr,Cypress,TX,77429,260000,3,2.0,Lakewood West,1755,5500,1980,1,148,13,Active,,,https://www.redfin.com/TX/Cypress/11929-Lakewood-West-Dr-77429/home/30453674,HARMLS,39532345,N,Y,29.977662,-95.6048753
MLS Listing,,Single Family Residential,10303 Spruce Villa Trce,Houston,TX,77044,270000,4,2.5,Evergreen Villas,2098,4998,2018,1,129,42,Active,,,https://www.redfin.com/TX/Houston/10303-Spruce-Villa-Trce-77044/home/167840977,HARMLS,10274427,N,Y,29.868238,-95.1995742
MLS Listing,,Single Family Residential,2415 Cortlandt St,Houston,TX,77008,1645200,3,3.5,Milroy Place,4113,5300,2015,1,400,,Pre On-Market,,,https://www.redfin.com/TX/Houston/2415-Cortlandt-St-77008/home/73991369,HARMLS,59818566,N,Y,29.8085167,-95.396151
MLS Listing,,Condo/Co-op,2001 Holcombe Blvd #502,Houston,TX,77030,509000,3,2.0,Spires Condo,1597,,1983,1,319,1510,Active,,,https://www.redfin.com/TX/Houston/2001-Holcombe-Blvd-77030/unit-502/home/30561953,HARMLS,42442045,N,Y,29.707175,-95.3881475
MLS Listing,,Single Family Residential,5410 W 43rd St,Houston,TX,77092,357999,3,1.0,Oak Forest,1612,10249,1954,1,222,,Active,,,https://www.redfin.com/TX/Houston/5410-W-43rd-St-77092/home/30067100,HARMLS,32444388,N,Y,29.8332471,-95.471576
MLS Listing,,Single Family Residential,14219 Flower Creek Ln,Houston,TX,77077,719000,3,3.5,Lakes OF Parkway,2987,7500,2003,1,241,246,Active,,,https://www.redfin.com/TX/Houston/14219-Flower-Creek-Ln-77077/home/30725554,HARMLS,35280371,N,Y,29.7496879,-95.6366078
MLS Listing,,Single Family Residential,8223 Holiday Ln,Houston,TX,77075,275000,3,2.0,Houston Skyscraper Shadows 02,1385,19946,1971,1,199,,Active,,,https://www.redfin.com/TX/Houston/8223-Holiday-Ln-77075/home/30047845,HARMLS,2481562,N,Y,29.6221572,-95.2723541
MLS Listing,,Single Family Residential,7927 Belgard St,Houston,TX,77033,190000,3,1.0,Belfort Park Sec 02,1244,7200,1955,1,153,,Active,,,https://www.redfin.com/TX/Houston/7927-Belgard-St-77033/home/30053608,HARMLS,18952347,N,Y,29.6629637,-95.3249119
MLS Listing,,Single Family Residential,3207 Leafy Pine Ct,Houston,TX,77345,359999,4,2.5,Mills Branch Village Sec 04,2608,7467,1992,1,138,42,Active,,,https://www.redfin.com/TX/Kingwood/3207-Leafy-Pine-Ct-77345/home/30628581,HARMLS,28923006,N,Y,30.0822069,-95.1898616
MLS Listing,,Single Family Residential,2209 Collier,Houston,TX,77023,289000,3,2.0,Hampshire Oaks Ext Sec 01,1372,6570,1948,1,211,,Active,,,https://www.redfin.com/TX/Houston/2209-Collier-St-77023/home/29966215,HARMLS,64186959,N,Y,29.7161258,-95.3275597
MLS Listing,,Single Family Residential,5403 Beechnut St,Houston,TX,77096,429000,4,2.0,Braes View Terrace,2534,11859,1960,1,169,,Pre On-Market,,,https://www.redfin.com/TX/Houston/5403-Beechnut-St-77096/home/30120035,HARMLS,76179120,N,Y,29.6888152,-95.4795757
MLS Listing,,Single Family Residential,9314 Sandringham Dr,Houston,TX,77024,6350000,5,6.0,Sherwood Forest,7346,89122,1974,1,864,,Active,,,https://www.redfin.com/TX/Houston/9314-Sandringham-Dr-77024/home/29985246,HARMLS,52899456,N,Y,29.7781264,-95.468559
MLS Listing,,Vacant Land,4434 Noble St,Houston,TX,77020,99000,,,Weisenbergers Lucky 07,,4018,,1,,,Active,,,https://www.redfin.com/TX/Houston/4434-Noble-St-77020/home/29986177,HARMLS,63131398,N,Y,29.780323,-95.325345
MLS Listing,,Condo/Co-op,3525 Sage Rd #1309,Houston,TX,77056,270000,2,2.0,Sage Street Condo,1095,,1985,1,247,974,Active,,,https://www.redfin.com/TX/Houston/3525-Sage-Rd-77056/unit-1309/home/30605896,HARMLS,77967513,N,Y,29.729101,-95.466053
MLS Listing,,Single Family Residential,1115 Pear Tree Ln,Houston,TX,77073,320000,4,2.5,Inverness Forest Sec 02,2856,9579,1968,1,112,59,Pre On-Market,,,https://www.redfin.com/TX/Houston/1115-Pear-Tree-Ln-77073/home/30224573,HARMLS,30685022,N,Y,30.0293,-95.412875
MLS Listing,,Condo/Co-op,6001 Reims Rd #305,Houston,TX,77036,82000,1,1.0,Silverfield Condo Ph 01javascript:__dopo,693,142188,1979,1,118,268,Active,,,https://www.redfin.com/TX/Houston/6001-Reims-Rd-77036/unit-305/home/30483029,HARMLS,12482119,N,Y,29.7154358,-95.5152053
MLS Listing,,Single Family Residential,9930 Southport Dr,Houston,TX,77089,195000,3,1.0,Beverly Hills Sec 05 R/p,1059,11812,1962,1,184,,Active,,,https://www.redfin.com/TX/Houston/9930-Southport-Dr-77089/home/30149218,HARMLS,5947732,N,Y,29.6086536,-95.2337029
MLS Listing,,Single Family Residential,7839 Blue Stream Ct,Houston,TX,77041,370000,4,2.5,Westbrook Lakes Sec 02,2960,7230,2002,2,125,53,Pre On-Market,,,https://www.redfin.com/TX/Houston/7839-Blue-Stream-Ct-77041/home/29144724,HARMLS,72759691,N,Y,29.8928703,-95.6175198
MLS Listing,,Condo/Co-op,8521 Hearth Dr #33,Houston,TX,77054,132500,3,2.0,Hearthwood Condo Sec 01,1274,644316,1979,2,104,505,Active,,,https://www.redfin.com/TX/Houston/8521-Hearth-Dr-77054/unit-33/home/30445459,HARMLS,30285810,N,Y,29.68031,-95.4177641
MLS Listing,,Single Family Residential,7602 Glass St,Houston,TX,77016,299500,3,2.5,BB Place At Glass,1820,2864,2024,2,165,,Active,,,https://www.redfin.com/TX/Houston/7602-Glass-St-77016/home/30076222,HARMLS,35040799,N,Y,29.829157,-95.325542
MLS Listing,,Single Family Residential,11126 Muleshoe Ct,Houston,TX,77095,325000,3,2.0,Riata Ranch Sec 10,2004,6325,2003,2,162,72,Active,,,https://www.redfin.com/TX/Houston/11126-Muleshoe-Ct-77095/home/29168405,HARMLS,70512027,N,Y,29.9390468,-95.6759008
MLS Listing,,Single Family Residential,3710 Ashford Villa Ln,Houston,TX,77082,254900,4,2.5,Villas At Ashford Point,1918,2519,2006,2,133,132,Active,,,https://www.redfin.com/TX/Houston/3710-Ashford-Villa-Ln-77082/home/29196963,HARMLS,57297685,N,Y,29.7189303,-95.6058195
MLS Listing,,Single Family Residential,2223 Sunny Dr,Houston,TX,77093,100000,3,1.0,Oakwilde Sec 01,1189,7020,1960,2,84,,Active,,,https://www.redfin.com/TX/Houston/2223-Sunny-Dr-77093/home/30138232,HARMLS,77645257,N,Y,29.8814027,-95.3525147
MLS Listing,,Single Family Residential,13922 Burnett Hills Ln,Houston,TX,77059,880000,5,4.5,El Dorado Clear Lake City Sec 3,4217,12649,2017,2,209,83,Active,,,https://www.redfin.com/TX/Houston/13922-Burnett-Hills-Ln-77059/home/112827067,HARMLS,41070713,N,Y,29.6111012,-95.1232911
MLS Listing,,Single Family Residential,7950 Miley St,Houston,TX,77028,270000,3,2.0,East Villas,1392,5818,2021,2,194,,Active,,,https://www.redfin.com/TX/Houston/7950-Miley-St-77028/home/176867097,HARMLS,22377640,N,Y,29.8166717,-95.2822908
MLS Listing,,Single Family Residential,12523 Bexley Dr,Houston,TX,77099,185000,4,2.0,Brookfield Sec 01 R/p A & Ext,1917,7590,1974,2,97,18,Active,,,https://www.redfin.com/TX/Houston/12523-Bexley-Dr-77099/home/30271847,HARMLS,11872129,N,Y,29.6823491,-95.6015094
MLS Listing,,Single Family Residential,16223 Summer Wind Dr,Houston,TX,77090,268000,3,2.0,North Forest Sec 03,1732,14844,1973,2,155,26,Active,,,https://www.redfin.com/TX/Houston/16223-Summer-Wind-Dr-77090/home/30269081,HARMLS,64572490,N,Y,29.9998415,-95.4384931
MLS Listing,,Single Family Residential,5218 Wickview Ln,Houston,TX,77053,229500,3,2.5,Briarwick Sec 4,2148,6325,1977,2,107,,Active,,,https://www.redfin.com/TX/Houston/5218-Wickview-Ln-77053/home/56628469,HARMLS,22180322,N,Y,29.5993172,-95.4604701
MLS Listing,,Single Family Residential,2307 Winbern St,Houston,TX,77004,179000,2,1.0,Holman Outlot 46,648,2500,1949,2,276,,Active,,,https://www.redfin.com/TX/Houston/2307-Winbern-St-77004/home/29694566,HARMLS,66213634,N,Y,29.7316435,-95.3679432
MLS Listing,,Single Family Residential,17115 Copper Crossing Ct,Houston,TX,77084,379000,4,3.5,Brookhollow Crossing Sec 02,3674,6060,2005,2,103,31,Active,,,https://www.redfin.com/TX/Houston/17115-Copper-Crossing-Ct-77084/home/29290386,HARMLS,42083393,N,Y,29.8603633,-95.6677552
MLS Listing,,Single Family Residential,7642 Chasecreek Dr,Houston,TX,77489,255000,3,2.0,Southwest Crossing Sec 1,1752,13482,1991,2,146,29,Active,,,https://www.redfin.com/TX/Missouri-City/7642-Chasecreek-Dr-77489/home/33034096,HARMLS,23784509,N,Y,29.6124855,-95.5004415
MLS Listing,,Single Family Residential,858 Dunleigh Meadows Ln,Houston,TX,77055,874999,3,3.5,Somerset Green,3522,1675,2015,2,248,265,Pre On-Market,,,https://www.redfin.com/TX/Houston/858-Dunleigh-Meadows-Ln-77055/home/76420927,HARMLS,69877972,N,Y,29.7850777,-95.4435588
MLS Listing,,Townhouse,101 Phanturn Ln,Bellaire,TX,77401,499000,4,2.5,Phanturn R/p,2388,3501,1973,2,209,52,Pre On-Market,,,https://www.redfin.com/TX/Bellaire/101-Phanturn-Ln-77401/home/30268609,HARMLS,13968199,N,Y,29.7190379,-95.4516808
MLS Listing,,Single Family Residential,10903 Sagecrest Ln,Houston,TX,77089,275000,3,2.0,Sagemont Sec 06,1662,8800,1965,2,165,4,Active,,,https://www.redfin.com/TX/Houston/10903-Sagecrest-Ln-77089/home/30207724,HARMLS,82739253,N,Y,29.5953018,-95.2255701
MLS Listing,,Single Family Residential,334 Tite St,Houston,TX,77029,297990,3,2.0,Fidelity,1618,5000,2024,2,184,,Active,,,https://www.redfin.com/TX/Houston/334-Tite-St-77029/home/190886799,HARMLS,79321796,N,Y,29.7448911,-95.2557769
MLS Listing,,Single Family Residential,1505 Biondo Way,Houston,TX,77008,685000,4,3.5,Heights/minimax,2716,2205,2020,2,252,192,Pre On-Market,,,https://www.redfin.com/TX/Houston/1505-Biondo-Way-77008/home/170256828,HARMLS,45606734,N,Y,29.7962738,-95.4460157
MLS Listing,,Single Family Residential,6614 Tournament Dr,Houston,TX,77069,300000,3,2.0,Champions Creek,1805,3290,1996,2,166,125,Active,,,https://www.redfin.com/TX/Houston/6614-Tournament-Dr-77069/home/30553527,HARMLS,28850881,N,Y,29.9892209,-95.5381184
MLS Listing,,Condo/Co-op,5000 Milwee St #74,Houston,TX,77092,135000,2,1.0,Arbor Green Condo Ph 01,909,203006,1970,2,149,440,Active,,,https://www.redfin.com/TX/Houston/5000-Milwee-St-77092/unit-74/home/30445183,HARMLS,64328664,N,Y,29.8232014,-95.4637949
MLS Listing,,Townhouse,710 Country Place Dr Unit H,Houston,TX,77079,209000,2,2.5,Memorial Place T/h R/p & Ext,1284,1400,1981,2,163,350,Active,,,https://www.redfin.com/TX/Houston/710-Country-Place-Dr-77079/unit-H/home/30355875,HARMLS,68450486,N,Y,29.7717709,-95.6001754
MLS Listing,,Single Family Residential,9322 Bristlebrook Dr,Houston,TX,77083,300000,3,2.5,Keegans Wood Sec 3,1947,5208,1986,2,154,23,Active,,,https://www.redfin.com/TX/Houston/9322-Bristlebrook-Dr-77083/home/32909048,HARMLS,26073660,N,Y,29.6786771,-95.6320812
MLS Listing,,Single Family Residential,15822 Ridgeroe Ln Ln,Houston,TX,77053,235000,4,2.5,Ridgemont Sec 2,1512,6820,1973,2,155,33,Active,,,https://www.redfin.com/TX/Houston/15822-Ridgeroe-Ln-77053/home/33017191,HARMLS,72351452,N,Y,29.5928369,-95.4542293
MLS Listing,,Townhouse,415 Detering St,Houston,TX,77007,499900,3,3.5,Detering H E,2475,1782,1999,2,202,,Pre On-Market,,,https://www.redfin.com/TX/Houston/415-Detering-St-77007/home/29151677,HARMLS,34542124,N,Y,29.7664913,-95.4165106
MLS Listing,,Single Family Residential,11727 Red Hummingbird Dr,Houston,TX,77047,335000,4,2.5,City Park West Sec 7,2359,4247,2014,2,142,63,Active,,,https://www.redfin.com/TX/Houston/11727-Red-Hummingbird-Dr-77047/home/52561910,HARMLS,7847015,N,Y,29.6257883,-95.4057972
MLS Listing,,Single Family Residential,4354 Galesburg St,Houston,TX,77051,199000,3,2.0,Ruberfield,1421,5000,2006,2,140,,Active,,,https://www.redfin.com/TX/Houston/4354-Galesburg-St-77051/home/30030426,HARMLS,60311053,N,Y,29.6656554,-95.3623348
MLS Listing,,Single Family Residential,5535 W Ridgecreek Dr,Houston,TX,77053,241900,3,2.0,Ridgegate Sub Sec 1,1641,6306,1978,2,147,,Active,,,https://www.redfin.com/TX/Houston/5535-W-Ridgecreek-Dr-77053/home/33014351,HARMLS,39755327,N,Y,29.5959142,-95.4689335
MLS Listing,,Single Family Residential,1943 Mosa Creek Ct,Houston,TX,77017,275000,3,2.0,Meadow Creek Woods Patio Homes,1685,6378,1994,2,163,,Active,,,https://www.redfin.com/TX/Houston/1943-Mosa-Creek-Ct-77017/home/30536465,HARMLS,78355576,N,Y,29.6819317,-95.2450494
MLS Listing,,Single Family Residential,11046 Hoffer St,Houston,TX,77089,283000,3,2.0,Beverly Hills Sec 08,1298,5926,1965,2,218,,Pre On-Market,,,https://www.redfin.com/TX/Houston/11046-Hoffer-St-77089/home/30190335,HARMLS,62945289,N,Y,29.6084302,-95.2382305
MLS Listing,,Single Family Residential,12102 Palmton St,Houston,TX,77034,279999,4,3.0,Gulf Palms,1693,7540,1970,2,165,,Active,,,https://www.redfin.com/TX/Houston/12102-Palmton-St-77034/home/30162245,HARMLS,85928282,N,Y,29.6304708,-95.2104094
MLS Listing,,Single Family Residential,8203 Sunset Falls Ct,Spring,TX,77379,875000,4,3.5,Falls At Champion Forest,4675,11348,2002,2,187,196,Pre On-Market,,,https://www.redfin.com/TX/Spring/8203-Sunset-Falls-Ct-77379/home/29191888,HARMLS,81788171,N,Y,30.0104574,-95.5348922
MLS Listing,,Single Family Residential,610 Bienville Ln,Houston,TX,77015,205000,3,2.0,Riviera East Sec 01 R/p,1392,9760,1978,2,147,,Active,,,https://www.redfin.com/TX/Houston/610-Bienville-Ln-77015/home/30333561,HARMLS,12934228,N,Y,29.7882525,-95.1995742
MLS Listing,,Single Family Residential,6414 Crestridge St,Houston,TX,77033,350000,4,3.0,Southcrest Sec 01,2150,6600,1949,2,163,,Active,,,https://www.redfin.com/TX/Houston/6414-Crestridge-St-77033/home/30026111,HARMLS,46474156,N,Y,29.6864584,-95.3331545
MLS Listing,,Single Family Residential,3735 Inwood Dr,Houston,TX,77019,5250000,4,6.0,River Oaks Sec 11,7153,11147,2004,2,734,217,Active,,,https://www.redfin.com/TX/Houston/3735-Inwood-Dr-77019/home/29883118,HARMLS,34854322,N,Y,29.7504409,-95.438841
MLS Listing,,Vacant Land,2939 Jensen Dr,Houston,TX,77026,1212000,,,Greater Fifth Ward,,40989,,2,,,Active,,,https://www.redfin.com/TX/Houston/2939-Jensen-Dr-77026/home/182931398,HARMLS,40631295,N,Y,29.7891731,-95.3428085
