SALE TYPE,SOLD DATE,PROPERTY TYPE,ADDRESS,CITY,STATE OR PROVINCE,ZIP OR POSTAL CODE,PRICE,BEDS,BATHS,LOCATION,SQUARE FEET,LOT SIZE,YEAR BUILT,DAYS ON MARKET,$/SQUARE FEET,HOA/MONTH,STATUS,NEXT OPEN HOUSE START TIME,NEXT OPEN HOUSE END TIME,URL (SEE https://www.redfin.com/buy-a-home/comparative-market-analysis FOR INFO ON PRICING),SOURCE,MLS#,FAVORITE,INTERESTED,LATITUDE,LONGITUDE
MLS Listing,,Single Family Residential,5 Cherryhill Cv,Little Rock,AR,72211,295000,3,2.0,Lit - West Little Rock (northwes,1748,8276,1998,6,169,,Active,,,https://www.redfin.com/AR/Little-Rock/5-Cherryhill-Cv-72211/home/95362708,CARMLS,24033482,N,Y,34.7364111,-92.4091247
MLS Listing,,Single Family Residential,2318 Breckenridge Dr,Little Rock,AR,72227,280000,3,2.5,Lit - West Little Rock (northwes,2239,13503,1971,61,125,21,Active,,,https://www.redfin.com/AR/Little-Rock/2318-Breckenridge-Dr-72227/home/82826240,CARMLS,24025776,N,Y,34.7762977,-92.385173
MLS Listing,,Single Family Residential,40 Crape Myrtle Pl,Little Rock,AR,72210,230000,4,2.5,"Lit - Otter Creek, Westfield & S",2440,16552,1981,1,94,45,Active,,,https://www.redfin.com/AR/Little-Rock/40-Crape-Myrtle-Pl-72210/home/95352189,CARMLS,24034283,N,Y,34.6643452,-92.4386087
MLS Listing,,Condo/Co-op,1920 Stagecoach Vlg,Little Rock,AR,72210,239000,3,2.0,"Lit - Otter Creek, Westfield & S",1829,3920,2006,1,131,197,Active,,,https://www.redfin.com/AR/Little-Rock/1920-Stagecoach-Vlg-72210/home/95329275,CARMLS,24034263,N,Y,34.6704378,-92.422014
MLS Listing,,Single Family Residential,28 Glasgow Ct,Little Rock,AR,72211,419900,3,2.0,Pulaski County West,2627,7840,2007,1,160,43,Active,,,https://www.redfin.com/AR/Little-Rock/28-Glasgow-Ct-72211/home/87937074,CARMLS,24034258,N,Y,34.7673966,-92.4445198
MLS Listing,,Multi-Family (2-4 Unit),1853 S Gaines St,Little Rock,AR,72206,450000,7,4.0,Little Rock (downtown),4080,7405,1920,1,110,,Active,,,https://www.redfin.com/AR/Little-Rock/1853-S-Gaines-St-72206/home/192599436,CARMLS,24034255,N,Y,34.7315605,-92.2806796
MLS Listing,,Single Family Residential,6 Witry Ct,Little Rock,AR,,789000,5,4.5,Lit - West Little Rock (central),4466,16117,2001,1,177,119,Active,,,https://www.redfin.com/AR/Little-Rock/6-Witry-Ct-72223/home/82854232,CARMLS,24034220,N,Y,34.7659471,-92.4665484
MLS Listing,,Single Family Residential,13319 4th St,Alexander,AR,72002,1800000,5,4.0,Lit - Southwest Little Rock (sou,4809,696960,2022,1,374,,Active,,,https://www.redfin.com/AR/Alexander/13319-4th-St-72002/home/95353337,CARMLS,24034211,N,Y,34.627718,-92.440264
MLS Listing,,Single Family Residential,9 Foxfield Cv,Little Rock,AR,72211,750000,4,3.5,Lit - West Little Rock (northwes,3750,12632,2010,1,200,50,Active,,,https://www.redfin.com/AR/Little-Rock/9-Foxfield-Cv-72211/home/95358599,CARMLS,24034209,N,Y,34.7361056,-92.4316323
MLS Listing,,Single Family Residential,2121 S Fillmore,Little Rock,AR,72204,100000,3,2.0,Little Rock (ualr),1274,6098,1955,1,78,,Active,,,https://www.redfin.com/AR/Little-Rock/2121-S-Fillmore-St-72204/home/95322178,CARMLS,24034198,N,Y,34.7321058,-92.3367928
MLS Listing,,Vacant Land,10300 Woodbridge Dr,Little Rock,AR,72209,8500,,,Lit - Southwest Little Rock (cen,,8276,,1,,,Active,,,https://www.redfin.com/AR/Little-Rock/10300-Woodbridge-Dr-72209/home/82898698,CARMLS,24034190,N,Y,34.6570836,-92.3715241
MLS Listing,,Single Family Residential,5614 Big Oak,Little Rock,AR,72209,147500,3,2.0,Lit - Southwest Little Rock (cen,1226,,1972,1,120,,Active,,,https://www.redfin.com/AR/Little-Rock/5614-Big-Oak-Ln-72209/home/95326774,CARMLS,24034179,N,Y,34.6888477,-92.3391961
MLS Listing,,Single Family Residential,1118 W 34th St,Little Rock,AR,72206,99900,3,1.0,Little Rock (east),900,6969,1972,1,111,,Active,,,https://www.redfin.com/AR/Little-Rock/1118-W-34th-St-72206/home/81420306,CARMLS,24034177,N,Y,34.7157266,-92.2879965
MLS Listing,,Single Family Residential,45 Belmont Dr,Little Rock,AR,72204,163000,3,2.0,Little Rock (ualr),1440,10890,1955,1,113,,Active,,,https://www.redfin.com/AR/Little-Rock/45-Belmont-Dr-72204/home/95346568,CARMLS,24034173,N,Y,34.7301873,-92.3486341
MLS Listing,,Single Family Residential,1010 Brewer,Little Rock,AR,72206,134900,3,1.5,Pulaski County - Rural (south),1918,17859,1976,1,70,,Active,,,https://www.redfin.com/AR/Little-Rock/1010-Brewer-Rd-72206/home/95330366,CARMLS,24034162,N,Y,34.6293235,-92.2933399
MLS Listing,,Single Family Residential,9308 Cynthia Dr,Little Rock,AR,72205,168500,3,1.5,Lit - West Little Rock (north),1350,7405,1965,1,125,,Active,,,https://www.redfin.com/AR/Little-Rock/9308-Cynthia-Dr-72205/home/95342873,CARMLS,24034149,N,Y,34.7501324,-92.3780067
MLS Listing,,Single Family Residential,3119 Millbrook Rd,Little Rock,AR,72227,217000,3,2.0,Lit - West Little Rock (north),1623,10454,1972,1,134,13,Active,,,https://www.redfin.com/AR/Little-Rock/3119-Millbrook-Rd-72227/home/95337141,CARMLS,24034143,N,Y,34.7814989,-92.3826666
MLS Listing,,Single Family Residential,6404 R St,Little Rock,AR,72207,445000,3,2.5,Lit - West Little Rock (north),1580,2178,2024,1,282,,Active,,,https://www.redfin.com/AR/Little-Rock/6404-R-St-72207/home/192590997,CARMLS,24034144,N,Y,34.7698666,-92.3455673
MLS Listing,,Single Family Residential,6400 R St,Little Rock,AR,72207,445000,3,2.5,Lit - West Little Rock (north),1580,2178,2024,1,282,,Active,,,https://www.redfin.com/AR/Little-Rock/6400-R-St-72207/home/192590966,CARMLS,24034142,N,Y,34.7698706,-92.3455244
MLS Listing,,Condo/Co-op,500 E 8th St #3,Little Rock,AR,72202,270000,2,2.0,Little Rock (downtown),1317,,1930,1,205,150,Active,,,https://www.redfin.com/AR/Little-Rock/500-E-8th-St-72202/unit-3/home/81378543,CARMLS,24034140,N,Y,34.7407673,-92.2669135
MLS Listing,,Single Family Residential,2600 Richland Dr,Little Rock,AR,72206,180000,3,2.0,Pulaski County (east),1512,51836,1945,2,119,,Active,,,https://www.redfin.com/AR/Little-Rock/2600-Richland-Dr-72206/home/81364371,CARMLS,24034107,N,Y,34.72052,-92.1985154
MLS Listing,,Condo/Co-op,40 Hampshire Cir,Little Rock,AR,72212,178000,2,2.0,Lit - West Little Rock (northwes,1261,,1973,2,141,259,Active,,,https://www.redfin.com/AR/Little-Rock/40-Hampshire-Cir-72212/home/82924082,CARMLS,24034101,N,Y,34.7706617,-92.4020014
MLS Listing,,Condo/Co-op,100 Kingsbridge Way,Little Rock,AR,72212,180000,2,2.5,Lit - West Little Rock (northwes,1380,5227,1980,2,130,280,Active,,,https://www.redfin.com/AR/Little-Rock/100-Kingsbridge-Way-72212/home/83409512,CARMLS,24034097,N,Y,34.7757055,-92.3905583
MLS Listing,,Single Family Residential,9203 Tanya Dr,Little Rock,AR,72204,140000,3,2.0,Lit - West Little Rock (central),1194,9583,1974,2,117,,Active,,,https://www.redfin.com/AR/Little-Rock/9203-Tanya-Dr-72204/home/81408892,CARMLS,24034084,N,Y,34.7318998,-92.3771147
MLS Listing,,Single Family Residential,1507 Loyola Dr,Little Rock,AR,72211,585000,5,4.0,Lit - West Little Rock (northwes,3900,11761,2005,2,150,42,Active,September-22-2024 02:00 PM,September-22-2024 04:00 PM,https://www.redfin.com/AR/Little-Rock/1507-Loyola-Dr-72211/home/95362477,CARMLS,24034077,N,Y,34.7670495,-92.436206
MLS Listing,,Single Family Residential,9320 Timber Vly,Little Rock,AR,72204,194900,3,2.0,Lit - West Little Rock (central),1453,10890,1986,2,134,,Active,,,https://www.redfin.com/AR/Little-Rock/9320-Timber-Valley-Rd-72204/home/95348530,CARMLS,24034074,N,Y,34.6987274,-92.3791536
MLS Listing,,Single Family Residential,3101 S Gaines St,Little Rock,AR,72206,144500,4,2.5,Little Rock (downtown),1780,10454,1953,2,81,,Active,,,https://www.redfin.com/AR/Little-Rock/3101-S-Gaines-St-72206/home/95325748,CARMLS,24034067,N,Y,34.7184209,-92.2813687
MLS Listing,,Single Family Residential,13726 Mail Route Rd,Little Rock,AR,72206,330000,2,2.0,Pulaski County - Rural (south),1928,91911,2022,2,171,,Active,,,https://www.redfin.com/AR/Little-Rock/13726-Mail-Route-Rd-72206/home/187472535,CARMLS,24034036,N,Y,34.6071714,-92.3056937
MLS Listing,,Single Family Residential,1900 & 1904 Valmar St,Little Rock,AR,72204,104900,2,1.0,Little Rock (ualr),936,10454,1940,2,112,,Active,,,https://www.redfin.com/AR/Little-Rock/1900-Valmar-St-72204/home/81380742,CARMLS,24034035,N,Y,34.7336764,-92.3129697
MLS Listing,,Single Family Residential,110 Laver Cir,Little Rock,AR,72210,189000,3,2.0,"Lit - Otter Creek, Westfield & S",1319,8276,1993,2,143,45,Active,,,https://www.redfin.com/AR/Little-Rock/110-Laver-Cir-72210/home/82866595,CARMLS,24034029,N,Y,34.6682837,-92.4306008
MLS Listing,,Single Family Residential,14115 Taylor Loop Rd,Little Rock,AR,72223,850000,3,1.0,Lit - West Little Rock (northwes,1500,78408,1974,2,567,,Active,,,https://www.redfin.com/AR/Little-Rock/14115-Taylor-Loop-Rd-72223/home/81391457,CARMLS,24034019,N,Y,34.7993334,-92.4363459
MLS Listing,,Single Family Residential,4 Marbais Pl,Little Rock,AR,72223,1289000,5,4.5,Pulaski County West,6190,30927,2000,2,208,197,Active,,,https://www.redfin.com/AR/Little-Rock/4-Marbais-Pl-72223/home/82912162,CARMLS,24033993,N,Y,34.7737218,-92.4768346
MLS Listing,,Single Family Residential,5121 Copper Creek Ln,Little Rock,AR,72223,533500,3,2.5,Pulaski County West,2381,675180,1989,2,224,,Active,,,https://www.redfin.com/AR/Little-Rock/5121-Copper-Creek-Ln-72223/home/95355844,CARMLS,24033987,N,Y,34.806031,-92.5853586
MLS Listing,,Single Family Residential,91 White Oak Ln,Little Rock,AR,72227,175000,3,1.5,Lit - West Little Rock (north),1118,7405,1968,2,157,,Active,,,https://www.redfin.com/AR/Little-Rock/91-White-Oak-Ln-72227/home/81392211,CARMLS,24033986,N,Y,34.7764573,-92.3609842
MLS Listing,,Single Family Residential,7807 Mabelvale Cutoff Rd,Little Rock,AR,72103,149900,3,1.5,Lit - Southwest Little Rock (sou,1492,20473,1960,3,100,,Active,,,https://www.redfin.com/AR/Mabelvale/7807-Mabelvale-Cut-Off-Rd-72103/home/81400653,CARMLS,24033932,N,Y,34.6549009,-92.3658623
MLS Listing,,Single Family Residential,31 Kingspark Rd,Little Rock,AR,72227,289900,3,2.5,Lit - West Little Rock (central),2223,10454,1968,4,130,21,Active,,,https://www.redfin.com/AR/Little-Rock/31-Kingspark-Rd-72227/home/82975613,CARMLS,24033924,N,Y,34.7718573,-92.3881595
MLS Listing,,Single Family Residential,7020 Amherst Dr,Little Rock,AR,72205,275000,4,2.5,Lit - West Little Rock (north),2121,10454,1962,4,130,,Active,,,https://www.redfin.com/AR/Little-Rock/7020-Amherst-Dr-72205/home/82895273,CARMLS,24033915,N,Y,34.7539858,-92.3530207
MLS Listing,,Single Family Residential,25 Waters Edge Dr,Little Rock,AR,72204,364000,4,2.0,"Lit - Otter Creek, Westfield & S",2275,10018,2007,4,160,13,Active,,,https://www.redfin.com/AR/Little-Rock/25-Waters-Edge-Dr-72204/home/82832597,CARMLS,24033914,N,Y,34.6948308,-92.3990676
MLS Listing,,Townhouse,5 Hampshire Cir,Little Rock,AR,72212,194900,3,2.5,Lit - West Little Rock (northwes,1728,,1973,4,113,310,Active,,,https://www.redfin.com/AR/Little-Rock/5-Hampshire-Cir-72212/home/81414412,CARMLS,24033905,N,Y,34.77055,-92.400879
MLS Listing,,Single Family Residential,1327 E Lawson Rd,Little Rock,AR,72210,500000,3,2.0,Bryant,2302,696960,1956,4,217,,Active,,,https://www.redfin.com/AR/Little-Rock/1327-E-Lawson-Rd-72210/home/81478741,CARMLS,24033898,N,Y,34.720472,-92.560771
MLS Listing,,Single Family Residential,14600 Taylor Loop,Little Rock,AR,72223,350000,4,3.5,Lit - West Little Rock (northwes,2717,18295,1994,4,129,,Active,,,https://www.redfin.com/AR/Little-Rock/14600-Taylor-Loop-Rd-72223/home/95334416,CARMLS,24033844,N,Y,34.7950171,-92.4392046
MLS Listing,,Single Family Residential,26 Clervaux Dr,Little Rock,AR,72223,599000,5,4.5,Pulaski County West,4135,10454,2003,4,145,48,Active,,,https://www.redfin.com/AR/Little-Rock/26-Clervaux-Dr-72223/home/81419367,CARMLS,24033839,N,Y,34.8087226,-92.5097174
MLS Listing,,Single Family Residential,3520 Holt,Little Rock,AR,72204,189990,3,2.0,Lit - West Little Rock (northwes,1214,10890,2023,5,156,,Active,,,https://www.redfin.com/AR/Little-Rock/3520-Holt-St-72204/home/81397673,CARMLS,24033818,N,Y,34.7210972,-92.377689
MLS Listing,,Single Family Residential,1611 S Cedar St,Little Rock,AR,72204,38000,2,1.0,Little Rock (ualr),898,6098,1950,5,42,,Active,,,https://www.redfin.com/AR/Little-Rock/1611-S-Cedar-St-72204/home/95322889,CARMLS,24033809,N,Y,34.7364765,-92.3178602
MLS Listing,,Single Family Residential,5416 Country Club Blvd,Little Rock,AR,72207,849000,3,3.0,Little Rock (heights/hillcrest),2292,6969,1930,5,370,,Active,,,https://www.redfin.com/AR/Little-Rock/5416-Country-Club-Blvd-72207/home/82886515,CARMLS,24033794,N,Y,34.7724302,-92.3342562
MLS Listing,,Single Family Residential,14506 Ridgewood Dr,Little Rock,AR,72211,259900,3,2.0,Lit - West Little Rock (northwes,1634,6098,1990,5,159,,Active,,,https://www.redfin.com/AR/Little-Rock/14506-Ridgewood-Dr-72211/home/95343957,CARMLS,24033779,N,Y,34.7324801,-92.4065934
MLS Listing,,Single Family Residential,125 Fletcher Ridge Dr,Little Rock,AR,72223,545000,4,3.0,Pulaski County West,2600,6534,2024,5,210,33,Active,,,https://www.redfin.com/AR/Little-Rock/125-Fletcher-Ridge-Dr-72223/home/183675425,CARMLS,24033767,N,Y,34.7616,-92.4821879
MLS Listing,,Vacant Land,54 Villa Vista Loop,Little Rock,AR,72204,95000,,,Lit - West Little Rock (central),,229561,,5,,,Active,,,https://www.redfin.com/AR/Little-Rock/54-Villa-Vista-Loop-72204/home/192542827,CARMLS,24033749,N,Y,34.7185369,-92.3840732
MLS Listing,,Vacant Land,0 Garrison Rd,Little Rock,AR,72223,975000,,,Pulaski County West,,2221560,,5,,,Active,,,https://www.redfin.com/AR/Little-Rock/Garrison-Rd-72223/home/81402168,CARMLS,24033734,N,Y,34.786565,-92.547287
MLS Listing,,Single Family Residential,2 Brookhaven Dr,Little Rock,AR,72205,290000,4,2.5,Lit - West Little Rock (north),2548,11325,1962,5,114,,Active,,,https://www.redfin.com/AR/Little-Rock/2-Brookhaven-Dr-72205/home/95342469,CARMLS,24033732,N,Y,34.75468,-92.3695815
MLS Listing,,Single Family Residential,39 Winthrop Pt,Little Rock,AR,72211,778500,4,3.0,Lit - West Little Rock (northwes,3932,14374,2012,5,198,50,Active,,,https://www.redfin.com/AR/Little-Rock/39-Winthrop-Point-72211/home/81415952,CARMLS,24033708,N,Y,34.7398182,-92.4327189
MLS Listing,,Single Family Residential,4 Racquet Ct,Little Rock,AR,72227,447000,4,3.0,Lit - West Little Rock (north),3101,12196,1969,5,144,,Active,,,https://www.redfin.com/AR/Little-Rock/4-Racquet-Ct-72227/home/81392437,CARMLS,24033675,N,Y,34.7804054,-92.3661602
MLS Listing,,Single Family Residential,24542 Knabe,Little Rock,AR,72210,375000,4,2.0,Pulaski County West,2007,223898,1988,5,187,,Active,,,https://www.redfin.com/AR/Little-Rock/24542-Knabe-Rd-72210/home/192536942,CARMLS,24033664,N,Y,34.7397227,-92.5463774
MLS Listing,,Condo/Co-op,301 Kings Row Dr #507,Little Rock,AR,72212,149900,2,2.0,Lit - West Little Rock (north),1065,,2006,5,141,240,Active,,,https://www.redfin.com/AR/Little-Rock/301-Kings-Row-Dr-72207/unit-507/home/81415232,CARMLS,24033658,N,Y,34.7715565,-92.3547308
MLS Listing,,Condo/Co-op,11 Pickering Dr,Little Rock,AR,72211,162000,3,2.5,Lit - West Little Rock (northwes,1447,1742,1973,6,112,,Active,,,https://www.redfin.com/AR/Little-Rock/11-Pickering-Dr-72211/home/95339411,CARMLS,24033653,N,Y,34.7675332,-92.4072179
MLS Listing,,Single Family Residential,60 Deauville Cir,Little Rock,AR,72223,1180000,5,5.5,Pulaski County West,5205,4356,2007,6,227,104,Active,,,https://www.redfin.com/AR/Little-Rock/60-Deauville-Cir-72223/home/95345366,CARMLS,24033635,N,Y,34.7887184,-92.4745287
MLS Listing,,Single Family Residential,2 Hanover Dr,Little Rock,AR,72209,95000,3,1.5,Lit - Southwest Little Rock (cen,1008,6534,1959,6,94,,Active,,,https://www.redfin.com/AR/Little-Rock/2-Hanover-Dr-72209/home/81399100,CARMLS,24033624,N,Y,34.6927739,-92.3515011
MLS Listing,,Single Family Residential,215 Wildcreek Blvd,Little Rock,AR,,484900,4,2.5,Pulaski County West,2482,5662,2019,6,195,35,Active,,,https://www.redfin.com/AR/Little-Rock/215-Wildcreek-Blvd-72223/home/140026534,CARMLS,24033609,N,Y,34.7688622,-92.4852043
MLS Listing,,Single Family Residential,5 Sunset Cir,Little Rock,AR,72207,675000,3,3.5,Little Rock (heights/hillcrest),2738,26571,1954,6,247,,Active,,,https://www.redfin.com/AR/Little-Rock/5-Sunset-Cir-72207/home/81392143,CARMLS,24033608,N,Y,34.7826592,-92.3503978
MLS Listing,,Single Family Residential,152 Fletcher Dr,Little Rock,AR,72223,464900,3,3.0,North Little Rock (central),2160,5662,2024,6,215,33,Active,,,https://www.redfin.com/AR/Little-Rock/152-Fletcher-Ridge-Dr-72223/home/186230863,CARMLS,24033602,N,Y,34.7626845,-92.4846049
MLS Listing,,Townhouse,22 Wickford Ln,Little Rock,AR,72212,235000,3,2.5,Lit - West Little Rock (northwes,1920,,1973,6,122,340,Active,,,https://www.redfin.com/AR/Little-Rock/22-Wickford-Ln-72212/home/82879522,CARMLS,24033565,N,Y,34.7696737,-92.4016775
MLS Listing,,Single Family Residential,301 Fletcher Loop,Little Rock,AR,72223,527500,4,3.0,Pulaski County West,2500,7405,2024,6,211,33,Active,,,https://www.redfin.com/AR/Little-Rock/301-Fletcher-Loop-72223/home/183675424,CARMLS,24033564,N,Y,34.761746,-92.4822159
MLS Listing,,Vacant Land,15100 Frazier Pike,Little Rock,AR,72206,1264800,,,Little Rock (east),,3240864,,6,,,Active,,,https://www.redfin.com/AR/Little-Rock/15100-Frazier-Pike-72206/home/81368216,CARMLS,24033558,N,Y,34.646693,-92.184555
MLS Listing,,Single Family Residential,7621 W 44th St,Little Rock,AR,72204,95000,2,1.0,Lit - Southwest Little Rock (cen,821,8276,1955,6,116,,Active,,,https://www.redfin.com/AR/Little-Rock/7621-W-44th-St-72204/home/95348650,CARMLS,24033556,N,Y,34.712477,-92.3613709
MLS Listing,,Single Family Residential,14720 Cecil Dr,Little Rock,AR,72223,349900,4,3.0,Lit - West Little Rock (northwes,2338,10890,1989,6,150,,Active,September-22-2024 02:00 PM,September-22-2024 03:00 PM,https://www.redfin.com/AR/Little-Rock/14720-Cecil-Dr-72223/home/95334589,CARMLS,24033552,N,Y,34.7964452,-92.4358095
MLS Listing,,Condo/Co-op,719 W 15th St,Little Rock,AR,72206,80000,3,2.0,Little Rock (downtown),1575,13939,1900,6,51,,Active,,,https://www.redfin.com/AR/Little-Rock/719-W-15th-St-72202/home/81378701,CARMLS,24033538,N,Y,34.7352711,-92.2809421
MLS Listing,,Single Family Residential,12212 Rainwood Rd,Little Rock,AR,72212,379000,4,3.0,Lit - West Little Rock (northwes,2516,7405,1988,6,151,,Active,,,https://www.redfin.com/AR/Little-Rock/12212-Rainwood-Rd-72212/home/95339017,CARMLS,24033530,N,Y,34.7692625,-92.4091963
MLS Listing,,Single Family Residential,5 Castle Hill Ct,Little Rock,AR,72227,295000,4,2.5,Lit - West Little Rock (northwes,2075,8712,1974,6,142,,Active,,,https://www.redfin.com/AR/Little-Rock/5-Castle-Hill-Ct-72227/home/93321763,CARMLS,24033485,N,Y,34.7783546,-92.3787975
MLS Listing,,Single Family Residential,3100 Alameda Dr,Little Rock,AR,72204,175000,3,2.0,Lit - West Little Rock (central),1465,10454,1920,6,119,,Active,,,https://www.redfin.com/AR/Little-Rock/3100-Alameda-Dr-72204/home/81419869,CARMLS,24033484,N,Y,34.7243331,-92.3490017
MLS Listing,,Single Family Residential,612 Timber Hill Dr,Little Rock,AR,72211,299900,3,2.0,Lit - West Little Rock (northwes,1732,10018,1985,6,173,,Active,,,https://www.redfin.com/AR/Little-Rock/612-Timber-Hill-Dr-72211/home/88838428,CARMLS,24033478,N,Y,34.7483851,-92.4156799
MLS Listing,,Single Family Residential,13721 Eagle Hawk Dr,Little Rock,AR,72206,240000,4,3.5,Lit - Southwest Little Rock (sou,2256,13503,1977,6,106,,Active,,,https://www.redfin.com/AR/Little-Rock/13721-Eagle-Hawk-Dr-72206/home/95362004,CARMLS,24033475,N,Y,34.6264344,-92.3431644
MLS Listing,,Single Family Residential,2901 Schiller St,Little Rock,AR,72206,64400,3,2.0,Little Rock (downtown),1162,6969,1975,7,55,,Active,,,https://www.redfin.com/AR/Little-Rock/2901-S-Schiller-St-72206/home/95326007,CARMLS,24033452,N,Y,34.7212541,-92.2968025
MLS Listing,,Single Family Residential,3801 Holt,Little Rock,AR,72204,155000,3,1.0,Lit - West Little Rock (central),1200,6534,1957,7,129,,Active,,,https://www.redfin.com/AR/Little-Rock/3801-Holt-St-72204/home/95347827,CARMLS,24033411,N,Y,34.7189196,-92.3772407
MLS Listing,,Single Family Residential,1419 Dorado Beach Dr,Little Rock,AR,72212,639000,5,4.0,Lit - West Little Rock (northwes,3524,17859,2012,7,181,,Active,,,https://www.redfin.com/AR/Little-Rock/1419-Dorado-Beach-Dr-72212/home/95358631,CARMLS,24033379,N,Y,34.7795008,-92.4282246
MLS Listing,,Condo/Co-op,515 E Capitol Ave #105,Little Rock,AR,,189900,2,2.0,Little Rock (downtown),1260,,2005,7,151,371,Active,,,https://www.redfin.com/AR/Little-Rock/515-E-Capitol-Ave-72202/unit-105/home/81410872,CARMLS,24033378,N,Y,34.7428875,-92.265965
MLS Listing,,Condo/Co-op,423 E 3rd St #304,Little Rock,AR,72201,155000,1,1.0,Little Rock (downtown),688,,1930,7,225,165,Active,,,https://www.redfin.com/AR/Little-Rock/423-E-3rd-St-72201/unit-304/home/192479295,CARMLS,24033363,N,Y,34.7454388,-92.266339
MLS Listing,,Single Family Residential,10909 Breckenridge Dr,Little Rock,AR,72211,299000,4,2.5,Lit - West Little Rock (northwes,1743,11325,1973,7,172,8,Active,,,https://www.redfin.com/AR/Little-Rock/10909-Breckenridge-Dr-72211/home/95339092,CARMLS,24033355,N,Y,34.7646968,-92.3950965
MLS Listing,,Condo/Co-op,315 Rock St #1506,Little Rock,AR,72202,784500,2,2.5,Little Rock (downtown),1890,,2009,7,415,1186,Active,,,https://www.redfin.com/AR/Little-Rock/315-Rock-St-72202/unit-1506/home/82773271,CARMLS,24033342,N,Y,34.7452442,-92.2669651
MLS Listing,,Single Family Residential,1323 Gleneagles Ln,Little Rock,AR,72211,315000,3,2.0,Lit - West Little Rock (northwes,1904,7840,1992,8,165,29,Active,,,https://www.redfin.com/AR/Little-Rock/1323-Gleneagles-Ln-72211/home/95338252,CARMLS,24033269,N,Y,34.7655911,-92.4127274
MLS Listing,,Single Family Residential,2410 S Harrison St,Little Rock,AR,72204,150000,2,1.5,Little Rock (ualr),856,7405,1956,8,175,,Active,,,https://www.redfin.com/AR/Little-Rock/2410-S-Harrison-St-72204/home/95322205,CARMLS,24033245,N,Y,34.7291604,-92.3329963
MLS Listing,,Single Family Residential,2916 Youngwood Rd,Little Rock,AR,72207,495000,3,2.5,Lit - West Little Rock (north),2476,11761,1958,8,200,,Active,,,https://www.redfin.com/AR/Little-Rock/2916-Youngwood-Rd-72207/home/81392060,CARMLS,24033241,N,Y,34.7796487,-92.3545949
MLS Listing,,Vacant Land,15001 Beau Vue Dr,Little Rock,AR,72223,435000,,,Pulaski County West,,291852,,8,,70,Active,,,https://www.redfin.com/AR/Little-Rock/15001-Beau-Vue-Dr-72223/home/81410729,CARMLS,24033182,N,Y,34.809928,-92.440848
MLS Listing,,Single Family Residential,5201 Halifax Dr,Little Rock,AR,72209,115000,3,1.0,Lit - Southwest Little Rock (cen,888,10890,1965,9,130,,Active,,,https://www.redfin.com/AR/Little-Rock/5201-Halifax-Dr-72209/home/81384995,CARMLS,24031930,N,Y,34.6833306,-92.3348086
MLS Listing,,Single Family Residential,10 Alameda Dr,Little Rock,AR,72204,149900,2,2.0,Lit - West Little Rock (central),1375,8712,1956,9,109,,Active,,,https://www.redfin.com/AR/Little-Rock/10-Alameda-Dr-72204/home/95346989,CARMLS,24033140,N,Y,34.7264198,-92.3489516
MLS Listing,,Single Family Residential,26 Delrose Dr,Little Rock,AR,72209,134900,3,1.5,Lit - Southwest Little Rock (cen,1248,8712,1955,9,108,,Active,,,https://www.redfin.com/AR/Little-Rock/26-Delrose-Dr-72209/home/95349318,CARMLS,24033138,N,Y,34.6957706,-92.3503457
MLS Listing,,Vacant Land,1001 Johnson St,Little Rock,AR,72204,29990,,,Little Rock (downtown),,13939,,9,,,Active,,,https://www.redfin.com/AR/Little-Rock/1001-Johnson-St-72204/home/95321165,CARMLS,24033097,N,Y,34.7418539,-92.3076149
MLS Listing,,Single Family Residential,43 Warwick Rd,Little Rock,AR,72211,184000,3,2.0,Lit - West Little Rock (northwes,1357,7405,1968,9,136,,Active,,,https://www.redfin.com/AR/Little-Rock/43-Warwick-Rd-72205/home/81393713,CARMLS,24033094,N,Y,34.7641765,-92.3872402
MLS Listing,,Single Family Residential,6502 Tracy Ave,Little Rock,AR,,105000,3,1.0,Pulaski County (east),912,8276,1960,9,115,,Active,,,https://www.redfin.com/AR/Little-Rock/6502-Tracy-Ave-72206/home/81363969,CARMLS,24033091,N,Y,34.7196424,-92.1966711
MLS Listing,,Single Family Residential,3105 S State,Little Rock,AR,72206,67500,2,1.0,Little Rock (downtown),856,5227,1955,9,79,,Active,,,https://www.redfin.com/AR/Little-Rock/3105-S-State-St-72206/home/81384426,CARMLS,24033088,N,Y,34.718285,-92.282495
MLS Listing,,Vacant Land,00 W Maryland Ave,Little Rock,AR,72204,15000,,,Little Rock (ualr),,6534,,9,,,Active,,,https://www.redfin.com/AR/Little-Rock/Maryland-Ave-72204/home/95319113,CARMLS,24033085,N,Y,34.739747,-92.256093
MLS Listing,,Single Family Residential,7800 W 29th St,Little Rock,AR,,121000,3,2.0,Lit - West Little Rock (central),1229,6969,1965,9,98,,Active,,,https://www.redfin.com/AR/Little-Rock/7800-W-29th-St-72204/home/95346097,CARMLS,24033084,N,Y,34.7271629,-92.3612358
MLS Listing,,Single Family Residential,51 Hill Ln,Little Rock,AR,,85000,2,1.0,Lit - West Little Rock (central),824,7405,1965,9,103,,Active,,,https://www.redfin.com/AR/Little-Rock/51-Hill-Ln-72209/home/81385342,CARMLS,24033082,N,Y,34.7005256,-92.3347371
MLS Listing,,Single Family Residential,9524 Carling Dr,Little Rock,AR,,110000,3,1.0,Lit - Southwest Little Rock (sou,1289,8712,1965,9,85,,Active,,,https://www.redfin.com/AR/Little-Rock/9524-Carling-Dr-72209/home/81400404,CARMLS,24033074,N,Y,34.6629745,-92.3641839
MLS Listing,,Single Family Residential,9814 Woodland Dr,Little Rock,AR,72103,162000,3,2.0,Lit - Southwest Little Rock (sou,1554,10454,1977,9,104,,Active,,,https://www.redfin.com/AR/Mabelvale/9814-Woodland-Dr-72103/home/95353297,CARMLS,24033067,N,Y,34.6296999,-92.3894039
MLS Listing,,Vacant Land,897 N Hwy 67(roundtop Dr/brantley Ave),North Little Rock,AR,72217,10000,,,Sherwood,,6969,,9,,,Active,,,https://www.redfin.com/AR/North-little-Rock/897-N-Hwy-67-roundtop-Dr-brantley-Ave-72217/home/192440181,CARMLS,24033065,N,Y,34.740994,-92.276466
MLS Listing,,Single Family Residential,1801 Johnson St,Little Rock,AR,72204,35000,2,1.0,Little Rock (ualr),896,6969,1955,9,39,,Active,,,https://www.redfin.com/AR/Little-Rock/1801-Johnson-St-72204/home/81381695,CARMLS,24033021,N,Y,34.7344652,-92.3080619
MLS Listing,,Single Family Residential,6804 Hawthorne Rd,Little Rock,AR,72207,885000,4,3.5,Lit - West Little Rock (north),3507,7405,2024,9,252,,Active,,,https://www.redfin.com/AR/Little-Rock/6804-Hawthorne-Rd-72207/home/82920723,CARMLS,24033017,N,Y,34.7744534,-92.3489871
MLS Listing,,Single Family Residential,7 Apple Seed Cv,Little Rock,AR,72206,165000,3,2.0,Little Rock (downtown),1365,9583,2016,10,121,,Active,,,https://www.redfin.com/AR/Little-Rock/7-Appleseed-Cv-72206/home/95328372,CARMLS,24033003,N,Y,34.7062247,-92.2125249
MLS Listing,,Single Family Residential,1910 S Arch St,Little Rock,AR,72206,754000,5,3.0,Little Rock (downtown),4709,18730,1892,10,160,,Active,,,https://www.redfin.com/AR/Little-Rock/1910-S-Arch-St-72206/home/81383287,CARMLS,24032997,N,Y,34.7302107,-92.2801216
MLS Listing,,Single Family Residential,36 Nob Hill Cv,Little Rock,AR,72205,315000,3,2.0,Lit - West Little Rock (north),2728,17859,1989,10,115,,Active,,,https://www.redfin.com/AR/Little-Rock/36-Nob-Hill-Cv-72205/home/81420039,CARMLS,24032993,N,Y,34.7563719,-92.3636421
MLS Listing,,Single Family Residential,919 W Charles Bussey Ave,Little Rock,AR,72206,199900,3,1.5,Little Rock (downtown),1680,5662,1900,11,119,,Active,,,https://www.redfin.com/AR/Little-Rock/919-W-Charles-Bussey-Ave-72206/home/81383432,CARMLS,24032960,N,Y,34.7296109,-92.2842399
MLS Listing,,Single Family Residential,13220 County Farm Rd,Little Rock,AR,72223,990000,3,4.0,Pulaski County West,3261,181645,1987,11,304,,Active,,,https://www.redfin.com/AR/Little-Rock/13220-County-Farm-Rd-72223/home/95341678,CARMLS,24032955,N,Y,34.8192601,-92.4159568
MLS Listing,,Single Family Residential,2105 S Fillmore St,Little Rock,AR,72204,85000,2,1.0,Little Rock (ualr),936,6098,1956,11,91,,Active,,,https://www.redfin.com/AR/Little-Rock/2105-S-Fillmore-St-72204/home/95322174,CARMLS,24032947,N,Y,34.7326586,-92.3368021
MLS Listing,,Single Family Residential,519 Hall Dr,Little Rock,AR,72205,255000,3,2.0,Lit - West Little Rock (north),1721,9147,1964,11,148,,Active,,,https://www.redfin.com/AR/Little-Rock/519-Hall-Dr-72205/home/81394223,CARMLS,24032931,N,Y,34.7568156,-92.3478472
MLS Listing,,Single Family Residential,13 Michaels St,Little Rock,AR,72204,100000,3,1.0,Lit - West Little Rock (north),1056,8276,1960,11,95,,Active,,,https://www.redfin.com/AR/Little-Rock/13-Michaels-St-72204/home/95345957,CARMLS,24032926,N,Y,34.7420991,-92.3687741
MLS Listing,,Single Family Residential,3416 Capitol Ave,Little Rock,AR,72205,170000,2,1.0,Little Rock (heights/hillcrest),1040,6534,1955,12,163,,Active,,,https://www.redfin.com/AR/Little-Rock/3416-W-Capitol-Ave-72205/home/95320471,CARMLS,24032913,N,Y,34.7476784,-92.3116292
MLS Listing,,Single Family Residential,4 Big Stone Ct,Little Rock,AR,72227,411000,4,2.5,Lit - West Little Rock (north),2983,17859,1978,12,138,,Active,,,https://www.redfin.com/AR/Little-Rock/4-Big-Stone-Ct-72227/home/82956168,CARMLS,24032898,N,Y,34.7797441,-92.3897016
MLS Listing,,Single Family Residential,94 Ranch Ridge Rd,Little Rock,AR,72223,799000,4,3.0,Pulaski County West,4151,22215,2018,12,192,50,Active,,,https://www.redfin.com/AR/Little-Rock/94-Ranch-Ridge-Rd-72223/home/148473552,CARMLS,24032885,N,Y,34.8117206,-92.4550875
MLS Listing,,Single Family Residential,3 Diamanitina Way,Little Rock,AR,,249900,4,2.0,"Lit - Otter Creek, Westfield & S",1611,7405,2021,12,155,14,Active,,,https://www.redfin.com/AR/Little-Rock/3-Diamanitina-Way-72204/home/175992618,CARMLS,24030034,N,Y,34.6918049,-92.4015228
MLS Listing,,Single Family Residential,4704 W 25th St,Little Rock,AR,72204,80000,3,1.5,Little Rock (ualr),1180,6969,1951,12,68,,Active,,,https://www.redfin.com/AR/Little-Rock/4704-W-25th-St-72204/home/81381151,CARMLS,24032842,N,Y,34.7291909,-92.3264325
MLS Listing,,Single Family Residential,30 Bronte Ct,Little Rock,AR,72223,575000,4,3.0,Pulaski County West,3739,16552,2005,12,154,54,Active,,,https://www.redfin.com/AR/Little-Rock/30-Bronte-Ct-72223/home/82791417,CARMLS,24032838,N,Y,34.8104166,-92.4963776
MLS Listing,,Single Family Residential,146 Woodlands Park Dr,Little Rock,AR,72211,555000,3,3.5,Lit - West Little Rock (northwes,2595,6098,2024,12,214,125,Active,,,https://www.redfin.com/AR/Little-Rock/146-Woodlands-Park-Dr-72211/home/192396178,CARMLS,24032832,N,Y,34.7408417,-92.4266799
MLS Listing,,Single Family Residential,3221 Holt St,Little Rock,AR,72204,89899,2,1.0,Lit - West Little Rock (central),900,6534,1988,12,100,,Active,,,https://www.redfin.com/AR/Little-Rock/3221-Holt-St-72204/home/95347796,CARMLS,24032830,N,Y,34.7236736,-92.3770659
MLS Listing,,Single Family Residential,6601 Evergreen,Little Rock,AR,72207,460000,3,2.5,Lit - West Little Rock (north),2758,9147,1984,12,167,,Active,,,https://www.redfin.com/AR/Little-Rock/6601-Evergreen-Dr-72207/home/95340353,CARMLS,24032818,N,Y,34.7624957,-92.3466323
MLS Listing,,Single Family Residential,822 Wildcreek Cir,Little Rock,AR,72223,429500,3,2.0,Lit - West Little Rock (central),2154,6534,2020,12,199,35,Active,,,https://www.redfin.com/AR/Little-Rock/822-Wildcreek-Cir-72223/home/173990670,CARMLS,24032794,N,Y,34.7658719,-92.483042
MLS Listing,,Single Family Residential,316 N Plaza Dr,Little Rock,AR,72205,399900,5,3.0,Lit - West Little Rock (north),2813,11761,1961,12,142,,Active,,,https://www.redfin.com/AR/Little-Rock/316-N-Plaza-Dr-72205/home/82850412,CARMLS,24032785,N,Y,34.7553674,-92.3465091
MLS Listing,,Single Family Residential,4 Alameda Dr,Little Rock,AR,,131100,3,2.0,Little Rock (ualr),1267,8712,1957,12,103,,Active,,,https://www.redfin.com/AR/Little-Rock/4-Alameda-Dr-72204/home/82974197,CARMLS,24032763,N,Y,34.7268973,-92.3489341
MLS Listing,,Single Family Residential,9108 Tedburn Cir,Little Rock,AR,72209,108000,3,1.0,Lit - Southwest Little Rock (sou,888,8276,1967,12,122,,Active,,,https://www.redfin.com/AR/Little-Rock/9108-Tedburn-Cir-72209/home/81419656,CARMLS,24032746,N,Y,34.667294,-92.3744505
MLS Listing,,Single Family Residential,4512 W 16th St,Little Rock,AR,72204,108000,3,1.0,Little Rock (ualr),1110,5662,1956,12,97,,Active,,,https://www.redfin.com/AR/Little-Rock/4512-W-16th-St-72204/home/95321822,CARMLS,24032745,N,Y,34.7370274,-92.3245731
MLS Listing,,Single Family Residential,4101 W 13th St,Little Rock,AR,72204,110000,3,1.5,Little Rock (ualr),1118,4791,1940,12,98,,Active,,,https://www.redfin.com/AR/Little-Rock/4101-W-13th-St-72204/home/81381555,CARMLS,24032744,N,Y,34.7394777,-92.3192254
MLS Listing,,Single Family Residential,2703 Madison St,Little Rock,AR,72204,115000,2,1.0,Little Rock (ualr),816,7840,1950,12,141,,Active,,,https://www.redfin.com/AR/Little-Rock/2703-Madison-St-72204/home/95322376,CARMLS,24032743,N,Y,34.7270044,-92.3271474
MLS Listing,,Single Family Residential,4020 Malloy St,Little Rock,AR,72204,125000,3,1.0,Lit - West Little Rock (central),852,6534,1957,12,147,,Active,,,https://www.redfin.com/AR/Little-Rock/4020-Malloy-St-72204/home/88617253,CARMLS,24032742,N,Y,34.7165116,-92.375543
MLS Listing,,Single Family Residential,4816 W 30 St,Little Rock,AR,72204,179000,3,1.0,Little Rock (ualr),1217,10890,1963,13,147,,Active,,,https://www.redfin.com/AR/Little-Rock/4816-W-30th-St-72204/home/86072690,CARMLS,24032709,N,Y,34.724878,-92.3284216
MLS Listing,,Single Family Residential,5500 N Grandview St,Little Rock,AR,72207,675000,5,3.0,Little Rock (heights/hillcrest),3829,10454,1950,13,176,,Active,September-22-2024 12:00 AM,September-22-2024 11:59 PM,https://www.redfin.com/AR/Little-Rock/5500-N-Grandview-St-72207/home/81371425,CARMLS,24032698,N,Y,34.7791727,-92.3345676
MLS Listing,,Single Family Residential,9001 Cloverhill Rd,Little Rock,AR,72205,155000,3,1.5,Lit - West Little Rock (central),1193,12196,1965,13,130,,Active,,,https://www.redfin.com/AR/Little-Rock/9001-Cloverhill-Rd-72205/home/81395714,CARMLS,24032682,N,Y,34.7491188,-92.3750577
MLS Listing,,Single Family Residential,9914 Woodland Dr,Mabelvale,AR,72103,143500,3,2.0,Lit - Southwest Little Rock (cen,1520,10454,1975,13,94,,Active,,,https://www.redfin.com/AR/Mabelvale/9914-Woodland-Dr-72103/home/82860609,CARMLS,24032669,N,Y,34.6296287,-92.3902572
MLS Listing,,Condo/Co-op,1409 Louisiana St #10,Little Rock,AR,72202,279000,3,3.0,Little Rock (downtown),1993,,1911,13,140,500,Active,,,https://www.redfin.com/AR/Little-Rock/1409-S-Louisiana-St-72202/unit-10/home/177208322,CARMLS,24032668,N,Y,34.7349507,-92.2738502
MLS Listing,,Condo/Co-op,301 Kings Row Dr #206,Little Rock,AR,,139900,2,2.0,Lit - West Little Rock (north),1120,,1980,13,125,240,Active,,,https://www.redfin.com/AR/Little-Rock/301-Kings-Row-Dr-72207/unit-206/home/95336566,CARMLS,24032656,N,Y,34.7715565,-92.3547308
MLS Listing,,Vacant Land,1504 Arch,Little Rock,AR,72206,65000,,,Little Rock (downtown),,6969,,13,,,Active,,,https://www.redfin.com/AR/Little-Rock/1504-S-Arch-St-72202/home/148473388,CARMLS,24032643,N,Y,34.7349171,-92.2794478
MLS Listing,,Condo/Co-op,111 Vertical Lofts Dr,Little Rock,AR,72201,285000,3,2.5,Little Rock (heights/hillcrest),2190,2613,2008,13,130,189,Active,,,https://www.redfin.com/AR/Little-Rock/111-Vertical-Loft-Dr-72201/home/95358482,CARMLS,24032640,N,Y,34.7507066,-92.284851
MLS Listing,,Single Family Residential,1506 S State St,Little Rock,AR,72202,255000,4,3.0,Little Rock (east),2000,10454,1992,13,128,,Active,,,https://www.redfin.com/AR/Little-Rock/1506-S-State-St-72202/home/95319482,CARMLS,24032627,N,Y,34.7352436,-92.2816584
MLS Listing,,Single Family Residential,3917 Weldon Ave,Little Rock,AR,72204,319900,4,2.5,Lit - West Little Rock (central),2350,10890,2024,13,136,,Active,,,https://www.redfin.com/AR/Little-Rock/3917-Weldon-Ave-72204/home/81397968,CARMLS,24032621,N,Y,34.717918,-92.3804849
MLS Listing,,Single Family Residential,3901 Weldon Ave,Little Rock,AR,72204,319900,4,2.5,Lit - West Little Rock (central),2284,10890,2024,13,140,,Active,,,https://www.redfin.com/AR/Little-Rock/3901-Weldon-Ave-72204/home/187183218,CARMLS,24032616,N,Y,34.7182456,-92.3806466
MLS Listing,,Single Family Residential,701 N Tyler St,Little Rock,AR,72205,275000,3,2.0,Little Rock (heights/hillcrest),1640,8276,1962,13,168,,Active,,,https://www.redfin.com/AR/Little-Rock/701-N-Tyler-St-72205/home/82885652,CARMLS,24032604,N,Y,34.7574865,-92.3331041
MLS Listing,,Single Family Residential,112 Indian Trl,Little Rock,AR,72227,259900,3,2.0,Lit - West Little Rock (north),1335,9583,1958,13,195,,Active,,,https://www.redfin.com/AR/Little-Rock/112-Indian-Trl-72227/home/81392652,CARMLS,24032568,N,Y,34.7741364,-92.3583244
MLS Listing,,Single Family Residential,1922 W 22nd St,Little Rock,AR,,349900,3,2.5,Little Rock (downtown),2550,10018,1925,13,137,,Active,,,https://www.redfin.com/AR/Little-Rock/1922-W-22nd-St-72202/home/95361888,CARMLS,24032555,N,Y,34.7284896,-92.2951626
MLS Listing,,Single Family Residential,2101 S State St,Little Rock,AR,72206,75000,4,3.0,Little Rock (downtown),2672,6098,1910,14,28,,Active,,,https://www.redfin.com/AR/Little-Rock/2101-S-State-St-72206/home/81382261,CARMLS,24032331,N,Y,34.7286618,-92.2820327
MLS Listing,,Single Family Residential,3605 E Church St St,Little Rock,AR,72206,99900,3,1.0,Pulaski County (east),3060,84506,1978,14,33,,Active,,,https://www.redfin.com/AR/Little-Rock/3605-Church-St-72206/home/81385590,CARMLS,24032508,N,Y,34.68782,-92.240561
MLS Listing,,Single Family Residential,38 Scenic,Little Rock,AR,72207,598000,4,2.0,Little Rock (heights/hillcrest),2729,13503,1962,14,219,,Active,,,https://www.redfin.com/AR/Little-Rock/38-Scenic-Blvd-72207/home/81370646,CARMLS,24032502,N,Y,34.7800519,-92.3300029
MLS Listing,,Single Family Residential,112 N Palm,Little Rock,AR,72205,369000,3,2.0,Little Rock (heights/hillcrest),1538,6969,1900,14,240,,Active,,,https://www.redfin.com/AR/Little-Rock/112-N-Palm-St-72205/home/82984606,CARMLS,24032491,N,Y,34.7522727,-92.3253172
MLS Listing,,Single Family Residential,82 Kingspark Rd,Little Rock,AR,72227,350000,4,2.5,Lit - West Little Rock (north),2928,11325,1971,14,120,17,Active,,,https://www.redfin.com/AR/Little-Rock/82-Kingspark-Rd-72227/home/95337384,CARMLS,24032481,N,Y,34.7772427,-92.3878792
MLS Listing,,Single Family Residential,63 Cimarron Valley Dr,Little Rock,AR,72212,399500,4,2.5,Lit - West Little Rock (northwes,2298,13068,1972,14,174,38,Active,,,https://www.redfin.com/AR/Little-Rock/63-Cimarron-Valley-Dr-72212/home/95335665,CARMLS,24032445,N,Y,34.7762518,-92.3981223
MLS Listing,,Single Family Residential,322 Fairfax Dr,Little Rock,AR,72205,289900,2,1.0,Little Rock (heights/hillcrest),937,6969,1948,14,309,,Active,,,https://www.redfin.com/AR/Little-Rock/322-Fairfax-Dr-72205/home/95320210,CARMLS,24032442,N,Y,34.7529492,-92.3084141
MLS Listing,,Vacant Land,2404 Scott St,Little Rock,AR,72206,60000,,,Little Rock (downtown),,7405,,14,,,Active,,,https://www.redfin.com/AR/Little-Rock/2404-Scott-St-72206/home/82989983,CARMLS,24032437,N,Y,34.7254689,-92.273051
MLS Listing,,Single Family Residential,15 Meadow View Dr,Little Rock,AR,72223,389000,3,2.0,Pulaski County West,1900,8712,2015,14,205,105,Active,September-21-2024 01:00 PM,September-21-2024 04:00 PM,https://www.redfin.com/AR/Little-Rock/15-Meadow-View-Dr-72223/home/81417331,CARMLS,24032404,N,Y,34.7748157,-92.4822325
MLS Listing,,Vacant Land,111 Bear Den Ct,Little Rock,AR,72223,158000,,,Pulaski County West,,12632,,15,,31,Active,,,https://www.redfin.com/AR/Little-Rock/111-Bear-Den-Ct-72223/home/192351569,CARMLS,24032362,N,Y,34.7897843,-92.4854019
MLS Listing,,Multi-Family (2-4 Unit),1308 Center St,Little Rock,AR,72202,172000,2,,Little Rock (downtown),1664,6969,1958,15,103,,Active,,,https://www.redfin.com/AR/Little-Rock/1308-Center-St-72202/home/95319412,CARMLS,24032346,N,Y,34.736251,-92.2753844
MLS Listing,,Single Family Residential,7200 Kingwood Rd,Little Rock,AR,72207,370000,4,3.0,Lit - West Little Rock (north),2036,12196,1954,15,182,,Active,,,https://www.redfin.com/AR/Little-Rock/7200-Kingwood-Rd-72207/home/82908786,CARMLS,24032304,N,Y,34.7829077,-92.3538664
MLS Listing,,Single Family Residential,2020 Canal Pointe,Little Rock,AR,72202,645000,3,3.0,Little Rock (heights/hillcrest),2422,5662,1992,15,266,,Active,,,https://www.redfin.com/AR/Little-Rock/2020-Canal-Pointe-72202/home/95381296,CARMLS,24032300,N,Y,34.7692264,-92.3053065
MLS Listing,,Single Family Residential,14115 Longtree,Little Rock,AR,72212,669000,5,3.0,Lit - West Little Rock (northwes,4363,17424,1990,15,153,,Active,,,https://www.redfin.com/AR/Little-Rock/14115-Longtree-Dr-72212/home/79160087,CARMLS,24032240,N,Y,34.7916497,-92.4286767
MLS Listing,,Single Family Residential,2922 W 15 St,Little Rock,AR,72204,37000,3,1.0,Little Rock (ualr),1300,7840,1930,15,28,,Active,,,https://www.redfin.com/AR/Little-Rock/2922-W-15th-St-72204/home/95322417,CARMLS,24032238,N,Y,34.7375735,-92.3068132
MLS Listing,,Vacant Land,0 Kingston Dr,Little Rock,AR,72207,199000,,,Lit - West Little Rock (north),,16117,,15,,,Active,,,https://www.redfin.com/AR/Little-Rock/0-Kingston-Dr-72227/home/184936426,CARMLS,24032214,N,Y,34.7851739,-92.3783871
MLS Listing,,Condo/Co-op,47 Windsor Ct,Little Rock,AR,72212,299000,3,3.5,Lit - West Little Rock (northwes,2747,,1985,15,109,585,Active,,,https://www.redfin.com/AR/Little-Rock/47-Windsor-Ct-72212/home/81415841,CARMLS,24032204,N,Y,34.7751575,-92.4231686
MLS Listing,,Single Family Residential,2 Saddle Hill Ct,Little Rock,AR,72212,530000,4,3.5,Lit - West Little Rock (northwes,3966,22215,1986,15,134,25,Active,,,https://www.redfin.com/AR/Little-Rock/2-Saddle-Hill-Ct-72212/home/82945825,CARMLS,24032197,N,Y,34.7691258,-92.4220235
MLS Listing,,Single Family Residential,7005 W 43rd St,Little Rock,AR,72204,112500,3,2.0,Lit - Southwest Little Rock (cen,1300,9147,1963,16,87,,Active,,,https://www.redfin.com/AR/Little-Rock/7005-W-43rd-St-72204/home/95346916,CARMLS,24032172,N,Y,34.7130536,-92.3541021
MLS Listing,,Single Family Residential,6814 Carolina Dr,Little Rock,AR,72209,149000,3,1.5,Lit - Southwest Little Rock (cen,1275,7405,1970,16,117,,Active,,,https://www.redfin.com/AR/Little-Rock/6814-Carolina-Dr-72209/home/95349667,CARMLS,24032167,N,Y,34.6886015,-92.3608399
MLS Listing,,Multi-Family (5+ Unit),2401 S Scott St,Little Rock,AR,72206,450000,12,7.0,Little Rock (downtown),5505,24393,1893,16,82,,Active,,,https://www.redfin.com/AR/Little-Rock/2401-Scott-St-72206/home/95324772,CARMLS,24032159,N,Y,34.7255431,-92.2724068
MLS Listing,,Single Family Residential,68 Chenal Cir,Little Rock,AR,72223,1780000,6,5.5,Pulaski County West,7618,50965,1995,16,234,50,Active,September-22-2024 02:00 PM,September-22-2024 04:00 PM,https://www.redfin.com/AR/Little-Rock/68-Chenal-Cir-72223/home/82855075,CARMLS,24032148,N,Y,34.7726889,-92.469473
MLS Listing,,Single Family Residential,25 Spring Valley Ln,Little Rock,AR,72223,2980000,4,5.0,Pulaski County West,6492,58806,2018,16,459,167,Active,,,https://www.redfin.com/AR/Little-Rock/25-Spring-Valley-Ln-72223/home/144814374,CARMLS,24032123,N,Y,34.7973835,-92.46122
MLS Listing,,Single Family Residential,149 Caurel Cir,Little Rock,AR,72223,650000,4,3.5,Pulaski County West,3800,10018,2023,17,171,25,Active,,,https://www.redfin.com/AR/Little-Rock/149-Caurel-Cir-72223/home/173990624,CARMLS,24032113,N,Y,34.810512,-92.498332
MLS Listing,,Single Family Residential,8415 Oxford Valley Dr,Mabelvale,AR,72103,230000,3,2.0,Lit - Southwest Little Rock (sou,1575,5662,2024,18,146,21,Active,,,https://www.redfin.com/AR/Mabelvale/8415-Oxford-Valley-Dr-72103/home/192315397,CARMLS,24032083,N,Y,34.6473933,-92.3730998
MLS Listing,,Single Family Residential,8417 Oxford Valley Dr,Mabelvale,AR,72103,220000,3,2.0,Lit - Southwest Little Rock (sou,1415,5662,2024,18,155,21,Active,,,https://www.redfin.com/AR/Mabelvale/8417-Oxford-Valley-Dr-72103/home/192314102,CARMLS,24032081,N,Y,34.6473934,-92.3731024
MLS Listing,,Single Family Residential,8419 Oxford Valley Dr,Mabelvale,AR,72103,214000,3,2.0,Lit - Southwest Little Rock (sou,1263,5662,2024,18,169,21,Active,,,https://www.redfin.com/AR/Mabelvale/8419-Oxford-Valley-Dr-72103/home/192313065,CARMLS,24032065,N,Y,34.6473934,-92.3731051
MLS Listing,,Single Family Residential,8421 Oxford Valley Dr,Mabelvale,AR,72103,238000,4,2.0,Lit - Southwest Little Rock (sou,1796,5662,2024,18,133,21,Active,,,https://www.redfin.com/AR/Mabelvale/8421-Oxford-Valley-Dr-72103/home/192312964,CARMLS,24032062,N,Y,34.6473935,-92.3731077
MLS Listing,,Single Family Residential,200 Haywood Dr,Little Rock,AR,72223,1225000,5,4.0,Pulaski County West,4527,18295,2024,18,271,33,Active,,,https://www.redfin.com/AR/Little-Rock/200-Haywood-DR-72223/home/177811950,CARMLS,24032059,N,Y,34.7782168770218,-92.446074338623
MLS Listing,,Single Family Residential,2 Marchwood Cv,Little Rock,AR,72210,459900,4,4.5,Lit - West Little Rock (central),3209,13503,2009,18,143,6,Active,,,https://www.redfin.com/AR/Little-Rock/2-Marchwood-Cv-72210/home/95358296,CARMLS,24032056,N,Y,34.6899819,-92.4216819
MLS Listing,,Vacant Land,00 Shackleford Rd,Little Rock,AR,72204,2699000,,,Lit - West Little Rock (central),,2221560,,18,,,Active,,,https://www.redfin.com/AR/Little-Rock/S-Shackleford-Rd-72204/home/95349904,CARMLS,24032026,N,Y,34.697206,-92.391464
MLS Listing,,Single Family Residential,5513 Western Ln,Little Rock,AR,72209,155000,4,1.5,Lit - Southwest Little Rock (cen,1164,10454,1963,19,133,,Active,,,https://www.redfin.com/AR/Little-Rock/5513-Western-Ln-72209/home/81384931,CARMLS,24031962,N,Y,34.6988219,-92.3362039
MLS Listing,,Single Family Residential,1713 Tulane Ave,Little Rock,AR,72204,1000,2,1.0,Little Rock (ualr),1512,7405,1956,19,1,,Active,,,https://www.redfin.com/AR/Little-Rock/1713-Tulane-Ave-72204/home/95321870,CARMLS,24031941,N,Y,34.7353452,-92.3238623
MLS Listing,,Single Family Residential,7320 Royal Oaks Dr,Little Rock,AR,72209,370000,3,2.0,Lit - Southwest Little Rock (sou,2031,9147,2024,19,182,,Active,,,https://www.redfin.com/AR/Little-Rock/7320-Royal-Oaks-Dr-72209/home/81412290,CARMLS,24031914,N,Y,34.64756,-92.360811
MLS Listing,,Single Family Residential,17023 Edinburgh Dr,Little Rock,AR,72210,399900,4,2.0,Lit - West Little Rock (northwes,2241,14810,2016,19,178,100,Active,,,https://www.redfin.com/AR/Little-Rock/17023-Edinburgh-Dr-72210/home/95358312,CARMLS,24031866,N,Y,34.7175423,-92.4741922
MLS Listing,,Single Family Residential,2121 Peach Tree Dr,Little Rock,AR,72211,229900,3,2.0,Lit - West Little Rock (northwes,1574,10454,1980,19,146,10,Active,,,https://www.redfin.com/AR/Little-Rock/2121-Peach-Tree-Dr-72211/home/81395902,CARMLS,24031832,N,Y,34.7343802,-92.3994341
MLS Listing,,Single Family Residential,635 Epernay Pl,Little Rock,AR,72223,440000,3,2.5,Pulaski County West,2342,11325,2010,20,188,42,Active,,,https://www.redfin.com/AR/Little-Rock/635-Epernay-Pl-72223/home/82897516,CARMLS,24031796,N,Y,34.8120126,-92.5166895
MLS Listing,,Single Family Residential,2300 S Louisiana St,Little Rock,AR,72206,260000,3,2.0,Little Rock (downtown),1600,6098,1925,20,163,,Active,September-22-2024 02:00 PM,September-22-2024 04:00 PM,https://www.redfin.com/AR/Little-Rock/2300-Louisiana-St-72206/home/81383433,CARMLS,24031772,N,Y,34.7263629,-92.2753773
MLS Listing,,Single Family Residential,22 Wemberly Dr,Little Rock,AR,72209,220000,4,2.0,Lit - Southwest Little Rock (cen,1510,9583,1967,20,146,,Active,,,https://www.redfin.com/AR/Little-Rock/22-Wemberly-Dr-72209/home/95350805,CARMLS,24031770,N,Y,34.6631921,-92.3489567
MLS Listing,,Single Family Residential,15305 Taylor Loop Rd,Little Rock,AR,72223,329900,3,2.0,Lit - West Little Rock (northwes,1800,10454,1991,20,183,,Active,,,https://www.redfin.com/AR/Little-Rock/15305-Taylor-Loop-Rd-72223/home/95334214,CARMLS,24031766,N,Y,34.793615,-92.4425942
MLS Listing,,Single Family Residential,12 Rio Grande Forest Dr,Little Rock,AR,72212,189900,3,2.0,Lit - West Little Rock (northwes,1490,11325,1978,20,127,,Active,,,https://www.redfin.com/AR/Little-Rock/12-Rio-Grande-Forest-Dr-72212/home/95335306,CARMLS,24031758,N,Y,34.7899351,-92.4080188
MLS Listing,,Condo/Co-op,226 Cambridge Pl,Little Rock,AR,72227,239000,2,2.5,Lit - West Little Rock (north),1610,,1979,20,148,400,Active,,,https://www.redfin.com/AR/Little-Rock/226-Cambridge-Place-Dr-72227/home/82858610,CARMLS,24031749,N,Y,34.7845308,-92.3894787
MLS Listing,,Single Family Residential,1619 Barber,Little Rock,AR,72202,145000,2,1.0,Little Rock (east),1025,6969,1930,20,141,,Active,,,https://www.redfin.com/AR/Little-Rock/1619-Barber-St-72202/home/81378848,CARMLS,24031733,N,Y,34.7314105,-92.260866
MLS Listing,,Single Family Residential,118 Weston Pl,Little Rock,AR,72211,822400,4,4.0,Lit - West Little Rock (northwes,5140,21344,2007,20,160,43,Active,,,https://www.redfin.com/AR/Little-Rock/118-Weston-Pl-72211/home/82888780,CARMLS,24031705,N,Y,34.7670166,-92.4408629
MLS Listing,,Single Family Residential,1712 S Broadway St,Little Rock,AR,72002,350000,4,4.0,Little Rock (downtown),2291,7405,1989,20,153,,Active,,,https://www.redfin.com/AR/Little-Rock/1712-Broadway-St-72206/home/95319437,CARMLS,24031703,N,Y,34.7327644,-92.2786016
MLS Listing,,Vacant Land,15021 Angus Ct,Little Rock,AR,72210,30000,,,Lit - West Little Rock (northwes,,12196,,20,,600,Active,,,https://www.redfin.com/AR/Little-Rock/15021-Angus-Ct-72210/home/183675584,CARMLS,24031690,N,Y,34.716823,-92.476677
MLS Listing,,Vacant Land,15017 Angus Ct,Little Rock,AR,72210,30000,,,Lit - West Little Rock (northwes,,13503,,20,,600,Active,,,https://www.redfin.com/AR/Little-Rock/15017-Angus-Ct-72210/home/183675585,CARMLS,24031692,N,Y,34.716672,-92.47646
MLS Listing,,Vacant Land,15025 Angus Ct,Little Rock,AR,72210,30000,,,Lit - West Little Rock (northwes,,12196,,20,,600,Active,,,https://www.redfin.com/AR/Little-Rock/15025-Angus-Ct-72210/home/183675583,CARMLS,24031689,N,Y,34.716968,-92.476877
MLS Listing,,Vacant Land,15101 Angus Ct,Little Rock,AR,72210,30000,,,Lit - West Little Rock (northwes,,12196,,20,,600,Active,,,https://www.redfin.com/AR/Little-Rock/15101-Angus-Ct-72210/home/183675582,CARMLS,24031688,N,Y,34.717114,-92.477079
MLS Listing,,Vacant Land,15105 Angus Ct,Little Rock,AR,72210,30000,,,Lit - West Little Rock (northwes,,12196,,20,,600,Active,,,https://www.redfin.com/AR/Little-Rock/15105-Angus-Ct-72210/home/183675581,CARMLS,24031686,N,Y,34.717258,-92.477283
MLS Listing,,Single Family Residential,22 Wildwood Place Cir,Little Rock,AR,72223,495000,4,2.0,Pulaski County West,2497,8276,2016,20,198,40,Active,,,https://www.redfin.com/AR/Little-Rock/22-Wildwood-Place-Cir-72223/home/104517627,CARMLS,24031687,N,Y,34.7696893,-92.4834983
MLS Listing,,Single Family Residential,1809 River Hts,Little Rock,AR,72202,899000,3,2.5,Little Rock (downtown),3365,7840,1993,20,267,,Active,,,https://www.redfin.com/AR/Little-Rock/1809-River-Heights-Dr-72202/home/95381306,CARMLS,24031683,N,Y,34.768135,-92.3054739
MLS Listing,,Single Family Residential,2205 Valmar St,Little Flock,AR,72204,58000,2,1.0,Little Rock (ualr),768,6969,1940,20,76,,Active,,,https://www.redfin.com/AR/Little-Rock/2205-Valmar-St-72204/home/81382332,CARMLS,24031651,N,Y,34.7308926,-92.3126567
MLS Listing,,Single Family Residential,5821 F St,Little Rock,AR,72205,270000,3,1.5,Little Rock (heights/hillcrest),2094,26136,1932,20,129,,Active,,,https://www.redfin.com/AR/Little-Rock/5821-F-St-72205/home/90160347,CARMLS,24031639,N,Y,34.7573778,-92.3390923
MLS Listing,,Single Family Residential,30 Bellemeade Dr,Little Rock,AR,,225000,3,2.0,Little Rock (ualr),2002,21344,1958,21,112,,Active,,,https://www.redfin.com/AR/Little-Rock/30-Bellemeade-Dr-72204/home/81397254,CARMLS,24031617,N,Y,34.7242398,-92.3479219
MLS Listing,,Single Family Residential,108 S Pulaski St,Little Rock,AR,,219000,3,1.0,Little Rock (downtown),969,5227,1915,21,226,,Active,,,https://www.redfin.com/AR/Little-Rock/108-S-Pulaski-St-72201/home/173981624,CARMLS,24031615,N,Y,34.7496282,-92.284965
MLS Listing,,Single Family Residential,1106 Wild Turkey Ct,Little Rock,AR,72211,195000,3,2.5,Lit - West Little Rock (northwes,2200,9583,1973,21,89,6,Active,,,https://www.redfin.com/AR/Little-Rock/1106-Wild-Turkey-Ct-72211/home/81393659,CARMLS,24031613,N,Y,34.7635806,-92.4020191
MLS Listing,,Vacant Land,1510 S Cedar St,Little Rock,AR,72204,25000,,,Little Rock (downtown),,11761,,21,,,Active,,,https://www.redfin.com/AR/Little-Rock/1510-S-Cedar-St-72204/home/81381076,CARMLS,24031610,N,Y,34.7374328,-92.3183512
MLS Listing,,Single Family Residential,4619 Stratton Ave,Little Rock,AR,72209,70000,3,1.5,Lit - Southwest Little Rock (sou,1071,8712,1966,21,65,,Active,,,https://www.redfin.com/AR/Little-Rock/4619-Stratton-Ave-72209/home/81385028,CARMLS,24031602,N,Y,34.6741348,-92.3294232
MLS Listing,,Single Family Residential,6905 Briarwood,Little Rock,AR,72205,229000,3,2.0,Lit - West Little Rock (north),1670,10454,1962,21,137,,Active,,,https://www.redfin.com/AR/Little-Rock/6905-Briarwood-Dr-72205/home/82836098,CARMLS,24031558,N,Y,34.7513997,-92.3508691
MLS Listing,,Single Family Residential,11 Lombardy Ln,Little Rock,AR,72207,472300,3,2.0,Lit - West Little Rock (north),1505,9583,1940,21,314,,Active,September-22-2024 02:00 PM,September-22-2024 04:00 PM,https://www.redfin.com/AR/Little-Rock/11-Lombardy-Ln-72207/home/81393935,CARMLS,24031569,N,Y,34.769797,-92.3427582
MLS Listing,,Single Family Residential,52 Berkshire Dr,Little Rock,AR,72204,220000,3,1.5,Lit - West Little Rock (central),1648,7840,1957,21,133,,Active,,,https://www.redfin.com/AR/Little-Rock/52-Berkshire-Dr-72204/home/81397151,CARMLS,24031566,N,Y,34.730874,-92.3443724
MLS Listing,,Single Family Residential,3217 Boyd St,Little Rock,AR,72204,135000,3,1.0,Little Rock (ualr),1032,6534,1972,21,131,,Active,,,https://www.redfin.com/AR/Little-Rock/3217-Boyd-St-72204/home/95347441,CARMLS,24031555,N,Y,34.7235692,-92.3694193
MLS Listing,,Multi-Family (2-4 Unit),4204 W 23rd St,Little Rock,AR,72204,368000,10,4.0,Little Rock (ualr),3627,23086,,21,101,,Active,,,https://www.redfin.com/AR/Little-Rock/4204-W-23rd-St-72204/home/95323202,CARMLS,24031545,N,Y,34.7308036,-92.3209105
MLS Listing,,Single Family Residential,2718 Jackson,Little Rock,AR,72204,60000,3,1.0,Little Rock (ualr),1710,13503,1924,21,35,,Active,,,https://www.redfin.com/AR/Little-Rock/2718-S-Jackson-St-72204/home/81381010,CARMLS,24031499,N,Y,34.7268498,-92.3309902
MLS Listing,,Single Family Residential,1721 W 22nd St,Little Rock,AR,72202,89900,3,1.5,Little Rock (downtown),1484,6969,1930,21,61,,Active,,,https://www.redfin.com/AR/Little-Rock/1721-W-22nd-St-72202/home/95324076,CARMLS,24031458,N,Y,34.7280358,-92.2929659
MLS Listing,,Single Family Residential,2109 Westport Loop,Little Rock,AR,72212,360000,4,2.0,Lit - West Little Rock (northwes,2209,17859,1996,21,163,,Active,,,https://www.redfin.com/AR/Little-Rock/2109-Westport-Loop-72212/home/95337989,CARMLS,24031448,N,Y,34.7746291,-92.4289587
MLS Listing,,Single Family Residential,4908 Mchenry Creek Dr,Little Rock,AR,72210,675000,3,3.0,Pulaski County West,3120,219106,2011,22,216,50,Active,,,https://www.redfin.com/AR/Little-Rock/4908-McHenry-Creek-Cir-72210/home/95358729,CARMLS,24031435,N,Y,34.7114809,-92.4615929
MLS Listing,,Single Family Residential,1711 Mesquite Cir,Little Rock,AR,72211,260000,3,2.5,Lit - West Little Rock (northwes,1550,7405,1992,22,168,,Active,,,https://www.redfin.com/AR/Little-Rock/1711-Mesquite-Cir-72211/home/95343713,CARMLS,24031429,N,Y,34.7391022,-92.4172366
MLS Listing,,Vacant Land,5708 Lee Ave,Little Rock,AR,72205,69900,,,Little Rock (heights/hillcrest),,6969,,22,,,Active,,,https://www.redfin.com/AR/Little-Rock/5708-Lee-Ave-72205/home/82819134,CARMLS,24031410,N,Y,34.7559599,-92.3376702
MLS Listing,,Single Family Residential,19100 Springway Dr,Alexander,AR,72002,312900,3,2.0,Pulaski County West,1723,232610,2009,22,182,,Active,,,https://www.redfin.com/AR/Alexander/19100-Springway-Dr-72002/home/95377808,CARMLS,24031407,N,Y,34.6789887,-92.4917705
MLS Listing,,Vacant Land,9 Mountain Vis,Alexander,AR,72002,45000,,,Lit - Southwest Little Rock (sou,,15681,,22,,,Active,,,https://www.redfin.com/AR/Alexander/9-Mountain-Vista-Dr-72002/home/192256100,CARMLS,24031405,N,Y,34.6273646,-92.4314512
MLS Listing,,Vacant Land,13 Mountain Vis,Alexander,AR,72002,45000,,,Lit - Southwest Little Rock (sou,,16988,,22,,,Active,,,https://www.redfin.com/AR/Alexander/13-Mountain-Vista-Dr-72002/home/192255858,CARMLS,24031396,N,Y,34.6276879,-92.4312068
MLS Listing,,Vacant Land,15 Mountain Vis,Alexander,AR,72002,45000,,,Lit - Southwest Little Rock (sou,,18730,,22,,,Active,,,https://www.redfin.com/AR/Alexander/15-Mountain-Vista-Dr-72002/home/192255715,CARMLS,24031394,N,Y,34.627692,-92.4309413
MLS Listing,,Single Family Residential,19 Mountain Vista Dr,Alexander,AR,72002,367000,4,2.0,Pulaski County - Rural (south),1983,17859,2024,22,185,,Active,,,https://www.redfin.com/AR/Alexander/19-Mountain-Vista-Dr-72002/home/81414148,CARMLS,24031390,N,Y,34.6269827,-92.4323515
MLS Listing,,Condo/Co-op,510 Green Mountain Cir #91,Little Rock,AR,,105000,2,2.0,Lit - West Little Rock (central),1060,,1983,22,99,350,Active,,,https://www.redfin.com/AR/Little-Rock/510-Green-Mountain-Cir-72211/unit-91/home/95339555,CARMLS,24014209,N,Y,34.7578406,-92.4004046
MLS Listing,,Single Family Residential,17 Mountain Vista Dr,Alexander,AR,72002,349000,3,2.0,Pulaski County - Rural (south),1891,19602,2024,22,185,,Active,,,https://www.redfin.com/AR/Alexander/17-Mountain-Vista-Dr-72002/home/81414147,CARMLS,24031330,N,Y,34.6278118,-92.4306254
MLS Listing,,Townhouse,2805 Foxcroft Rd #603,Little Rock,AR,72227,225000,2,2.5,Lit - West Little Rock (north),1693,,1976,22,133,493,Active,,,https://www.redfin.com/AR/Little-Rock/2805-Foxcroft-Rd-72227/unit-603/home/81392147,CARMLS,24031316,N,Y,34.7780315,-92.3621004
MLS Listing,,Vacant Land,21 Mountain Vista Dr,Alexander,AR,72002,45000,,,Lit - Southwest Little Rock (sou,,16552,,22,,,Active,,,https://www.redfin.com/AR/Alexander/21-Mountain-Vista-Dr-72002/home/192253023,CARMLS,24031310,N,Y,34.6282171,-92.4299946
MLS Listing,,Single Family Residential,8490 N Rodney Parham Rd,Little Rock,AR,72205,170000,3,2.0,Lit - West Little Rock (north),1674,17424,1958,23,102,,Active,,,https://www.redfin.com/AR/Little-Rock/8490-N-Rodney-Parham-Rd-72205/home/95342407,CARMLS,24030778,N,Y,34.7545921,-92.3681378
MLS Listing,,Single Family Residential,30 Forest Valley Ln,Little Rock,AR,72223,375000,2,2.5,Pulaski County West,2167,8276,2013,23,173,8,Active,September-22-2024 02:00 PM,September-22-2024 04:00 PM,https://www.redfin.com/AR/Little-Rock/30-Forest-Valley-Ln-72223/home/95359397,CARMLS,24031247,N,Y,34.7973345,-92.4567209
MLS Listing,,Single Family Residential,6 Branch Dr,Little Rock,AR,72202,210000,3,2.0,Little Rock (heights/hillcrest),1400,16552,1952,23,150,,Active,,,https://www.redfin.com/AR/Little-Rock/6-Branch-Dr-72202/home/95382902,CARMLS,24031242,N,Y,34.7560849,-92.3005403
MLS Listing,,Vacant Land,414 N Spruce St,Little Rock,AR,72205,197000,,,Little Rock (heights/hillcrest),,9147,,23,,,Active,,,https://www.redfin.com/AR/Little-Rock/414-N-Spruce-St-72205/home/95321442,CARMLS,24031240,N,Y,34.7550783,-92.3263271
MLS Listing,,Single Family Residential,4500 Gooch Dr,Little Rock,AR,72223,250000,3,2.0,Lit - West Little Rock (northwes,1092,18295,1961,23,229,,Active,,,https://www.redfin.com/AR/Little-Rock/4500-Gooch-Dr-72223/home/81405770,CARMLS,24031185,N,Y,34.7956946,-92.4484592
MLS Listing,,Single Family Residential,5006 Manor Ave,Little Rock,AR,72204,188500,3,2.5,Lit - West Little Rock (central),2200,48787,1955,24,86,,Active,,,https://www.redfin.com/AR/Little-Rock/5006-Manor-Ave-72204/home/95348817,CARMLS,24031145,N,Y,34.7083314,-92.3708346
MLS Listing,,Single Family Residential,18124 Amazon Ln,Little Rock,AR,72206,80000,3,1.0,Little Rock (east),1080,43560,1960,24,74,,Active,,,https://www.redfin.com/AR/Little-Rock/18124-Amazon-Ln-72206/home/81388515,CARMLS,24031142,N,Y,34.5841742,-92.2903717
MLS Listing,,Single Family Residential,4601 W 29th,Little Rock,AR,72204,75000,2,1.0,Little Rock (downtown),1056,6534,1930,24,71,,Active,,,https://www.redfin.com/AR/Little-Rock/4601-W-29th-St-72204/home/95325955,CARMLS,24031136,N,Y,34.7251116,-92.3252985
MLS Listing,,Single Family Residential,8 Kings Ct,Little Rock,AR,72211,289900,3,2.0,Lit - West Little Rock (northwes,1716,10018,1975,24,169,,Active,,,https://www.redfin.com/AR/Little-Rock/8-Kings-Ct-72211/home/95339445,CARMLS,24031135,N,Y,34.7631953,-92.4049728
MLS Listing,,Single Family Residential,7 Talmage Dr,Little Rock,AR,72204,279000,3,2.0,Little Rock (ualr),2406,19602,1956,24,116,,Active,,,https://www.redfin.com/AR/Little-Rock/7-Talmage-Dr-72204/home/88870099,CARMLS,24025312,N,Y,34.7245375,-92.3541037
MLS Listing,,Vacant Land,Lot 11 Eagles Nest Ln,Malvern,AR,72104,69000,,,Malvern,,,,24,,20,Active,,,https://www.redfin.com/AR/Unknown/Lot-11-Eagles-Nest-Ln-72104/home/192229947,HSBOR,147780,N,Y,34.66794,-92.433729
MLS Listing,,Vacant Land,Lot 3 Eagles Nest Ln,Malvern,AR,72104,89000,,,Malvern,,,,24,,20,Active,,,https://www.redfin.com/AR/Unknown/Lot-3-Eagles-Nest-Ln-72104/home/192229830,HSBOR,147778,N,Y,34.667096,-92.433493
MLS Listing,,Vacant Land,7603 Jamison,Little Rock,AR,72209,95000,,,Lit - Southwest Little Rock (sou,,177289,,25,,,Active,,,https://www.redfin.com/AR/Little-Rock/7603-Jamison-Rd-72209/home/81386228,CARMLS,24031082,N,Y,34.67904,-92.310554
MLS Listing,,Vacant Land,Tbd German Rd,Little Rock,AR,72206,65000,,,Other Arkansas (south Of Arkansa,,435600,,25,,,Active,,,https://www.redfin.com/AR/Little-Rock/German-Rd-72206/home/81368903,CARMLS,24031081,N,Y,34.64787,-92.236823
MLS Listing,,Single Family Residential,7119 Yorkwood,Little Rock,AR,72209,155000,3,2.0,Lit - Southwest Little Rock (sou,1482,10018,1976,25,105,,Active,,,https://www.redfin.com/AR/Little-Rock/7119-Yorkwood-Dr-72209/home/95352826,CARMLS,24031071,N,Y,34.651631,-92.3584409
MLS Listing,,Single Family Residential,10606 San Joaquin Vly,Little Rock,AR,72212,499900,3,3.0,Lit - West Little Rock (northwes,3096,10454,1973,25,161,40,Active,,,https://www.redfin.com/AR/Little-Rock/10606-San-Joaquin-Valley-Dr-72212/home/95335741,CARMLS,24031041,N,Y,34.7753748,-92.3917179
MLS Listing,,Single Family Residential,324 Walnut,Little Rock,AR,72205,481900,3,2.0,Little Rock (heights/hillcrest),2120,5227,1935,25,227,,Active,,,https://www.redfin.com/AR/Little-Rock/324-Walnut-St-72205/home/81379040,CARMLS,24031019,N,Y,34.7542286,-92.3218813
MLS Listing,,Single Family Residential,3319 Wolfe St,Little Rock,AR,72206,149500,4,2.0,Little Rock (ualr),2036,6969,1966,26,73,,Active,,,https://www.redfin.com/AR/Little-Rock/3319-Wolfe-St-72206/home/82923912,CARMLS,24030940,N,Y,34.7160785,-92.2935179
MLS Listing,,Single Family Residential,712 Legato Dr,Little Rock,AR,72205,250000,3,2.5,Lit - West Little Rock (north),2055,10454,1969,26,122,,Active,,,https://www.redfin.com/AR/Little-Rock/712-Legato-Dr-72205/home/82909726,CARMLS,24030920,N,Y,34.7477858,-92.3604462
MLS Listing,,Single Family Residential,"13000, 13004, 13006 Colonel Glenn Rd",Little Rock,AR,72210,1300000,3,2.5,Lit - West Little Rock (central),2200,431679,1998,26,591,,Active,,,https://www.redfin.com/AR/Little-Rock/13000-Colonel-Glenn-Rd-72210/home/81405264,CARMLS,24030902,N,Y,34.7126373,-92.4180281
MLS Listing,,Single Family Residential,22 Jacob Pl,Little Rock,AR,72211,585000,4,3.5,Lit - West Little Rock (northwes,4608,15681,2006,26,127,41,Active,,,https://www.redfin.com/AR/Little-Rock/22-Jacob-Pl-72211/home/82792979,CARMLS,24030889,N,Y,34.7701044,-92.4359596
MLS Listing,,Vacant Land,4407 Gooch Dr,Little Rock,AR,72223,150000,,,Lit - West Little Rock (northwes,,21780,,26,,,Active,,,https://www.redfin.com/AR/Little-Rock/4407-Gooch-Dr-72223/home/95363312,CARMLS,24030885,N,Y,34.794675,-92.448888
MLS Listing,,Condo/Co-op,1922 Alden Ln,Little Rock,AR,72207,199000,3,2.0,Lit - West Little Rock (north),1300,8276,1948,26,153,,Active,,,https://www.redfin.com/AR/Little-Rock/1922-Alden-Ln-72207/home/81394369,CARMLS,24030870,N,Y,34.7704039,-92.346591
MLS Listing,,Single Family Residential,121 Fletcher Ridge Dr,Little Rock,AR,72223,560000,5,3.0,Pulaski County West,2650,5662,2024,26,211,33,Active,,,https://www.redfin.com/AR/Little-Rock/121-Fletcher-Ridge-Dr-72223/home/179990967,CARMLS,24030851,N,Y,34.76132,-92.482161
MLS Listing,,Single Family Residential,7 Rivers Edge Dr,Little Rock,AR,,904900,2,2.5,Lit - West Little Rock (north),3035,48351,2003,26,298,,Active,,,https://www.redfin.com/AR/Little-Rock/7-Rivers-Edge-Dr-72227/home/95335870,CARMLS,24030846,N,Y,34.7926788,-92.3757508
MLS Listing,,Vacant Land,309 N Palm St,Little Rock,AR,72205,179000,,,Little Rock (heights/hillcrest),,6969,,26,,,Active,,,https://www.redfin.com/AR/Little-Rock/309-N-Palm-St-72205/home/81380330,CARMLS,24030833,N,Y,34.7540584,-92.324771
MLS Listing,,Single Family Residential,1507 Welch,Little Rock,AR,72202,250000,3,2.0,Little Rock (east),1400,7405,2024,26,179,,Active,,,https://www.redfin.com/AR/Little-Rock/1507-Welch-St-72202/home/192198511,CARMLS,24030818,N,Y,34.7327504,-92.2596562
MLS Listing,,Single Family Residential,1411 College,Little Rock,AR,72202,250000,3,2.0,Little Rock (east),1400,6969,2024,26,179,,Active,,,https://www.redfin.com/AR/Little-Rock/1411-College-St-72202/home/81383107,CARMLS,24030819,N,Y,34.733638,-92.258267
MLS Listing,,Single Family Residential,1501 Welch,Little Rock,AR,72202,250000,3,2.0,Little Rock (east),1400,7405,2024,26,179,,Active,,,https://www.redfin.com/AR/Little-Rock/1501-Welch-St-72202/home/192198496,CARMLS,24030817,N,Y,34.7330493,-92.2598818
MLS Listing,,Single Family Residential,1904 Brookford Dr,Little Rock,AR,72211,300000,3,2.0,Lit - West Little Rock (northwes,1758,10018,2001,26,171,,Active,,,https://www.redfin.com/AR/Little-Rock/1904-Brookford-Dr-72211/home/95362888,CARMLS,24030813,N,Y,34.7367164,-92.4122836
MLS Listing,,Single Family Residential,46 Rosemont Dr,Little Rock,AR,72204,199750,3,2.0,Lit - West Little Rock (central),1920,12196,1962,26,104,,Active,,,https://www.redfin.com/AR/Little-Rock/46-Rosemont-Dr-72204/home/81396869,CARMLS,24030807,N,Y,34.7302462,-92.3456056
MLS Listing,,Single Family Residential,3200 Washington St,Little Rock,AR,72204,10000,3,1.0,Little Rock (ualr),1274,6969,1927,26,8,,Active,,,https://www.redfin.com/AR/Little-Rock/3200-Washington-St-72204/home/81384500,CARMLS,24030793,N,Y,34.722669,-92.3231711
MLS Listing,,Single Family Residential,2522 S Battery St,Little Rock,AR,72206,75000,4,2.0,Little Rock (downtown),2004,11325,1925,27,37,,Active,,,https://www.redfin.com/AR/Little-Rock/2522-S-Battery-St-72206/home/95324223,CARMLS,24030789,N,Y,34.7241951,-92.2947411
MLS Listing,,Single Family Residential,23 Menden Ln,Little Rock,AR,72223,749900,4,3.5,Pulaski County West,5067,27442,2004,27,148,33,Active,,,https://www.redfin.com/AR/Little-Rock/23-Menden-Ln-72223/home/95329460,CARMLS,24030753,N,Y,34.7874192,-92.4595344
MLS Listing,,Single Family Residential,106 Bear Den Ct,Little Rock,AR,72223,924900,5,4.5,Pulaski County West,4049,14810,2024,27,228,31,Active,,,https://www.redfin.com/AR/Little-Rock/106-Bear-Den-Ct-72223/home/183675472,CARMLS,24030730,N,Y,34.790034,-92.485581
MLS Listing,,Single Family Residential,10509 Diamond Dr,Little Rock,AR,72209,119600,3,2.0,Lit - Southwest Little Rock (sou,1838,14374,1978,27,65,,Active,,,https://www.redfin.com/AR/Little-Rock/10509-Diamond-Dr-72209/home/95353008,CARMLS,24030728,N,Y,34.654233,-92.3519861
MLS Listing,,Single Family Residential,44 Carmel Dr Dr,Little Rock,AR,72212,1450000,4,3.5,Lit - West Little Rock (northwes,6319,44866,1987,27,229,42,Active,,,https://www.redfin.com/AR/Little-Rock/44-Carmel-Dr-72212/home/81391671,CARMLS,24030709,N,Y,34.7800555,-92.4197653
MLS Listing,,Single Family Residential,4307 N Landmark Cir,Little Rock,AR,72206,249900,3,2.0,Pulaski County - Rural (south),1525,174240,1965,27,164,,Active,,,https://www.redfin.com/AR/Little-Rock/4307-N-Landmark-Cir-72206/home/81388094,CARMLS,24030707,N,Y,34.6035775,-92.3302942
MLS Listing,,Single Family Residential,10919 Yosemite Vly,Little Rock,AR,72212,299900,3,2.0,Lit - West Little Rock (northwes,1740,13503,1972,27,172,,Active,,,https://www.redfin.com/AR/Little-Rock/10919-Yosemite-Valley-Dr-72212/home/82921399,CARMLS,24030706,N,Y,34.7727667,-92.3954996
MLS Listing,,Single Family Residential,3 Challain Cv,Little Rock,AR,72223,479900,4,3.0,Pulaski County West,3302,11325,2005,27,145,41,Active,,,https://www.redfin.com/AR/Little-Rock/3-Challain-Cv-72223/home/82900403,CARMLS,24030702,N,Y,34.8080734,-92.5041422
MLS Listing,,Vacant Land,25 Mountain Vista Dr,Alexander,AR,72002,45000,,,Lit - Southwest Little Rock (sou,,17424,,27,,,Active,,,https://www.redfin.com/AR/Alexander/25-Mountain-Vista-Dr-72002/home/187459331,CARMLS,24030690,N,Y,34.6288397,-92.4296568
MLS Listing,,Single Family Residential,403 Wildcreek Cir,Little Rock,AR,72223,439000,3,2.5,Pulaski County West,2120,5662,2018,27,207,39,Active,,,https://www.redfin.com/AR/Little-Rock/403-Wildcreek-Cir-72223/home/144814505,CARMLS,24030687,N,Y,34.7686324,-92.4859001
MLS Listing,,Vacant Land,29 Mountain Vista Dr,Alexander,AR,72002,45000,,,Lit - Southwest Little Rock (sou,,17424,,27,,,Active,,,https://www.redfin.com/AR/Alexander/29-Mountain-Vista-Dr-72002/home/192185540,CARMLS,24030685,N,Y,34.6292128,-92.4294071
MLS Listing,,Vacant Land,31 Mountain Vista Dr,Alexander,AR,72002,45000,,,Lit - Southwest Little Rock (sou,,17424,,27,,,Active,,,https://www.redfin.com/AR/Alexander/31-Mountain-Vista-Dr-72002/home/192185440,CARMLS,24030680,N,Y,34.6294628,-92.4292538
MLS Listing,,Vacant Land,33 Mountain Vista Dr,Alexander,AR,72002,50000,,,Lit - Southwest Little Rock (sou,,17424,,27,,,Active,,,https://www.redfin.com/AR/Alexander/33-Mountain-Vista-Dr-72002/home/192185379,CARMLS,24030677,N,Y,34.6297129,-92.4291116
MLS Listing,,Single Family Residential,19 Old Delmonte Dr,Little Rock,AR,72212,495000,3,2.5,Lit - West Little Rock (northwes,2890,6969,1995,27,171,13,Active,,,https://www.redfin.com/AR/Little-Rock/19-Old-Delmonte-Dr-72212/home/95337845,CARMLS,24030672,N,Y,34.7752754,-92.4203484
MLS Listing,,Single Family Residential,34 W Windsor Dr,Little Rock,AR,72209,162000,5,2.0,Lit - Southwest Little Rock (cen,2372,13068,1961,27,68,,Active,,,https://www.redfin.com/AR/Little-Rock/34-W-Windsor-Dr-72209/home/81399477,CARMLS,24030670,N,Y,34.6955042,-92.3600064
MLS Listing,,Single Family Residential,19714 Woodlands Acres,Little Rock,AR,72210,585000,5,3.0,Pulaski Special (saline County),3104,87120,2016,27,188,,Active,,,https://www.redfin.com/AR/Little-Rock/19714-Woodland-Acres-72210/home/95419206,CARMLS,24030652,N,Y,34.746902,-92.5648433
MLS Listing,,Single Family Residential,2100 Cumberland St,Little Rock,AR,72206,210000,3,2.0,Little Rock (downtown),1140,7405,1997,27,184,,Active,,,https://www.redfin.com/AR/Little-Rock/2100-Cumberland-St-72206/home/81382803,CARMLS,24030610,N,Y,34.7284718,-92.2715985
MLS Listing,,Single Family Residential,50 Taylor Park Loop,Little Rock,AR,72211,350000,3,2.0,Lit - West Little Rock (northwes,1768,5227,2007,27,198,68,Active,,,https://www.redfin.com/AR/Little-Rock/50-Taylor-Park-Loop-72211/home/81411522,CARMLS,24030607,N,Y,34.7415112,-92.4235339
MLS Listing,,Single Family Residential,923 N Mckinley St,Little Rock,AR,72207,318000,3,2.0,Lit - West Little Rock (north),2133,13068,1959,27,149,,Active,,,https://www.redfin.com/AR/Little-Rock/923-N-McKinley-St-72207/home/95341012,CARMLS,24030602,N,Y,34.760355,-92.3449134
MLS Listing,,Single Family Residential,3601 Bowers St,Little Rock,AR,72204,164500,3,2.0,Lit - West Little Rock (central),1200,11325,1958,28,137,,Active,,,https://www.redfin.com/AR/Little-Rock/3601-Bowers-St-72204/home/95347936,CARMLS,24030594,N,Y,34.7206918,-92.3782052
MLS Listing,,Single Family Residential,1517 W 15th St,Little Rock,AR,72202,230000,3,2.5,Little Rock (downtown),1292,5227,2024,28,178,,Active,,,https://www.redfin.com/AR/Little-Rock/1517-W-15th-St-72202/home/190653083,CARMLS,24030540,N,Y,34.7363275,-92.29017
MLS Listing,,Single Family Residential,6414 R St,Little Rock,AR,72207,445000,3,2.5,Lit - West Little Rock (north),1580,2178,2024,28,282,,Active,,,https://www.redfin.com/AR/Little-Rock/6414-R-St-72207/home/192173968,CARMLS,24030493,N,Y,34.769908,-92.345876
MLS Listing,,Single Family Residential,14204 Overcreek Pass,Little Rock,AR,72211,645000,4,3.5,Lit - West Little Rock (northwes,3775,10890,2015,28,171,50,Active,,,https://www.redfin.com/AR/Little-Rock/14204-Overcreek-Pass-72211/home/81416954,CARMLS,24030462,N,Y,34.736566,-92.4360165
MLS Listing,,Single Family Residential,171 Fletcher Ridge Dr,Little Rock,AR,72223,525000,3,3.0,Pulaski County West,2500,7405,2024,28,210,33,Active,,,https://www.redfin.com/AR/Little-Rock/171-Fletcher-Ridge-Dr-72223/home/186238989,CARMLS,24030460,N,Y,34.7635137,-92.4862161
MLS Listing,,Vacant Land,7519 Jamison Rd,Little Rock,AR,72209,165000,,,Lit - Southwest Little Rock (cen,,348480,,28,,,Active,,,https://www.redfin.com/AR/Little-Rock/7519-Jamison-Rd-72209/home/81386230,CARMLS,24030423,N,Y,34.679581,-92.310535
MLS Listing,,Vacant Land,30 Mountain Vista Dr,Alexander,AR,72002,45000,,,Lit - Southwest Little Rock (sou,,17424,,28,,,Active,,,https://www.redfin.com/AR/Alexander/30-Mountain-Vista-Dr-72002/home/192164404,CARMLS,24030414,N,Y,34.629774,-92.4298775
MLS Listing,,Vacant Land,28 Mountain Vista Dr,Alexander,AR,72002,45000,,,Lit - Southwest Little Rock (sou,,17424,,28,,,Active,,,https://www.redfin.com/AR/Alexander/28-Mountain-Vista-Dr-72002/home/192164284,CARMLS,24030411,N,Y,34.629536,-92.430064
MLS Listing,,Vacant Land,24 Mountain Vista Dr,Alexander,AR,72002,45000,,,Lit - Southwest Little Rock (sou,,17424,,28,,,Active,,,https://www.redfin.com/AR/Alexander/24-Mountain-Vista-Dr-72002/home/192164214,CARMLS,24030408,N,Y,34.6290376,-92.4303221
MLS Listing,,Vacant Land,22 Mountain Vista Dr,Alexander,AR,72002,45000,,,Lit - Southwest Little Rock (sou,,16117,,28,,,Active,,,https://www.redfin.com/AR/Alexander/22-Mountain-Vista-Dr-72002/home/192164192,CARMLS,24030407,N,Y,34.6288261,-92.4304731
MLS Listing,,Single Family Residential,719 N Mellon St,Little Rock,AR,72205,259900,3,2.0,Lit - West Little Rock (north),1893,13503,1963,28,137,,Active,,,https://www.redfin.com/AR/Little-Rock/719-Mellon-St-72205/home/82851255,CARMLS,24030403,N,Y,34.7586418,-92.3517691
MLS Listing,,Single Family Residential,24 Buttermilk Rd,Little Rock,AR,72227,299900,4,2.5,Lit - West Little Rock (north),2240,11325,1968,29,134,17,Active,,,https://www.redfin.com/AR/Little-Rock/24-Buttermilk-Rd-72227/home/81392568,CARMLS,24030365,N,Y,34.768105,-92.3821698
MLS Listing,,Single Family Residential,8 Valley Club Cir,Little Rock,AR,72212,2599995,5,5.5,Lit - West Little Rock (northwes,6762,20037,1986,29,385,27,Active,,,https://www.redfin.com/AR/Little-Rock/8-Valley-Club-Cir-72212/home/82795008,CARMLS,24030346,N,Y,34.7741296,-92.4039577
MLS Listing,,Single Family Residential,5 Summerland Ct,Little Rock,AR,72227,247900,3,2.5,Lit - West Little Rock (north),1935,13068,1979,29,128,,Active,,,https://www.redfin.com/AR/Little-Rock/5-Summerland-Ct-72227/home/95337725,CARMLS,24030281,N,Y,34.7733638,-92.3762616
MLS Listing,,Single Family Residential,9 Inlet,Little Rock,AR,72204,89750,2,1.0,Lit - West Little Rock (central),1142,10454,1955,29,79,,Active,,,https://www.redfin.com/AR/Little-Rock/9-Inlet-St-72204/home/95346043,CARMLS,24030322,N,Y,34.7280513,-92.367512
MLS Listing,,Single Family Residential,1123 N Bryan,Little Rock,AR,72205,270000,3,2.0,Lit - West Little Rock (north),1518,8276,1973,29,178,,Active,,,https://www.redfin.com/AR/Little-Rock/1123-Bryan-St-72207/home/95340765,CARMLS,24030253,N,Y,34.762641,-92.3527354
MLS Listing,,Vacant Land,20 Mountain Vista Dr,Alexander,AR,72002,45000,,,Lit - Southwest Little Rock (sou,,14810,,29,,,Active,,,https://www.redfin.com/AR/Alexander/20-Mountain-Vista-Dr-72002/home/192151155,CARMLS,24030250,N,Y,34.6286387,-92.4306832
MLS Listing,,Vacant Land,18 Mountain Vista Dr,Alexander,AR,72002,45000,,,Lit - Southwest Little Rock (sou,,17859,,29,,,Active,,,https://www.redfin.com/AR/Alexander/18-Mountain-Vista-Dr-72002/home/192151151,CARMLS,24030249,N,Y,34.6284312,-92.4308489
MLS Listing,,Vacant Land,16 Mountain Vista Dr,Alexander,AR,72002,45000,,,Lit - Southwest Little Rock (sou,,18730,,29,,,Active,,,https://www.redfin.com/AR/Alexander/16-Mountain-Vista-Dr-72002/home/192151150,CARMLS,24030248,N,Y,34.6283045,-92.4311035
MLS Listing,,Single Family Residential,45 Ledgelawn Dr,Little Rock,AR,72212,549000,3,2.5,Lit - West Little Rock (northwes,3466,32670,1987,29,158,3,Active,,,https://www.redfin.com/AR/Little-Rock/45-Ledgelawn-Dr-72212/home/82866320,CARMLS,24030247,N,Y,34.7871234,-92.4399688
MLS Listing,,Vacant Land,2207 Cumberland St,Little Rock,AR,72206,55000,,,Little Rock (downtown),,6098,,30,,,Active,,,https://www.redfin.com/AR/Little-Rock/2207-Cumberland-St-72206/home/82994767,CARMLS,24030164,N,Y,34.727215,-92.271017
MLS Listing,,Single Family Residential,16 Betsy Ln,Little Rock,AR,72205,214900,3,2.0,Lit - West Little Rock (central),1851,10454,1960,30,116,,Active,,,https://www.redfin.com/AR/Little-Rock/16-Betsy-Ln-72205/home/95341949,CARMLS,24030159,N,Y,34.7499907,-92.3574892
MLS Listing,,Townhouse,3123 S State St,Little Rock,AR,72206,395000,6,5.0,Little Rock (downtown),2700,4791,2024,30,146,,Active,,,https://www.redfin.com/AR/Little-Rock/3123-S-State-St-72206/home/81384424,CARMLS,24030134,N,Y,34.717973,-92.2826037
MLS Listing,,Condo/Co-op,416 N Pierce St #31,Little Rock,AR,77205,134900,2,1.0,Little Rock (heights/hillcrest),1156,,1984,30,117,300,Active,,,https://www.redfin.com/AR/Little-Rock/416-N-Pierce-St-72205/unit-31/home/192136381,CARMLS,24030100,N,Y,34.7549855,-92.3388995
MLS Listing,,Vacant Land,14 Mountain Vista Dr,Alexander,AR,72002,45000,,,Lit - Southwest Little Rock (sou,,17859,,30,,,Active,,,https://www.redfin.com/AR/Alexander/45-Mountain-Vista-Dr-72002/home/187749668,CARMLS,24030074,N,Y,34.6311684,-92.4289493
MLS Listing,,Vacant Land,12 Mountain Vista Dr,Alexander,AR,72002,45000,,,Lit - Southwest Little Rock (sou,,17424,,30,,,Active,,,https://www.redfin.com/AR/Alexander/12-Mountain-Vista-Dr-72002/home/192133965,CARMLS,24030072,N,Y,34.628023,-92.4316842
MLS Listing,,Vacant Land,10 Mountain Vista Dr,Alexander,AR,72002,45000,,,Lit - Southwest Little Rock (sou,,16117,,30,,,Active,,,https://www.redfin.com/AR/Alexander/10-Mountain-Vista-Dr-72002/home/192133785,CARMLS,24030068,N,Y,34.6278334,-92.4319445
MLS Listing,,Single Family Residential,143 Courts Ln,Little Rock,AR,72223,685500,4,5.0,Pulaski County West,4715,21344,2007,31,145,52,Active,,,https://www.redfin.com/AR/Little-Rock/143-Courts-Ln-72223/home/82912530,CARMLS,24030041,N,Y,34.7905437,-92.4619451
MLS Listing,,Single Family Residential,2106 S Izard St,Little Rock,AR,72206,115000,3,1.5,Little Rock (downtown),1400,7405,1924,31,82,,Active,,,https://www.redfin.com/AR/Little-Rock/2106-S-Izard-St-72206/home/95324345,CARMLS,24030039,N,Y,34.7285734,-92.2838075
MLS Listing,,Single Family Residential,30 Tallyho Ln,Little Rock,AR,,373500,4,2.5,Lit - West Little Rock (north),1996,12196,1972,32,187,,Active,,,https://www.redfin.com/AR/Little-Rock/30-Tallyho-Ln-72227/home/81392456,CARMLS,24030007,N,Y,34.7821596,-92.3600399
MLS Listing,,Single Family Residential,14919 Ironton Rd,Little Rock,AR,72206,219900,3,3.0,Pulaski County - Rural (south),1408,103672,1977,32,156,,Active,,,https://www.redfin.com/AR/Little-Rock/14919-Ironton-Rd-72206/home/83011305,CARMLS,24029980,N,Y,34.613491,-92.280129
MLS Listing,,Single Family Residential,5131 Cantrell Rd,Little Rock,AR,72207,655000,4,2.5,Little Rock (heights/hillcrest),2383,6969,1930,32,275,,Active,,,https://www.redfin.com/AR/Little-Rock/5131-Cantrell-Rd-72207/home/95381905,CARMLS,24029978,N,Y,34.7678881,-92.3311586
MLS Listing,,Single Family Residential,5624 N Grandview St,Little Rock,AR,72207,475000,2,2.0,Little Rock (heights/hillcrest),1884,11325,1945,32,252,,Active,,,https://www.redfin.com/AR/Little-Rock/5624-N-Grandview-St-72207/home/81417996,CARMLS,24029972,N,Y,34.7795076,-92.336774
MLS Listing,,Single Family Residential,127 Pebble Beach Dr,Little Rock,AR,72212,357400,4,2.5,Lit - West Little Rock (northwes,2346,11325,1978,32,152,,Active,,,https://www.redfin.com/AR/Little-Rock/127-Pebble-Beach-Dr-72212/home/82813809,CARMLS,24029967,N,Y,34.7835199,-92.4297308
MLS Listing,,Vacant Land,9 Summit View Dr,Alexander,AR,72002,50000,,,Lit - Southwest Little Rock (sou,,17859,,32,,,Active,,,https://www.redfin.com/AR/Alexander/9-Summit-View-Dr-72002/home/192109614,CARMLS,24029952,N,Y,34.6299836,-92.4282379
MLS Listing,,Vacant Land,7 Summit View Dr,Alexander,AR,72002,50000,,,Lit - Southwest Little Rock (sou,,17859,,32,,,Active,,,https://www.redfin.com/AR/Alexander/7-Summit-View-Dr-72002/home/192109594,CARMLS,24029949,N,Y,34.6298335,-92.4279991
MLS Listing,,Single Family Residential,3 Betty Jean,Little Rock,AR,72009,159900,3,2.0,Lit - Southwest Little Rock (cen,1999,,1959,33,80,,Active,,,https://www.redfin.com/AR/Little-Rock/3-Betty-Jean-Cir-72209/home/81408669,CARMLS,24029943,N,Y,34.684767,-92.3593761
MLS Listing,,Single Family Residential,28 Belles Fleurs Cir,Little Rock,AR,72223,598500,4,3.0,Pulaski County West,2694,,2024,33,222,40,Active,September-22-2024 02:00 PM,September-22-2024 04:00 PM,https://www.redfin.com/AR/Little-Rock/28-Belles-Fleurs-Cir-72223/home/144814406,CARMLS,24029907,N,Y,34.7947834,-92.4560279
MLS Listing,,Single Family Residential,1043 Skyline Dr,Alexander,AR,72002,285000,3,2.5,Bryant,2073,17424,2009,33,137,,Active,,,https://www.redfin.com/AR/Alexander/1043-Skyline-Dr-72002/home/81514859,CARMLS,24029867,N,Y,34.6260333,-92.4351748
MLS Listing,,Single Family Residential,1709 N Pierce,Little Rock,AR,72207,299000,3,1.0,Little Rock (heights/hillcrest),1100,6969,1940,33,272,,Active,,,https://www.redfin.com/AR/Little-Rock/1709-N-Pierce-St-72207/home/95382106,CARMLS,24029857,N,Y,34.7678952,-92.338111
MLS Listing,,Single Family Residential,3517 W 12th St,Little Rock,AR,72204,60000,2,1.0,Little Rock (ualr),1092,6534,1940,33,55,,Active,,,https://www.redfin.com/AR/Little-Rock/3517-W-12th-St-72204/home/82993637,CARMLS,24029851,N,Y,34.740118,-92.3135658
MLS Listing,,Single Family Residential,25301 Mashburn Trl,Little Rock,AR,72210,375000,2,1.5,Pulaski County West,1440,30491,1983,33,260,,Active,,,https://www.redfin.com/AR/Little-Rock/25301-Mashburn-Trl-72210/home/82938980,CARMLS,24029832,N,Y,34.7570502,-92.5418557
MLS Listing,,Single Family Residential,2617 Peach Tree Dr,Little Rock,AR,72211,259000,3,2.5,Lit - West Little Rock (northwes,1805,10018,1978,33,143,10,Active,,,https://www.redfin.com/AR/Little-Rock/2617-Peach-Tree-Dr-72211/home/82934071,CARMLS,24029827,N,Y,34.7309334,-92.4015786
MLS Listing,,Single Family Residential,13107 Colonel Glenn Rd,Little Rock,AR,72210,995000,4,5.0,Lit - West Little Rock (northwes,5011,169884,2005,33,199,,Active,,,https://www.redfin.com/AR/Little-Rock/13107-Colonel-Glenn-Rd-72210/home/81412128,CARMLS,24029820,N,Y,34.7108465,-92.4192059
MLS Listing,,Single Family Residential,11525 Sardis Rd,Mabelvale,AR,72103,165000,3,1.0,Lit - Southwest Little Rock (sou,1308,49658,1960,33,126,,Active,,,https://www.redfin.com/AR/Mabelvale/11525-Sardis-Rd-72103/home/81400759,CARMLS,24029802,N,Y,34.6455894,-92.3891371
MLS Listing,,Single Family Residential,22 Butterfly Cv,Little Rock,AR,72210,217000,3,2.0,"Lit - Otter Creek, Westfield & S",1795,10890,1978,33,121,45,Active,,,https://www.redfin.com/AR/Little-Rock/22-Butterfly-Cv-72210/home/81419114,CARMLS,24029771,N,Y,34.661499,-92.4381496
MLS Listing,,Single Family Residential,2806 Woodsgate Dr,Little Rock,AR,,640000,6,4.5,Lit - West Little Rock (northwes,4441,10018,2004,34,144,50,Active,,,https://www.redfin.com/AR/Little-Rock/2806-Woodsgate-Dr-72211/home/95315224,CARMLS,24029760,N,Y,34.7319635,-92.4169617
MLS Listing,,Vacant Land,2817 S Rock St,Little Rock,AR,72206,8000,,,Little Rock (downtown),,4791,,34,,,Active,,,https://www.redfin.com/AR/Little-Rock/2817-S-Rock-St-72206/home/192098564,CARMLS,24029759,N,Y,34.7209606,-92.2700921
MLS Listing,,Single Family Residential,6614 Onyx Dr,Little Rock,AR,72209,150000,3,2.0,Lit - Southwest Little Rock (sou,1419,9147,1978,34,106,,Active,,,https://www.redfin.com/AR/Little-Rock/6614-Onyx-Dr-72209/home/82934342,CARMLS,24026907,N,Y,34.6514847,-92.3530437
MLS Listing,,Single Family Residential,1624 Mountain Dr,Little Rock,AR,72227,385000,4,2.5,Lit - West Little Rock (north),2698,15681,1970,34,143,,Active,,,https://www.redfin.com/AR/Little-Rock/1624-Mountain-Dr-72227/home/95340035,CARMLS,24029712,N,Y,34.7675459,-92.3712706
MLS Listing,,Single Family Residential,7006 Hillwood Rd,Little Rock,AR,72207,219900,3,2.0,Lit - West Little Rock (north),1273,14374,1951,34,173,,Active,,,https://www.redfin.com/AR/Little-Rock/7006-Hillwood-Rd-72207/home/82930329,CARMLS,24029656,N,Y,34.7809873,-92.3524935
MLS Listing,,Single Family Residential,305 Fletcher Loop,Little Rock,AR,72223,549500,4,3.0,Pulaski County West,2546,6534,2023,34,216,33,Active,,,https://www.redfin.com/AR/Little-Rock/305-Fletcher-Loop-72223/home/183675423,CARMLS,24029654,N,Y,34.7620197,-92.4820853
MLS Listing,,Single Family Residential,7000 Sparks Rd,Little Rock,AR,72210,319000,4,3.5,Pulaski County West,1926,41382,2003,34,166,,Active,,,https://www.redfin.com/AR/Little-Rock/7000-Sparks-Rd-72210/home/81403164,CARMLS,24029641,N,Y,34.7029118,-92.5136624
MLS Listing,,Other,7501 Mabelvale Cutoff Rd,Mabelvale,AR,72103,,,,Lit - Southwest Little Rock (sou,,84070,,34,,,Active,,,https://www.redfin.com/AR/Mabelvale/7501-Mabelvale-Cut-Off-Rd-72103/home/192078200,CARMLS,24029632,N,Y,34.6544424,-92.3622024
MLS Listing,,Other,7601 Claybrook Rd,Mabelvale,AR,72103,,,,Lit - Southwest Little Rock (sou,,9583,,34,,,Active,,,https://www.redfin.com/AR/Mabelvale/7601-Claybrook-Rd-72103/home/81401359,CARMLS,24029630,N,Y,34.6435859,-92.3639526
MLS Listing,,Other,000 Courtfield Dr,Mabelvale,AR,72103,,,,Lit - Southwest Little Rock (sou,,29185,,34,,,Active,,,https://www.redfin.com/AR/Mabelvale/0-Courtfield-Dr-72103/home/192077944,CARMLS,24029626,N,Y,34.6447523,-92.3681336
MLS Listing,,Other,000 Legionhut Rd,Mabelvale,AR,72103,,,,Lit - Southwest Little Rock (sou,,623343,,34,,,Active,,,https://www.redfin.com/AR/Mabelvale/Legion-Hut-Rd-72103/home/81400620,CARMLS,24029609,N,Y,34.653462,-92.368197
MLS Listing,,Other,000 Terrace Pl,Little Rock,AR,72209,,,,Lit - Southwest Little Rock (sou,,104979,,34,,,Active,,,https://www.redfin.com/AR/Little-Rock/0-Terrace-Pl-72209/home/192077034,CARMLS,24029605,N,Y,34.6675726,-92.36797
MLS Listing,,Single Family Residential,4324 W 13th St,Little Rock,AR,,30000,3,1.0,Little Rock (ualr),1624,6969,1940,34,18,,Active,,,https://www.redfin.com/AR/Little-Rock/4324-W-13th-St-72204/home/95323005,CARMLS,24029598,N,Y,34.7399429,-92.3223601
MLS Listing,,Vacant Land,5 Summit View Dr,Alexander,AR,72002,50000,,,Lit - Southwest Little Rock (sou,,14810,,34,,,Active,,,https://www.redfin.com/AR/Alexander/5-Summit-View-Dr-72002/home/192075382,CARMLS,24029595,N,Y,34.6296831,-92.4277735
MLS Listing,,Vacant Land,3 Summit View Dr,Alexander,AR,72002,60000,,,Lit - Southwest Little Rock (sou,,14810,,34,,,Active,,,https://www.redfin.com/AR/Alexander/3-Summit-View-Dr-72002/home/192075295,CARMLS,24029594,N,Y,34.629439,-92.427685
MLS Listing,,Vacant Land,1 Summit View Dr,Alexander,AR,72002,60000,,,Lit - Southwest Little Rock (sou,,16552,,34,,,Active,,,https://www.redfin.com/AR/Alexander/1-Summit-View-Dr-72002/home/192075272,CARMLS,24029591,N,Y,34.6292627,-92.4273708
MLS Listing,,Condo/Co-op,2512 Riverfront Dr Apt 4,Little Rock,AR,72202,249900,2,2.0,Little Rock (heights/hillcrest),1008,,1980,35,248,300,Active,,,https://www.redfin.com/AR/Little-Rock/2512-Riverfront-Dr-72202/unit-4/home/186143250,CARMLS,24029588,N,Y,34.775541,-92.308353
MLS Listing,,Single Family Residential,6816 Knollwood Rd,Little Rock,AR,72209,135000,3,1.0,Lit - Southwest Little Rock (sou,1212,8276,1968,35,111,,Active,,,https://www.redfin.com/AR/Little-Rock/6816-Knollwood-Rd-72209/home/95351156,CARMLS,24029586,N,Y,34.6646673,-92.3543679
MLS Listing,,Single Family Residential,9615 Stardust Trl,Little Rock,AR,72209,115000,3,1.0,Lit - Southwest Little Rock (sou,1012,6534,1970,35,114,,Active,,,https://www.redfin.com/AR/Little-Rock/9615-Stardust-Trl-72209/home/95351394,CARMLS,24029585,N,Y,34.6630809,-92.3684536
MLS Listing,,Single Family Residential,7604 Brenda Cir,Little Rock,AR,72209,99000,3,1.5,Lit - Southwest Little Rock (cen,976,6969,1964,35,101,,Active,,,https://www.redfin.com/AR/Little-Rock/7604-Brenda-Cir-72209/home/95327427,CARMLS,24029584,N,Y,34.6801928,-92.3358686
MLS Listing,,Single Family Residential,3 Surry Ct,Little Rock,AR,72211,349000,3,2.0,Lit - West Little Rock (northwes,2037,16988,1994,35,171,8,Active,,,https://www.redfin.com/AR/Little-Rock/3-Surry-Ct-72211/home/81393397,CARMLS,24029575,N,Y,34.7650475,-92.4279404
MLS Listing,,Single Family Residential,7 Woodstock Ct,Little Rock,AR,72227,412000,5,3.5,Lit - West Little Rock (north),2958,21344,1977,35,139,,Active,,,https://www.redfin.com/AR/Little-Rock/7-Woodstock-Ct-72227/home/95337234,CARMLS,24029567,N,Y,34.7805641,-92.3893492
MLS Listing,,Vacant Land,3408 Katherine St,Little Rock,AR,72204,24900,,,Lit - West Little Rock (central),,11325,,35,,,Active,,,https://www.redfin.com/AR/Little-Rock/3408-Katherine-St-72204/home/95347153,CARMLS,24029555,N,Y,34.721829,-92.3634639
MLS Listing,,Single Family Residential,11 Highfield Cv,Little Rock,AR,72211,995000,4,4.5,Lit - West Little Rock (northwes,5225,,2014,35,190,50,Active,,,https://www.redfin.com/AR/Little-Rock/11-Highfield-Cv-72211/home/95358575,CARMLS,24029495,N,Y,34.7340665,-92.4271327
MLS Listing,,Single Family Residential,152 Hickory Creek Cir Cir,Little Rock,AR,72212,1125000,6,4.5,Lit - West Little Rock (northwes,4781,23522,1993,35,235,480,Active,,,https://www.redfin.com/AR/Little-Rock/152-Hickory-Creek-Cir-72212/home/82781368,CARMLS,24029457,N,Y,34.788377,-92.4347762
MLS Listing,,Single Family Residential,5 Summerhill Ct,Little Rock,AR,72211,229000,4,2.5,Lit - West Little Rock (northwes,1664,9583,1977,35,138,,Active,,,https://www.redfin.com/AR/Little-Rock/5-Summerhill-Ct-72211/home/95344309,CARMLS,24029410,N,Y,34.7310621,-92.4026369
MLS Listing,,Single Family Residential,50 Glenmere Dr,Little Rock,AR,72204,129900,3,1.0,Lit - West Little Rock (central),950,8712,1957,35,137,,Active,,,https://www.redfin.com/AR/Little-Rock/50-Glenmere-Dr-72204/home/81396915,CARMLS,24029403,N,Y,34.7316617,-92.3485571
MLS Listing,,Vacant Land,2 Summit View Dr,Alexander,AR,72002,60000,,,Lit - Southwest Little Rock (sou,,17859,,35,,,Active,,,https://www.redfin.com/AR/Alexander/2-Summit-View-Dr-72002/home/192060369,CARMLS,24029398,N,Y,34.6294449,-92.4269864
MLS Listing,,Vacant Land,4 Summit View Dr,Alexander,AR,72002,60000,,,Lit - Southwest Little Rock (sou,,20037,,35,,,Active,,,https://www.redfin.com/AR/Alexander/4-Summit-View-Dr-72002/home/192060328,CARMLS,24029397,N,Y,34.629824,-92.4269888
MLS Listing,,Vacant Land,6 Summit View Dr,Alexander,AR,72002,55000,,,Lit - Southwest Little Rock (sou,,19166,,35,,,Active,,,https://www.redfin.com/AR/Alexander/6-Summit-View-Dr-72002/home/192060258,CARMLS,24029396,N,Y,34.630092,-92.4272142
MLS Listing,,Single Family Residential,5220 Crestwood,Little Rock,AR,72207,595000,4,3.0,Little Rock (heights/hillcrest),3000,12196,1978,36,198,,Active,,,https://www.redfin.com/AR/Little-Rock/5220-Crestwood-Dr-72207/home/95381999,CARMLS,24029325,N,Y,34.764216,-92.331971
MLS Listing,,Single Family Residential,8512 Dreher Ln,Little Rock,AR,72209,139900,3,3.0,Lit - Southwest Little Rock (sou,2452,10454,1995,36,57,,Active,,,https://www.redfin.com/AR/Little-Rock/8512-Dreher-Ln-72209/home/81385583,CARMLS,24029256,N,Y,34.6711016,-92.3357385
MLS Listing,,Single Family Residential,14 Windrush Pt,Little Rock,AR,72211,500000,4,3.0,Lit - West Little Rock (northwes,3313,10454,2005,36,151,50,Active,,,https://www.redfin.com/AR/Little-Rock/14-Windrush-Pt-72211/home/82955275,CARMLS,24029247,N,Y,34.7350212,-92.4186313
MLS Listing,,Vacant Land,11 Summit View Dr,Alexander,AR,72002,50000,,,Lit - Southwest Little Rock (sou,,17859,,36,,,Active,,,https://www.redfin.com/AR/Alexander/11-Summit-View-Dr-72002/home/192046759,CARMLS,24029228,N,Y,34.6301081,-92.428515
MLS Listing,,Vacant Land,10 Summit View Dr,Alexander,AR,72002,50000,,,Lit - Southwest Little Rock (sou,,17859,,36,,,Active,,,https://www.redfin.com/AR/Alexander/10-Summit-View-Dr-72002/home/192046753,CARMLS,24029227,N,Y,34.6298058,-92.4277434
MLS Listing,,Vacant Land,14 Summit View Dr,Alexander,AR,72002,50000,,,Lit - Southwest Little Rock (sou,,17859,,36,,,Active,,,https://www.redfin.com/AR/Alexander/14-Summit-View-Dr-72002/home/192046729,CARMLS,24029226,N,Y,34.630735,-92.4283237
MLS Listing,,Vacant Land,Lot 10 Quail Run Cir,Malvern,AR,72104,18000,,,Malvern,,,,37,,10,Active,,,https://www.redfin.com/AR/Malvern/Lot-10-Quail-Run-CIR-72104/home/192041109,HSBOR,147598,N,Y,34.656615,-92.430825
MLS Listing,,Vacant Land,Lot 9 Quail Run,Malvern,AR,72104,18000,,,Malvern,,,,37,,10,Active,,,https://www.redfin.com/AR/Malvern/Lot-9-Quail-RUN-72104/home/192041108,HSBOR,147596,N,Y,34.657372,-92.430658
