SALE TYPE,SOLD DATE,PROPERTY TYPE,ADDRESS,CITY,STATE OR PROVINCE,ZIP OR POSTAL CODE,PRICE,BEDS,BATHS,LOCATION,SQUARE FEET,LOT SIZE,YEAR BUILT,DAYS ON MARKET,$/SQUARE FEET,HOA/MONTH,STATUS,NEXT OPEN HOUSE START TIME,NEXT OPEN HOUSE END TIME,URL (SEE https://www.redfin.com/buy-a-home/comparative-market-analysis FOR INFO ON PRICING),SOURCE,MLS#,FAVORITE,INTERESTED,LATITUDE,LONGITUDE
MLS Listing,,Single Family Residential,409 E 99th St,Los Angeles,CA,90003,449000,2,1.0,Metropolitan South,576,5086,1926,4,780,,Active,,,https://www.redfin.com/CA/Los-Angeles/409-E-99th-St-90003/home/7304917,TheMLS,24-439263,N,Y,33.9467133,-118.2669221
MLS Listing,,Condo/Co-op,4250 Via Dolce #218,Marina Del Rey,CA,90292,1099000,2,2.0,C12 - Marina Del Rey,1590,191326,1974,4,691,936,Active,September-17-2024 11:00 AM,September-17-2024 02:00 PM,https://www.redfin.com/CA/Marina-del-Rey/4250-Via-Dolce-90292/unit-218/home/6783366,CRMLS,SB24190359,N,Y,33.974602,-118.4588171
MLS Listing,,Single Family Residential,1307 W Papeete St,Wilmington,CA,90744,788000,4,2.0,195 - West Wilmington,1437,5239,1953,4,548,,Pre On-Market,September-21-2024 10:00 AM,September-21-2024 01:00 PM,https://www.redfin.com/CA/Wilmington/1307-W-Papeete-St-90744/home/7675561,CRMLS,SW24189732,N,Y,33.7870957,-118.2798116
MLS Listing,,Single Family Residential,1558 W 47th St,Los Angeles,CA,90062,699990,3,1.0,PHHT - Park Hills Heights,1395,5743,1910,5,502,,Active,,,https://www.redfin.com/CA/Los-Angeles/1558-W-47th-St-90062/home/6871152,CRMLS,SB24179781,N,Y,34.0007833,-118.3055125
MLS Listing,,Townhouse,15053 Victory Blvd #11,Van Nuys,CA,91411,529000,2,2.5,East Van Nuys,1120,18335,2006,5,472,410,Active,,,https://www.redfin.com/CA/Van-Nuys/15053-Victory-Blvd-91411/unit-11/home/17225703,TheMLS,24-439167,N,Y,34.1869809,-118.4614622
MLS Listing,,Single Family Residential,7816 Quartz Ave,Winnetka,CA,91306,969000,3,2.5,WIN - Winnetka,2108,5182,1972,5,460,,Active,,,https://www.redfin.com/CA/Winnetka/7816-Quartz-Ave-91306/home/3670810,CRMLS,BB24187453,N,Y,34.2126206,-118.5638814
MLS Listing,,Condo/Co-op,4170 Fair Ave #101,Studio City,CA,91602,849000,2,2.5,STUD - Studio City,1470,33463,2006,5,578,625,Active,,,https://www.redfin.com/CA/North-Hollywood/4170-Fair-Ave-91602/unit-101/home/8163713,CRMLS,BB24187957,N,Y,34.1441756,-118.3744381
MLS Listing,,Single Family Residential,4449 W 64th St,Los Angeles,CA,90043,1279000,3,2.0,Park Hills Heights,1664,6302,1939,5,769,,Active,September-17-2024 11:00 AM,September-17-2024 02:00 PM,https://www.redfin.com/CA/Los-Angeles/4449-W-64th-St-90043/home/6409392,TheMLS,24-436487,N,Y,33.981961,-118.3517316
MLS Listing,,Single Family Residential,17561 Bullock St,Encino,CA,91316,1149000,3,2.0,ENC - Encino,1215,5502,1949,7,946,,Active,,,https://www.redfin.com/CA/Encino/17561-Bullock-St-91316/home/4751320,CRMLS,BB24188083,N,Y,34.1798772,-118.5159596
MLS Listing,,Condo/Co-op,6815 Remmet Ave #224,Canoga Park,CA,91303,389000,1,1.0,CP - Canoga Park,619,56680,1986,11,628,390,Active,,,https://www.redfin.com/CA/Canoga-Park/6815-Remmet-Ave-91303/unit-224/home/3962218,CRMLS,BB24183428,N,Y,34.1946572,-118.6005154
MLS Listing,,Condo/Co-op,1917 Manning Ave #2,Los Angeles,CA,90025,1349000,4,2.5,C05 - Westwood - Century City,1951,6754,1988,11,691,500,Active,,,https://www.redfin.com/CA/Los-Angeles/1917-Manning-Ave-90025/unit-2/home/6799763,CRMLS,SB24184270,N,Y,34.0507298,-118.4299644
MLS Listing,,Single Family Residential,8303 Topeka Dr,Northridge,CA,91324,799900,3,2.0,NR - Northridge,1600,6799,1978,18,500,,Active,,,https://www.redfin.com/CA/Northridge/8303-Topeka-Dr-91324/home/5890766,CRMLS,SR24180727,N,Y,34.2208002,-118.5457647
MLS Listing,,Single Family Residential,348 W 88th St,Los Angeles,CA,90003,599000,3,1.0,C37 - Metropolitan South,1005,3605,1926,18,596,,Active,,,https://www.redfin.com/CA/Los-Angeles/348-W-88th-St-90003/home/7296492,CRMLS,PW24178655,N,Y,33.9572055,-118.2799964
MLS Listing,,Single Family Residential,10947 Odell Ave,Sunland,CA,91040,849000,3,1.5,659 - Sunland/Tujunga,1083,10943,1950,18,784,,Active,,,https://www.redfin.com/CA/Sunland/10947-Odell-Ave-91040/home/5502237,CRMLS,BB24162951,N,Y,34.2681593,-118.3132991
MLS Listing,,Single Family Residential,8304 Stephen Ln,West Hills,CA,91304,1050000,4,2.0,WEH - West Hills,2090,11012,1963,19,502,,Active,,,https://www.redfin.com/CA/West-Hills/8304-Stephen-Ln-91304/home/8095596,CRMLS,BB24177930,N,Y,34.2194544,-118.6383013
MLS Listing,,Single Family Residential,19517 Celtic St,Porter Ranch,CA,91326,1975000,6,6.0,PORA - Porter Ranch,4971,13088,2005,20,397,,Active,,,https://www.redfin.com/CA/Porter-Ranch/19517-Celtic-St-91326/home/5780704,CRMLS,BB24177550,N,Y,34.2718167,-118.5580671
MLS Listing,,Townhouse,646 Flower Ave #3,Venice,CA,90291,1849000,3,3.5,C11 - Venice,1970,5794,2000,22,939,333,Active,,,https://www.redfin.com/CA/Venice/646-Flower-Ave-90291/unit-3/home/8106562,CRMLS,SB24177276,N,Y,33.9987796,-118.4698585
MLS Listing,,Single Family Residential,3911 S Victoria Ave,View Park,CA,90008,1599000,3,2.0,VWPK - View Park,1900,6336,1942,25,842,,Active,,,https://www.redfin.com/CA/View-Park/3911-S-Victoria-Ave-90008/home/6888798,CRMLS,BB24171558,N,Y,34.0146315,-118.3375257
MLS Listing,,Single Family Residential,6425 Varna Ave,Van Nuys,CA,91401,1190000,4,3.0,VN - Van Nuys,2050,7205,1949,26,580,,Active,,,https://www.redfin.com/CA/Van-Nuys/6425-Varna-Ave-91401/home/5094547,CRMLS,BB24170230,N,Y,34.1874632,-118.424998
MLS Listing,,Condo/Co-op,6250 Fulton Ave #104,Van Nuys,CA,91401,425000,1,1.0,VN - Van Nuys,830,12553,1983,26,512,372,Active,,,https://www.redfin.com/CA/Van-Nuys/6250-Fulton-Ave-91401/unit-104/home/17225928,CRMLS,BB24171762,N,Y,34.1844725,-118.4222196
MLS Listing,,Single Family Residential,401 S Cabrillo Ave,San Pedro,CA,90731,1059000,3,2.0,183 - Vista Del Oro,2200,4501,1913,26,481,,Active,,,https://www.redfin.com/CA/San-Pedro/401-S-Cabrillo-Ave-90731/home/7689049,CRMLS,SB24171740,N,Y,33.7404823,-118.2948248
MLS Listing,,Single Family Residential,5103 Biloxi Ave,North Hollywood,CA,91601,1650000,3,2.0,TUL - Toluca Lake,2055,10083,1940,27,803,,Active,,,https://www.redfin.com/CA/North-Hollywood/5103-Biloxi-Ave-91601/home/5297919,CRMLS,SR24172818,N,Y,34.1632994,-118.3585629
MLS Listing,,Vacant Land,5218 Baza Ave,Woodland Hills,CA,91364,199000,,,WHLL - Woodland Hills,,11618,,32,,,Active,,,https://www.redfin.com/CA/Woodland-Hills/5218-Baza-Ave-91364/home/54781179,CRMLS,BB24170390,N,Y,34.1642657,-118.6006436
MLS Listing,,Single Family Residential,4916 Enfield Ave,Encino,CA,91316,1695000,4,3.0,ENC - Encino,1918,6036,1948,33,884,,Active,,,https://www.redfin.com/CA/Encino/4916-Enfield-Ave-91316/home/4292706,CRMLS,BB24159310,N,Y,34.1589701,-118.5236982
MLS Listing,,Condo/Co-op,1234 Wilshire Blvd #331,Los Angeles,CA,90017,599999,2,2.0,C42 - Downtown L.A.,960,71352,2006,33,625,796,Active,,,https://www.redfin.com/CA/Los-Angeles/1234-Wilshire-Blvd-90017/unit-331/home/12294349,CRMLS,BB24168949,N,Y,34.053194,-118.265658
MLS Listing,,Townhouse,13236 Fiji Way Unit B,Marina Del Rey,CA,90292,1359000,2,2.5,C12 - Marina Del Rey,1582,64241,1969,34,859,593,Active,,,https://www.redfin.com/CA/Marina-del-Rey/13236-Fiji-Way-90292/unit-B/home/6732631,CRMLS,SB24167659,N,Y,33.9792142,-118.4344462
MLS Listing,,Condo/Co-op,801 S Grand Ave #1806,Los Angeles,CA,90017,749000,2,2.0,C42 - Downtown L.A.,1200,59001,1985,34,624,1040,Active,,,https://www.redfin.com/CA/Los-Angeles/801-S-Grand-Ave-90017/unit-1806/home/8179719,CRMLS,BB24163085,N,Y,34.0457095,-118.2585553
MLS Listing,,Condo/Co-op,4528 Colbath Ave #103,Sherman Oaks,CA,91423,595000,1,1.0,SO - Sherman Oaks,925,10580,1978,34,643,470,Active,,,https://www.redfin.com/CA/Sherman-Oaks/4528-Colbath-Ave-91423/unit-103/home/4853944,CRMLS,BB24167913,N,Y,34.153884,-118.4362785
MLS Listing,,Single Family Residential,1013 Englander St,San Pedro,CA,90731,1198000,4,2.0,193 - San Pedro - North,2049,5250,1962,39,585,,Active,,,https://www.redfin.com/CA/San-Pedro/1013-Englander-St-90731/home/7683299,CRMLS,SB24154108,N,Y,33.7647511,-118.3000059
MLS Listing,,Condo/Co-op,312 W 5th St #319,Los Angeles,CA,90013,394900,1,1.0,C42 - Downtown L.A.,650,27293,1923,39,608,365,Active,,,https://www.redfin.com/CA/Los-Angeles/312-W-5th-St-90013/unit-319/home/8181158,CRMLS,BB24163252,N,Y,34.0480407,-118.2512918
MLS Listing,,Single Family Residential,22641 Macfarlane Dr,Woodland Hills,CA,91364,2199000,6,3.5,WHLL - Woodland Hills,3804,17057,1955,41,578,,Active,,,https://www.redfin.com/CA/Woodland-Hills/22641-Macfarlane-Dr-91364/home/3556992,CRMLS,BB24162507,N,Y,34.163043,-118.6197558
MLS Listing,,Condo/Co-op,1310 Armacost Ave #104,Los Angeles,CA,90025,1149000,2,2.0,West L.A.,1740,13768,2005,41,660,650,Active,September-17-2024 11:00 AM,September-17-2024 02:00 PM,https://www.redfin.com/CA/Los-Angeles/1310-Armacost-Ave-90025/unit-104/home/8150956,TheMLS,24-424975,N,Y,34.0446723,-118.4622163
MLS Listing,,Single Family Residential,14560 Valley Vista Blvd,Sherman Oaks,CA,91403,2385000,4,4.0,SO - Sherman Oaks,3314,7415,1965,45,720,,Active,,,https://www.redfin.com/CA/Sherman-Oaks/14560-Valley-Vista-Blvd-91403/home/4886820,CRMLS,SR24158086,N,Y,34.1470244,-118.4516487
MLS Listing,,Single Family Residential,4254 Beethoven St,Los Angeles,CA,90066,1995000,3,3.0,Marina Del Rey,1803,4397,1926,47,1106,,Active,,,https://www.redfin.com/CA/Los-Angeles/4254-Beethoven-St-90066/home/6736357,TheMLS,24-422799,N,Y,33.9915571,-118.4335517
MLS Listing,,Condo/Co-op,939 S Broadway #413,Los Angeles,CA,90015,549000,1,1.0,C42 - Downtown L.A.,700,15498,1924,50,784,503,Active,,,https://www.redfin.com/CA/Los-Angeles/939-S-Broadway-90015/unit-413/home/173208826,CRMLS,BB24153982,N,Y,34.0416129,-118.2571335
MLS Listing,,Condo/Co-op,12711 Mitchell Ave #3,Los Angeles,CA,90066,902000,2,2.5,C13 - Palms - Mar Vista,1087,6978,1987,53,830,250,Active,,,https://www.redfin.com/CA/Los-Angeles/12711-Mitchell-Ave-90066/unit-3/home/6740326,CRMLS,SB24152168,N,Y,33.9980324,-118.4358946
MLS Listing,,Single Family Residential,7038 Texhoma Ave,Lake Balboa,CA,91406,1089000,3,2.5,LKBL - Lake Balboa,1929,7498,1951,55,565,,Active,,,https://www.redfin.com/CA/Van-Nuys/7038-Texhoma-Ave-91406/home/4535601,CRMLS,BB24150252,N,Y,34.1987156,-118.5149784
MLS Listing,,Condo/Co-op,155 S Oxford Ave Ph 3,Los Angeles,CA,90004,910000,3,2.0,C17 - Mid-Wilshire,1344,13823,2016,60,677,312,Active,,,https://www.redfin.com/CA/Los-Angeles/155-S-Oxford-Ave-90004/unit-3/home/167563838,CRMLS,PF24146760,N,Y,34.0720371,-118.3082491
MLS Listing,,Single Family Residential,520 Altair Pl,Venice,CA,90291,2295000,3,3.0,Venice,1048,2707,1912,60,2190,,Active,,,https://www.redfin.com/CA/Venice/520-Altair-Pl-90291/home/6741279,TheMLS,24-417295,N,Y,33.9896384,-118.4666849
MLS Listing,,Condo/Co-op,312 W 5th St #507,Los Angeles,CA,90013,425000,1,1.0,C42 - Downtown L.A.,860,27293,1923,67,494,310,Active,,,https://www.redfin.com/CA/Los-Angeles/312-W-5th-St-90013/unit-507/home/8181092,CRMLS,PF24124763,N,Y,34.0480407,-118.2512918
MLS Listing,,Condo/Co-op,8642 Gregory Way #204,Los Angeles,CA,90035,1089000,2,2.0,C19 - Beverly Center-Miracle Mile,1719,17397,1980,70,634,550,Active,,,https://www.redfin.com/CA/Los-Angeles/8642-Gregory-Way-90035/unit-204/home/6813673,CRMLS,BB24134777,N,Y,34.0627089,-118.3799838
MLS Listing,,Single Family Residential,22666 Cavalier St,Woodland Hills,CA,91364,1199999,3,3.0,WHLL - Woodland Hills,2128,6987,1966,70,564,,Active,,,https://www.redfin.com/CA/Woodland-Hills/22666-Cavalier-St-91364/home/3565466,CRMLS,BB24140407,N,Y,34.1584144,-118.621807
MLS Listing,,Single Family Residential,2827 Budau Ave,Los Angeles,CA,90032,830000,3,2.0,621 - El Sereno,1256,4788,1925,73,661,,Active,,,https://www.redfin.com/CA/Los-Angeles/2827-Budau-Ave-90032/home/6951274,CRMLS,PF24114056,N,Y,34.0780685,-118.1744052
MLS Listing,,Single Family Residential,9369 Hillrose St,Shadow Hills,CA,91040,1795000,4,4.0,672 - Shadow Hills,4044,39359,2007,74,444,,Active,,,https://www.redfin.com/CA/Sunland/9369-Hillrose-St-91040/home/21921338,CRMLS,SR24137964,N,Y,34.2625835,-118.3363693
MLS Listing,,Single Family Residential,9948 Calvin Ave,Northridge,CA,91324,1349000,4,3.0,NR - Northridge,2340,16902,1960,76,576,,Active,,,https://www.redfin.com/CA/Northridge/9948-Calvin-Ave-91324/home/5805618,CRMLS,BB24134838,N,Y,34.2514818,-118.5552183
MLS Listing,,Single Family Residential,19048 Victory Blvd,Tarzana,CA,91335,899000,4,3.0,TAR - Tarzana,1541,7444,1953,76,583,,Active,,,https://www.redfin.com/CA/Tarzana/19048-Victory-Blvd-91335/home/3865381,CRMLS,BB24088119,N,Y,34.1863161,-118.5485179
MLS Listing,,Condo/Co-op,4733 Elmwood Ave #402,Los Angeles,CA,90004,799000,3,2.0,HPK - Hancock Park,1300,7252,2008,78,615,449,Active,,,https://www.redfin.com/CA/Los-Angeles/4733-Elmwood-Ave-90004/unit-402/home/25717000,CRMLS,PF24132732,N,Y,34.0786036,-118.3103042
MLS Listing,,Condo/Co-op,5349 Newcastle Ave #62,Encino,CA,91316,465000,2,2.0,ENC - Encino,927,60939,1967,81,502,529,Active,,,https://www.redfin.com/CA/Encino/5349-Newcastle-Ave-91316/unit-62/home/4143446,CRMLS,BB24130091,N,Y,34.168225,-118.525134
MLS Listing,,Single Family Residential,4235 W 59th Pl,Los Angeles,CA,90043,1648000,4,3.5,PHHT - Park Hills Heights,3128,5566,2014,82,527,,Active,,,https://www.redfin.com/CA/Los-Angeles/4235-W-59th-Pl-90043/home/6447072,CRMLS,SB24131270,N,Y,33.9864219,-118.3492387
MLS Listing,,Single Family Residential,20448 W Liverpool Way,Porter Ranch,CA,91326,3175000,5,6.0,Porter Ranch,5513,14142,2021,88,576,451,Active,,,https://www.redfin.com/CA/Porter-Ranch/20448-W-Liverpool-Way-91326/home/143518762,TheMLS,24-406419,N,Y,34.285311,-118.580759
MLS Listing,,Single Family Residential,19130 Charles St,Tarzana,CA,91356,1899000,3,2.0,TAR - Tarzana,2721,18187,1955,89,698,,Active,,,https://www.redfin.com/CA/Tarzana/19130-Charles-St-91356/home/4253494,CRMLS,BB24120950,N,Y,34.1572008,-118.5500503
MLS Listing,,Townhouse,4640 Glencoe Ave #4,Marina Del Rey,CA,90292,1249000,2,3.0,Marina Del Rey,1646,196139,1977,98,759,805,Active,,,https://www.redfin.com/CA/Marina-del-Rey/4640-Glencoe-Ave-90292/unit-4/home/6725686,TheMLS,24-402827,N,Y,33.9856273,-118.432362
MLS Listing,,Condo/Co-op,321 S San Vicente Blvd #708,Los Angeles,CA,90048,769500,2,2.0,Beverly Center-Miracle Mile,1295,42596,1976,154,594,1140,Active,,,https://www.redfin.com/CA/Los-Angeles/321-S-San-Vicente-Blvd-90048/unit-708/home/6814245,TheMLS,24-381011,N,Y,34.0730973,-118.37796
MLS Listing,,Condo/Co-op,905 New Depot St #12,Los Angeles,CA,90012,558000,3,1.5,671 - Silver Lake,1167,29414,1974,167,478,210,Active,,,https://www.redfin.com/CA/Los-Angeles/905-New-Depot-St-90012/unit-12/home/7054519,CRMLS,PF24063967,N,Y,34.0656737,-118.244944
MLS Listing,,Condo/Co-op,18350 Hatteras St #141,Tarzana,CA,91356,399000,2,2.0,Tarzana,870,234363,1972,1,459,516,Active,September-22-2024 01:00 PM,September-22-2024 03:00 PM,https://www.redfin.com/CA/Tarzana/18350-Hatteras-St-91356/unit-141/home/8183024,TheMLS,24-437285,N,Y,34.177325,-118.5323416
MLS Listing,,Condo/Co-op,1509 Greenfield Ave #205,Los Angeles,CA,90025,999000,2,2.0,Westwood - Century City,1667,26865,1973,1,599,600,Active,September-17-2024 11:00 AM,September-17-2024 02:00 PM,https://www.redfin.com/CA/Los-Angeles/1509-Greenfield-Ave-90025/unit-205/home/6802383,TheMLS,24-440631,N,Y,34.0515056,-118.4441028
MLS Listing,,Multi-Family (2-4 Unit),3886 S Van Ness Ave S,Los Angeles,CA,90062,968500,4,2.0,PHHT - Park Hills Heights,1602,5063,1923,1,605,,Active,,,https://www.redfin.com/CA/Los-Angeles/3886-S-Van-Ness-Ave-90062/home/6882717,CRMLS,SR24192660,N,Y,34.0148884,-118.3168141
MLS Listing,,Multi-Family (2-4 Unit),1943 W 39th St,Los Angeles,CA,90062,907000,8,4.0,PHHT - Park Hills Heights,2520,5146,1923,1,360,,Active,,,https://www.redfin.com/CA/Los-Angeles/1943-W-39th-St-90062/home/6882718,CRMLS,SR24192979,N,Y,34.014785,-118.3166638
MLS Listing,,Multi-Family (2-4 Unit),1206 N Normandie Ave,Los Angeles,CA,90029,1200000,3,2.0,Los Angeles,1945,6969,1916,1,617,,Active,,,https://www.redfin.com/CA/Los-Angeles/1206-N-Normandie-Ave-90029/home/7111021,AVMLS,24006989,N,Y,34.093582,-118.3002571
MLS Listing,,Single Family Residential,6069 Gloucester St,Los Angeles,CA,90022,640000,2,1.0,699 - Not Defined,884,3889,1940,1,724,,Active,,,https://www.redfin.com/CA/Los-Angeles/6069-Gloucester-St-90022/home/7431825,CRMLS,MB24192974,N,Y,34.0118795,-118.1418286
MLS Listing,,Single Family Residential,3345 Oakhurst Ave,Los Angeles,CA,90034,1925000,3,3.0,C09 - Beverlywood Vicinity,1665,4377,1929,1,1156,,Pre On-Market,,,https://www.redfin.com/CA/Los-Angeles/3345-Oakhurst-Ave-90034/home/6792752,CRMLS,SR24192921,N,Y,34.0301484,-118.3976998
MLS Listing,,Single Family Residential,22065 Rayen St,West Hills,CA,91304,780000,4,3.0,WEH - West Hills,1884,11006,1970,1,414,,Active,,,https://www.redfin.com/CA/West-Hills/22065-Rayen-St-91304/home/8096206,CRMLS,SR24192937,N,Y,34.2314523,-118.6082883
MLS Listing,,Townhouse,12752 N Watt Ln Unit B,Sylmar,CA,91342,699000,4,4.0,SYL - Sylmar,1780,23907,2019,1,393,300,Active,September-21-2024 02:00 PM,September-21-2024 05:00 PM,https://www.redfin.com/CA/Sylmar/12752-N-Watt-Ln-91342/unit-B/home/169776122,CRMLS,SR24192799,N,Y,34.3023888,-118.4236351
MLS Listing,,Multi-Family (2-4 Unit),1116 N Madison Ave,Los Angeles,CA,90029,1280000,6,4.0,Silver Lake - Echo Park,3268,7709,1905,1,392,,Active,,,https://www.redfin.com/CA/Los-Angeles/1116-N-Madison-Ave-90029/home/7111813,TheMLS,24-440335,N,Y,34.091545,-118.2889051
MLS Listing,,Single Family Residential,18913 Ballinger St,Northridge,CA,91324,959000,3,3.0,Northridge,2001,7620,1963,1,479,,Active,September-21-2024 12:00 PM,September-21-2024 04:00 PM,https://www.redfin.com/CA/Northridge/18913-Ballinger-St-91324/home/5854858,TheMLS,24-440563,N,Y,34.2441642,-118.5455767
MLS Listing,,Condo/Co-op,8787 Shoreham Dr #109,West Hollywood,CA,90069,820000,1,2.0,Sunset Strip - Hollywood Hills West,862,48023,1963,1,951,1821,Pre On-Market,,,https://www.redfin.com/CA/West-Hollywood/8787-Shoreham-Dr-90069/unit-109/home/7120515,TheMLS,24-440567,N,Y,34.0927247,-118.3828802
MLS Listing,,Single Family Residential,2958 Hillcrest Dr,Los Angeles,CA,90016,950000,3,1.0,Mid Los Angeles,1188,4400,1927,1,800,,Active,,,https://www.redfin.com/CA/Los-Angeles/2958-Hillcrest-Dr-90016/home/6892478,TheMLS,24-431517,N,Y,34.02775,-118.3426389
MLS Listing,,Condo/Co-op,2160 Century Park East,Los Angeles,CA,90067,855000,2,2.0,Westwood - Century City,1070,223100,1966,1,799,1360,Active,,,https://www.redfin.com/CA/Los-Angeles/2160-Century-Park-E-90067/home/12474883,TheMLS,24-439497,N,Y,34.0585574,-118.4112443
MLS Listing,,Multi-Family (2-4 Unit),14 Northstar St,Marina Del Rey,CA,90292,3000000,4,4.0,Marina Del Rey,2092,3150,1924,1,1434,,Active,,,https://www.redfin.com/CA/Marina-del-Rey/14-Northstar-St-90292/home/6782562,TheMLS,24-439987,N,Y,33.9717514,-118.4600491
MLS Listing,,Multi-Family (2-4 Unit),836 W 93rd St,Los Angeles,CA,90044,850000,6,4.0,C34 - Los Angeles Southwest,2123,5407,1924,1,400,,Active,,,https://www.redfin.com/CA/Los-Angeles/836-W-93rd-St-90044/home/7296088,CRMLS,DW24192642,N,Y,33.9516792,-118.2906433
MLS Listing,,Single Family Residential,4525 4th Ave,Los Angeles,CA,90043,899000,2,2.0,Park Hills Heights,1035,5400,1921,1,869,,Active,September-17-2024 11:00 AM,September-17-2024 02:00 PM,https://www.redfin.com/CA/Los-Angeles/4525-4th-Ave-90043/home/6869544,TheMLS,24-439855,N,Y,34.0019552,-118.3216824
MLS Listing,,Single Family Residential,755 Napoli Dr,Pacific Palisades,CA,90272,18995000,7,8.0,Pacific Palisades,10603,16186,2023,1,1791,,Active,September-17-2024 11:00 AM,September-17-2024 02:00 PM,https://www.redfin.com/CA/Pacific-Palisades/755-Napoli-Dr-90272/home/6839598,TheMLS,24-437641,N,Y,34.0421075,-118.5102885
MLS Listing,,Single Family Residential,2791 Ellison Dr,Beverly Hills,CA,90210,10250000,5,6.0,Beverly Hills Post Office,4563,45943,1965,1,2246,,Active,,,https://www.redfin.com/CA/Beverly-Hills/2791-Ellison-Dr-90210/home/6833847,TheMLS,24-430381,N,Y,34.1222018,-118.4255512
MLS Listing,,Single Family Residential,4719 Wortser Ave,Sherman Oaks,CA,91423,1599000,3,3.0,SO - Sherman Oaks,2029,8783,1940,1,788,,Pre On-Market,September-22-2024 12:00 AM,September-22-2024 11:59 PM,https://www.redfin.com/CA/Sherman-Oaks/4719-Wortser-Ave-91423/home/5221035,CRMLS,SR24184360,N,Y,34.156366,-118.4173597
MLS Listing,,Single Family Residential,1452 E 91st St,Los Angeles,CA,90019,800000,5,3.0,Los Angeles,1748,7127,,1,458,,Active,,,https://www.redfin.com/CA/Los-Angeles/1452-E-91st-ST-90019/home/192582216,TCMLS,231383,N,Y,33.954119,-118.24849
MLS Listing,,Multi-Family (2-4 Unit),1943 Hancock St,Los Angeles,CA,90031,2780000,14,13.0,Lincoln Heights,6454,6253,2024,1,431,,Active,,,https://www.redfin.com/CA/Los-Angeles/1943-Hancock-St-90031/home/6947974,TheMLS,24-438453,N,Y,34.0673018,-118.209237
MLS Listing,,Condo/Co-op,11670 W Sunset Blvd #210,Los Angeles,CA,90049,599000,1,1.0,Brentwood,778,30791,1956,1,770,357,Active,September-17-2024 11:00 AM,September-17-2024 02:00 PM,https://www.redfin.com/CA/Los-Angeles/11670-W-Sunset-Blvd-90049/unit-210/home/17243362,TheMLS,24-438333,N,Y,34.065716,-118.4699269
MLS Listing,,Single Family Residential,1616 W 25th St,Los Angeles,CA,90007,1350000,4,3.0,Mid Los Angeles,3184,8129,1902,1,424,,Active,September-17-2024 11:00 AM,September-17-2024 02:00 PM,https://www.redfin.com/CA/Los-Angeles/1616-W-25th-St-90007/home/6895239,TheMLS,24-440153,N,Y,34.0334718,-118.2979964
MLS Listing,,Single Family Residential,7046 Darnoch Way,West Hills,CA,91307,1399000,4,3.0,West Hills,2533,11194,1961,1,552,,Active,September-17-2024 11:00 AM,September-17-2024 02:00 PM,https://www.redfin.com/CA/West-Hills/7046-Darnoch-Way-91307/home/3141369,TheMLS,24-440041,N,Y,34.1983952,-118.6437182
MLS Listing,,Condo/Co-op,11775 W Sunset Blvd,Los Angeles,CA,90049,1199900,2,2.5,Brentwood,1252,45120,1955,1,958,660,Active,,,https://www.redfin.com/CA/Los-Angeles/11775-W-Sunset-Blvd-90049/home/17243339,TheMLS,24-439142,N,Y,34.063823,-118.471846
MLS Listing,,Single Family Residential,5025 Buchanan St,Los Angeles,CA,90042,999900,3,2.0,632 - Highland Park,1174,5400,1923,1,852,,Active,,,https://www.redfin.com/CA/Los-Angeles/5025-Buchanan-St-90042/home/7081844,CRMLS,CV24191141,N,Y,34.1197415,-118.2063891
MLS Listing,,Condo/Co-op,423 Arnaz Dr #102,Los Angeles,CA,90048,959000,2,2.0,Beverly Center-Miracle Mile,1220,12504,2008,1,786,635,Active,,,https://www.redfin.com/CA/Los-Angeles/423-Arnaz-Dr-90048/unit-102/home/22608641,TheMLS,24-439951,N,Y,34.0713269,-118.3830208
MLS Listing,,Condo/Co-op,8801 Independence Ave #11,Canoga Park,CA,91304,330000,1,1.0,CP - Canoga Park,626,41004,1978,1,527,455,Active,,,https://www.redfin.com/CA/Canoga-Park/8801-Independence-Ave-91304/unit-11/home/5868232,CRMLS,PW24192390,N,Y,34.2301873,-118.5908794
MLS Listing,,Single Family Residential,6736 Sunnyslope Ave,Valley Glen,CA,91401,949000,3,2.0,VG - Valley Glen,1615,6963,1956,1,588,,Active,,,https://www.redfin.com/CA/Van-Nuys/6736-Sunnyslope-Ave-91401/home/5094395,CRMLS,SR24192777,N,Y,34.1931694,-118.4266131
MLS Listing,,Condo/Co-op,5335 Cartwright Ave #4,North Hollywood,CA,91601,689000,2,2.0,North Hollywood,980,6762,2008,1,703,468,Active,,,https://www.redfin.com/CA/North-Hollywood/5335-Cartwright-Ave-91601/unit-4/home/21917446,TheMLS,24-439691,N,Y,34.167669,-118.363526
MLS Listing,,Single Family Residential,1721 Mccollum St,Los Angeles,CA,90026,2500000,4,3.0,Silver Lake - Echo Park,2496,9500,1983,1,1002,210,Active,September-17-2024 11:00 AM,September-17-2024 02:00 PM,https://www.redfin.com/CA/Los-Angeles/1721-McCollum-St-90026/home/7057891,TheMLS,24-440539,N,Y,34.0883466,-118.2646972
MLS Listing,,Townhouse,18701 Hatteras St #3,Tarzana,CA,91356,925000,3,3.0,TAR - Tarzana,2033,46174,1981,1,455,534,Active,,,https://www.redfin.com/CA/Tarzana/18701-Hatteras-St-91356/unit-3/home/4048936,CRMLS,GD24192547,N,Y,34.1779098,-118.5410164
MLS Listing,,Vacant Land,0 Vanland Trl,Los Angeles,CA,90068,195750,,,C03 - Sunset Strip - Hollywood Hills West,,2709,,1,,,Active,,,https://www.redfin.com/CA/Hollywood/Vanland-TRL-90068/home/172027047,CRMLS,SW24192840,N,Y,34.122682,-118.34452
MLS Listing,,Single Family Residential,7701 Lexington Ave,West Hollywood,CA,90046,1499500,2,1.0,West Hollywood Vicinity,1182,5466,1915,1,1269,,Active,,,https://www.redfin.com/CA/West-Hollywood/7701-Lexington-Ave-90046/home/7106532,TheMLS,24-440453,N,Y,34.0928471,-118.3568555
MLS Listing,,Single Family Residential,9100 Cordell Dr,Los Angeles,CA,90069,14850000,4,5.0,Sunset Strip - Hollywood Hills West,,28160,1948,1,,,Active,,,https://www.redfin.com/CA/Los-Angeles/9100-Cordell-Dr-90069/home/7121294,TheMLS,24-439151,N,Y,34.0939718,-118.3897204
MLS Listing,,Townhouse,18550 Hatteras St #19,Tarzana,CA,91356,622000,2,2.5,TAR - Tarzana,1203,191794,1975,1,517,565,Pre On-Market,,,https://www.redfin.com/CA/Tarzana/18550-Hatteras-St-91356/unit-19/home/4060149,CRMLS,CV24192568,N,Y,34.1771803,-118.5380431
MLS Listing,,Condo/Co-op,2304 S Beverly Glen Blvd #301,Los Angeles,CA,90064,985000,2,2.0,Westwood - Century City,1332,13075,1972,1,739,520,Pre On-Market,,,https://www.redfin.com/CA/Los-Angeles/2304-S-Beverly-Glen-Blvd-90064/unit-301/home/6795368,TheMLS,24-439849,N,Y,34.0485481,-118.4185637
MLS Listing,,Single Family Residential,241 N Catalina St,Los Angeles,CA,90004,1500000,4,2.0,Mid-Wilshire,1733,7420,1922,1,866,,Active,,,https://www.redfin.com/CA/Los-Angeles/241-N-Catalina-St-90004/home/7097742,TheMLS,24-440487,N,Y,34.0757385,-118.2957585
MLS Listing,,Single Family Residential,4949 Sancola Ave,Toluca Lake,CA,91601,1495000,2,2.5,Toluca Lake,2356,5632,1938,1,635,,Active,,,https://www.redfin.com/CA/North-Hollywood/4949-Sancola-Ave-91601/home/5299435,TheMLS,24-434345,N,Y,34.1607454,-118.354267
MLS Listing,,Single Family Residential,14912 W Navarre Way,Sylmar,CA,91342,709000,4,3.0,SYL - Sylmar,1574,2443,2017,1,450,20,Active,,,https://www.redfin.com/CA/Sylmar/14912-W-Navarre-Way-91342/home/143102794,CRMLS,SR24192277,N,Y,34.2946673,-118.4554378
MLS Listing,,Multi-Family (2-4 Unit),2241 Glover Pl,Los Angeles,CA,90031,998000,6,5.0,632 - Highland Park,2330,4844,1960,1,428,,Pre On-Market,,,https://www.redfin.com/CA/Los-Angeles/2241-Glover-Pl-90031/home/7069402,CRMLS,PW24192766,N,Y,34.0905623,-118.2370788
MLS Listing,,Condo/Co-op,10433 Wilshire Blvd #302,Los Angeles,CA,90024,949000,2,2.5,Westwood - Century City,1418,31468,1963,1,669,1579,Active,,,https://www.redfin.com/CA/Los-Angeles/10433-Wilshire-Blvd-90024/unit-302/home/6826538,TheMLS,24-440411,N,Y,34.0663496,-118.4308891
MLS Listing,,Single Family Residential,3929 Fredonia Dr,Los Angeles,CA,90068,4590000,5,4.0,Studio City,4963,19193,1951,1,925,,Active,September-21-2024 02:00 PM,September-21-2024 05:00 PM,https://www.redfin.com/CA/Los-Angeles/3929-Fredonia-Dr-90068/home/5253485,TheMLS,24-440466,N,Y,34.1348825,-118.364571
MLS Listing,,Single Family Residential,4568 Ellenwood Dr,Eagle Rock,CA,90041,1099999,3,2.0,618 - Eagle Rock,1116,5188,1907,1,986,,Active,September-21-2024 02:00 PM,September-21-2024 04:00 PM,https://www.redfin.com/CA/Los-Angeles/4568-Ellenwood-Dr-90041/home/7079802,CRMLS,BB24192528,N,Y,34.1284037,-118.2191664
MLS Listing,,Single Family Residential,4551 Eagle St,East Los Angeles,CA,90022,499000,2,1.0,ELA - East Los Angeles,792,4121,1922,1,630,,Active,,,https://www.redfin.com/CA/Los-Angeles/4551-Eagle-St-90022/home/6966084,CRMLS,SR24192742,N,Y,34.0294172,-118.1675371
MLS Listing,,Condo/Co-op,1411 N Detroit St #106,Los Angeles,CA,90046,900000,2,2.5,C20 - Hollywood,1370,19900,2009,1,657,464,Pre On-Market,September-21-2024 12:00 AM,September-21-2024 03:00 PM,https://www.redfin.com/CA/Los-Angeles/1411-N-Detroit-St-90046/unit-106/home/40153482,CRMLS,OC24192678,N,Y,34.0965679,-118.3455322
MLS Listing,,Single Family Residential,3959 Tropical Dr,Studio City,CA,91604,1690000,3,3.5,STUD - Studio City,2445,6443,1920,1,691,,Active,September-21-2024 01:00 PM,September-21-2024 04:00 PM,https://www.redfin.com/CA/Studio-City/3959-Tropical-Dr-91604/home/5252408,CRMLS,SR24192523,N,Y,34.1395787,-118.3774963
MLS Listing,,Condo/Co-op,9207 Cedros Ave Unit A,Panorama City,CA,91402,499000,3,2.5,PC - Panorama City,1461,66342,1989,1,342,340,Active,,,https://www.redfin.com/CA/Panorama-City/9207-Cedros-Ave-91402/unit-A/home/5673897,CRMLS,PW24192058,N,Y,34.2376659,-118.4540891
MLS Listing,,Condo/Co-op,20327 Saticoy St #205,Winnetka,CA,91306,425000,2,2.0,WIN - Winnetka,850,35262,1978,1,500,270,Pre On-Market,,,https://www.redfin.com/CA/Winnetka/20327-Saticoy-St-91306/unit-205/home/17228990,CRMLS,SR24192650,N,Y,34.208647,-118.5765214
MLS Listing,,Single Family Residential,25532 Senator Ave,Harbor City,CA,90710,659900,2,1.0,124 - Harbor City,904,5076,1929,1,730,,Active,,,https://www.redfin.com/CA/Harbor-City/25532-Senator-Ave-90710/home/7671823,CRMLS,SB24192724,N,Y,33.7917746,-118.3025662
MLS Listing,,Single Family Residential,6103 S Citrus Ave,Los Angeles,CA,90043,949000,2,2.0,Park Hills Heights,1163,6320,1938,1,816,,Active,,,https://www.redfin.com/CA/Los-Angeles/6103-S-Citrus-Ave-90043/home/6447606,TheMLS,24-440415,N,Y,33.9844554,-118.3563237
MLS Listing,,Multi-Family (2-4 Unit),1340 N Wilmington Blvd,Wilmington,CA,90744,660000,4,4.0,195 - West Wilmington,1504,5730,1929,1,439,,Active,,,https://www.redfin.com/CA/Wilmington/1340-N-Wilmington-Blvd-90744/home/7675197,CRMLS,SR24192133,N,Y,33.789816,-118.274542
MLS Listing,,Condo/Co-op,4230 Colfax Ave #101,Studio City,CA,91604,899000,3,3.0,Studio City,1420,11459,1989,1,633,570,Active,September-17-2024 11:00 AM,September-17-2024 02:00 PM,https://www.redfin.com/CA/Studio-City/4230-Colfax-Ave-91604/unit-101/home/5238781,TheMLS,24-438971,N,Y,34.1464977,-118.3873303
MLS Listing,,Condo/Co-op,5460 White Oak Ave Unit E323,Encino,CA,91316,260000,1,1.5,ENC - Encino,712,406432,1971,1,365,759,Active,,,https://www.redfin.com/CA/Encino/5460-White-Oak-Ave-91316/unit-E323/home/4776887,CRMLS,SR24192536,N,Y,34.1705601,-118.5166391
MLS Listing,,Single Family Residential,1322 N June St,Los Angeles,CA,90028,1549000,4,3.5,632 - Highland Park,1530,5118,1917,1,1012,,Pre On-Market,,,https://www.redfin.com/CA/Los-Angeles/1322-N-June-St-90028/home/7113465,CRMLS,RS24173670,N,Y,34.0950796,-118.3340029
MLS Listing,,Multi-Family (2-4 Unit),1332 E 21st St,Los Angeles,CA,90011,765000,4,2.0,C23 - Metropolitan,1488,5760,1922,1,514,,Active,,,https://www.redfin.com/CA/Los-Angeles/1332-E-21st-St-90011/home/6928060,CRMLS,TR24192617,N,Y,34.02176,-118.2514952
MLS Listing,,Condo/Co-op,4506 Dockweiler St #303,Los Angeles,CA,90019,576000,1,1.0,Hancock Park-Wilshire,640,9859,2024,1,900,419,Active,,,https://www.redfin.com/CA/Los-Angeles/4506-Dockweiler-St-90019/unit-303/home/192581772,TheMLS,24-440251,N,Y,34.0501453,-118.3335627
MLS Listing,,Single Family Residential,11740 Crescenda St,Los Angeles,CA,90049,64500000,8,11.0,Brentwood,20000,153862,2005,1,3225,,Active,,,https://www.redfin.com/CA/Los-Angeles/11740-Crescenda-St-90049/home/17225372,TheMLS,24-435519,N,Y,34.0668439,-118.4726148
MLS Listing,,Single Family Residential,1424 N Mohawk St,Los Angeles,CA,90026,2195000,5,4.5,Silver Lake - Echo Park,3396,2875,2024,1,646,170,Active,,,https://www.redfin.com/CA/Los-Angeles/1424-Mohawk-St-90026/home/192581771,TheMLS,24-419921,N,Y,34.0820434,-118.2632045
MLS Listing,,Condo/Co-op,4506 Dockweiler St #402,Los Angeles,CA,90019,799000,2,2.0,Hancock Park-Wilshire,992,9859,2024,1,805,419,Active,,,https://www.redfin.com/CA/Los-Angeles/4506-Dockweiler-St-90019/unit-402/home/192581770,TheMLS,24-440255,N,Y,34.0501453,-118.3335627
MLS Listing,,Vacant Land,3664 Oakfield Dr,Sherman Oaks,CA,91423,765000,,,Sherman Oaks,,14029,,1,,,Active,,,https://www.redfin.com/CA/Sherman-Oaks/3664-Oakfield-Dr-91423/home/22951465,TheMLS,24-439453,N,Y,34.137868,-118.44811
MLS Listing,,Vacant Land,3654 Oakfield Dr,Sherman Oaks,CA,91423,895000,,,Sherman Oaks,,13642,,1,,,Active,,,https://www.redfin.com/CA/Sherman-Oaks/3654-Oakfield-Dr-91423/home/22915918,TheMLS,24-439437,N,Y,34.13754,-118.448305
MLS Listing,,Single Family Residential,537 W 49th Pl,Los Angeles,CA,90037,650000,3,1.0,C34 - Los Angeles Southwest,1030,4202,1910,1,631,,Active,,,https://www.redfin.com/CA/Los-Angeles/537-W-49th-Pl-90037/home/6872702,CRMLS,IV24192614,N,Y,33.9981896,-118.2840846
MLS Listing,,Single Family Residential,8673 Hollywood Blvd,Los Angeles,CA,90069,6895000,4,4.5,Sunset Strip - Hollywood Hills West,4852,11659,1953,1,1421,,Active,September-22-2024 02:00 PM,September-22-2024 05:00 PM,https://www.redfin.com/CA/Los-Angeles/8673-Hollywood-Blvd-90069/home/7120099,TheMLS,24-440351,N,Y,34.0976801,-118.3781421
MLS Listing,,Condo/Co-op,310 Tahiti Way Unit #219,Marina Del Rey,CA,90292,1200000,3,2.0,C12 - Marina Del Rey,1686,,1979,1,712,971,Active,,,https://www.redfin.com/CA/Marina-del-Rey/310-Tahiti-Way-90292/unit-219/home/6783609,CRMLS,PW24185362,N,Y,33.9731783,-118.4576178
MLS Listing,,Condo/Co-op,2160 Century Park E Unit 709N,Los Angeles,CA,90067,885000,2,2.0,Westwood - Century City,1066,223100,1966,1,830,1332,Active,,,https://www.redfin.com/CA/Los-Angeles/2160-Century-Park-E-90067/unit-709N/home/6808639,TheMLS,24-440257,N,Y,34.0585574,-118.4112443
MLS Listing,,Condo/Co-op,1535 Granville Ave #107,Los Angeles,CA,90025,789000,2,2.0,West L.A.,1039,13754,1979,1,759,414,Active,September-22-2024 02:00 PM,September-22-2024 04:00 PM,https://www.redfin.com/CA/Los-Angeles/1535-Granville-Ave-90025/unit-107/home/12289077,TheMLS,24-440353,N,Y,34.0416972,-118.4576053
MLS Listing,,Multi-Family (5+ Unit),3320 Woodbine St,Los Angeles,CA,90064,6500000,26,20.0,Cheviot Hills - Rancho Park,15543,23092,1954,1,418,,Active,,,https://www.redfin.com/CA/Los-Angeles/3320-Woodbine-St-90064/home/6796332,TheMLS,24-440207,N,Y,34.0304049,-118.4060641
MLS Listing,,Multi-Family (2-4 Unit),1171 W 38th St,Los Angeles,CA,90037,1075000,3,3.0,C23 - Metropolitan,2100,6212,1928,1,512,,Active,,,https://www.redfin.com/CA/Los-Angeles/1171-W-38th-St-90037/home/6884260,CRMLS,PW24192629,N,Y,34.0175959,-118.2966521
MLS Listing,,Single Family Residential,3300 N Knoll Dr,Los Angeles,CA,90068,3150000,3,3.5,Hollywood Hills East,3137,6651,1926,1,1004,,Active,,,https://www.redfin.com/CA/Los-Angeles/3300-N-Knoll-Dr-90068/home/7129048,TheMLS,24-440365,N,Y,34.1291697,-118.3430361
MLS Listing,,Multi-Family (2-4 Unit),1014 Sentinel Ave,Los Angeles,CA,90063,768000,4,2.0,BOYH - Boyle Heights,2142,4796,1926,1,359,,Active,September-21-2024 10:00 AM,September-21-2024 04:00 PM,https://www.redfin.com/CA/Los-Angeles/1014-Sentinel-Ave-90063/home/6957422,CRMLS,WS24192464,N,Y,34.0496669,-118.1947236
MLS Listing,,Multi-Family (2-4 Unit),1612 W 226th St,Torrance,CA,90501,1800000,8,4.0,134 - Old Torrance,3124,7202,1948,1,576,,Pre On-Market,,,https://www.redfin.com/CA/Torrance/1612-W-226th-St-90501/home/7647077,CRMLS,OC24192375,N,Y,33.8210102,-118.3069337
MLS Listing,,Single Family Residential,2137 Sunset Plaza Dr,Los Angeles,CA,90069,2995000,2,2.0,Sunset Strip - Hollywood Hills West,1555,6146,1949,1,1926,,Active,,,https://www.redfin.com/CA/Los-Angeles/2137-Sunset-Plaza-Dr-90069/home/7122475,TheMLS,24-439443,N,Y,34.1059157,-118.3844507
MLS Listing,,Single Family Residential,10711 Sunnybrae Ave,Chatsworth,CA,91311,1799888,5,3.5,CHT - Chatsworth,3152,11030,1970,1,571,,Active,September-20-2024 12:00 PM,September-20-2024 06:00 PM,https://www.redfin.com/CA/Chatsworth/10711-Sunnybrae-Ave-91311/home/5777199,CRMLS,CV24192398,N,Y,34.2648145,-118.5806005
MLS Listing,,Multi-Family (5+ Unit),8307 S Figueroa St,Los Angeles,CA,90003,2250000,18,10.0,Metropolitan Southwest,7584,7499,1991,1,297,,Active,,,https://www.redfin.com/CA/Los-Angeles/8307-S-Figueroa-St-90003/home/7291060,TheMLS,24-440387,N,Y,33.9628912,-118.2831071
MLS Listing,,Vacant Land,1157 - 1201 E 20th St,Los Angeles,CA,90011,1300000,,,Downtown L.A.,,10886,,1,,,Active,,,https://www.redfin.com/CA/Los-Angeles/1157-E-20th-St-90011/home/6930906,TheMLS,24-440391,N,Y,34.024601,-118.2529169
MLS Listing,,Multi-Family (2-4 Unit),11338 Collins St,North Hollywood,CA,91601,1099000,4,2.0,NHO - North Hollywood,1924,8052,1950,1,571,,Active,,,https://www.redfin.com/CA/North-Hollywood/11338-Collins-St-91601/home/5150186,CRMLS,SR24192540,N,Y,34.1738513,-118.3781351
MLS Listing,,Single Family Residential,3131 & 3135 Oakcrest Dr,Los Angeles,CA,90068,3000000,6,4.0,Sunset Strip - Hollywood Hills West,4392,7071,1928,1,683,,Active,,,https://www.redfin.com/CA/Los-Angeles/3131-Oakcrest-Dr-90068/home/5314954,TheMLS,24-430593,N,Y,34.1258427,-118.3465829
MLS Listing,,Single Family Residential,2370 Bowmont Dr,Beverly Hills,CA,90210,3999000,4,5.0,Beverly Hills Post Office,4219,25353,1947,1,948,,Active,,,https://www.redfin.com/CA/Beverly-Hills/2370-Bowmont-Dr-90210/home/6834619,TheMLS,24-432161,N,Y,34.1153998,-118.3979519
MLS Listing,,Single Family Residential,5920 Matilija Ave,Van Nuys,CA,91401,1599000,4,2.5,Valley Glen,2540,6754,1965,1,630,,Active,September-17-2024 11:00 AM,September-17-2024 02:00 PM,https://www.redfin.com/CA/Van-Nuys/5920-Matilija-Ave-91401/home/4703151,TheMLS,24-440105,N,Y,34.1781372,-118.4331462
MLS Listing,,Multi-Family (2-4 Unit),232 W 49th St,Los Angeles,CA,90037,698888,4,2.0,C42 - Downtown L.A.,1744,5447,1913,1,401,,Active,,,https://www.redfin.com/CA/Los-Angeles/232-W-49th-St-90037/home/6924178,CRMLS,IV24192550,N,Y,33.9981993,-118.2772587
MLS Listing,,Single Family Residential,22737 Ia Ln,Woodland Hills,CA,91364,2295000,4,4.0,Woodland Hills,3284,25050,1964,1,699,,Active,September-22-2024 02:00 PM,September-22-2024 05:00 PM,https://www.redfin.com/CA/Woodland-Hills/22737-Ia-Ln-91364/home/3566116,TheMLS,24-440363,N,Y,34.1519727,-118.6226462
MLS Listing,,Single Family Residential,10353 Rincon Ave,Pacoima,CA,91331,779000,4,2.0,PAC - Pacoima,1446,8103,1937,1,539,,Active,September-21-2024 12:00 PM,September-21-2024 04:00 PM,https://www.redfin.com/CA/Pacoima/10353-Rincon-Ave-91331/home/5657775,CRMLS,OC24191963,N,Y,34.2582828,-118.4304988
MLS Listing,,Single Family Residential,454 Hoefner Ave,Los Angeles,CA,90022,599000,2,1.0,699 - Not Defined,830,5706,1938,1,722,,Active,,,https://www.redfin.com/CA/Los-Angeles/454-Hoefner-Ave-90022/home/7433056,CRMLS,PF24192406,N,Y,34.0263516,-118.1479122
MLS Listing,,Condo/Co-op,1932 Pelham Ave #401,Los Angeles,CA,90025,1159000,2,2.0,Westwood - Century City,1532,6755,1989,1,757,475,Active,,,https://www.redfin.com/CA/Los-Angeles/1932-Pelham-Ave-90025/unit-401/home/6799778,TheMLS,24-435553,N,Y,34.0502168,-118.4300724
MLS Listing,,Single Family Residential,5210 Etiwanda Ave,Tarzana,CA,91356,1359000,3,2.0,Tarzana,1776,5513,1950,1,765,,Active,September-21-2024 02:00 PM,September-21-2024 05:00 PM,https://www.redfin.com/CA/Tarzana/5210-Etiwanda-Ave-91356/home/4280309,TheMLS,24-440223,N,Y,34.1659437,-118.5305727
MLS Listing,,Single Family Residential,3045 Kelton Ave,Los Angeles,CA,90034,3345000,5,4.5,Palms - Mar Vista,3200,6443,2021,1,1045,,Active,September-21-2024 02:00 PM,September-21-2024 05:00 PM,https://www.redfin.com/CA/Los-Angeles/3045-Kelton-Ave-90034/home/6752578,TheMLS,24-440155,N,Y,34.0285636,-118.4220127
MLS Listing,,Condo/Co-op,421 S La Fayette Park Pl #720,Los Angeles,CA,90057,419000,1,1.0,C42 - Downtown L.A.,715,43264,1971,1,586,501,Active,,,https://www.redfin.com/CA/Los-Angeles/421-S-La-Fayette-Park-Pl-90057/unit-720/home/6935070,CRMLS,WS24192318,N,Y,34.0653187,-118.2821969
MLS Listing,,Multi-Family (2-4 Unit),605 N Hobart Blvd,Los Angeles,CA,90004,1499000,5,5.0,C17 - Mid-Wilshire,2935,7505,1923,1,511,,Active,,,https://www.redfin.com/CA/Los-Angeles/605-N-Hobart-Blvd-90004/home/7098453,CRMLS,PW24187248,N,Y,34.0819976,-118.3060867
MLS Listing,,Condo/Co-op,1111 S Grand Ave #405,Los Angeles,CA,90015,620000,1,1.0,Downtown L.A.,1030,38857,2005,1,602,900,Active,,,https://www.redfin.com/CA/Los-Angeles/1111-S-Grand-Ave-90015/unit-405/home/12290273,TheMLS,24-440267,N,Y,34.0414052,-118.2625906
MLS Listing,,Multi-Family (2-4 Unit),12463 Walsh Ave,Los Angeles,CA,90066,1899500,7,4.0,Marina Del Rey,2344,4891,1956,1,810,,Active,,,https://www.redfin.com/CA/Los-Angeles/12463-Walsh-Ave-90066/home/6732556,TheMLS,24-435155,N,Y,33.9904738,-118.4232825
MLS Listing,,Multi-Family (2-4 Unit),5629 Cleon Ave,North Hollywood,CA,91601,1200000,4,4.0,North Hollywood,2080,5553,1954,1,577,,Active,,,https://www.redfin.com/CA/North-Hollywood/5629-Cleon-Ave-91601/home/5290768,TheMLS,24-440317,N,Y,34.1729982,-118.3684152
MLS Listing,,Single Family Residential,4508 Mount Vernon Dr,View Park,CA,90043,2800000,3,3.5,VWPK - View Park,2924,8935,1964,1,958,,Active,September-20-2024 05:00 PM,September-20-2024 08:00 PM,https://www.redfin.com/CA/View-Park/4508-Mount-Vernon-Dr-90043/home/6866678,CRMLS,SR24190791,N,Y,33.9972583,-118.3558936
MLS Listing,,Single Family Residential,5212 Hartwick St,Los Angeles,CA,90041,949000,3,1.0,618 - Eagle Rock,1758,7351,1922,1,540,,Active,,,https://www.redfin.com/CA/Los-Angeles/5212-Hartwick-St-90041/home/7180576,CRMLS,GD24191009,N,Y,34.1422539,-118.1967241
MLS Listing,,Single Family Residential,2492 Corinth Ave,Los Angeles,CA,90064,1550000,4,2.0,West L.A.,1806,7502,1947,1,858,,Active,September-17-2024 11:00 AM,September-17-2024 02:00 PM,https://www.redfin.com/CA/Los-Angeles/2492-Corinth-Ave-90064/home/6756978,TheMLS,24-438589,N,Y,34.0326313,-118.4376153
MLS Listing,,Vacant Land,8413 Grand View Dr,Los Angeles,CA,90046,149999,,,Sunset Strip - Hollywood Hills West,,5684,,1,,,Active,,,https://www.redfin.com/CA/Los-Angeles/8413-Grand-View-Dr-90046/home/113977500,TheMLS,24-440295,N,Y,34.1028675,-118.3741242
MLS Listing,,Single Family Residential,542 N La Jolla Ave,Los Angeles,CA,90048,1300000,0,,West Hollywood Vicinity,,4460,1928,1,,,Active,,,https://www.redfin.com/CA/Los-Angeles/542-N-La-Jolla-Ave-90048/home/7104440,TheMLS,24-439991,N,Y,34.0814326,-118.3677218
MLS Listing,,Multi-Family (2-4 Unit),216--218 E 66th St,Los Angeles,CA,90003,859900,5,4.0,C42 - Downtown L.A.,1473,5400,1908,1,584,,Active,,,https://www.redfin.com/CA/Los-Angeles/216-E-66th-St-90003/home/7276598,CRMLS,DW24192248,N,Y,33.9795035,-118.2710943
MLS Listing,,Condo/Co-op,22100 Burbank Blvd Unit 311A,Woodland Hills,CA,91367,379000,1,1.0,WHLL - Woodland Hills,599,222578,1979,1,633,476,Active,,,https://www.redfin.com/CA/Woodland-Hills/22100-Burbank-Blvd-91367/unit-311A/home/4003521,CRMLS,SR24192425,N,Y,34.1717888,-118.6090923
MLS Listing,,Vacant Land,3923 Deer Ave,Sherman Oaks,CA,91423,179000,,,Sherman Oaks,,17102,,1,,,Active,,,https://www.redfin.com/CA/Sherman-Oaks/3923-Deer-Ave-91423/home/22973299,TheMLS,24-440237,N,Y,34.139687,-118.431412
MLS Listing,,Single Family Residential,2328 Vestal Ave,Los Angeles,CA,90026,1950000,3,2.0,Silver Lake - Echo Park,2168,6252,1915,1,899,,Active,September-17-2024 11:00 AM,September-17-2024 02:00 PM,https://www.redfin.com/CA/Los-Angeles/2328-Vestal-Ave-90026/home/7068448,TheMLS,24-440007,N,Y,34.0937974,-118.2489517
MLS Listing,,Condo/Co-op,11918 Kiowa Ave #203,Los Angeles,CA,90049,1299000,2,2.0,Brentwood,1395,14181,1969,1,931,475,Active,,,https://www.redfin.com/CA/Los-Angeles/11918-Kiowa-Ave-90049/unit-203/home/6761468,TheMLS,24-437913,N,Y,34.0479234,-118.4659279
MLS Listing,,Multi-Family (2-4 Unit),136 W 48th St,Los Angeles,CA,90037,1850000,9,7.5,C42 - Downtown L.A.,4150,4752,2024,1,446,,Active,,,https://www.redfin.com/CA/Los-Angeles/136-W-48th-St-90037/home/6924138,CRMLS,OC24192351,N,Y,33.998988,-118.2753423
MLS Listing,,Single Family Residential,17845 VALLEY VISTA Blvd,Encino,CA,91316,1899000,3,3.0,ENC - Encino,1717,9450,1951,1,1106,,Active,,,https://www.redfin.com/CA/Encino/17845-Valley-Vista-Blvd-91316/home/4287626,CRMLS,SR24192396,N,Y,34.1581365,-118.5216116
MLS Listing,,Multi-Family (2-4 Unit),2620 Idell St,Los Angeles,CA,90065,975000,4,4.0,CYPK - Cypress Park,2208,7080,1917,1,442,,Active,,,https://www.redfin.com/CA/Los-Angeles/2620-Idell-St-90065/home/7069707,CRMLS,SB24191224,N,Y,34.0864044,-118.2240542
MLS Listing,,Single Family Residential,2134 Overland Ave,Los Angeles,CA,90025,1849000,3,2.0,Westwood - Century City,1608,5404,1928,1,1150,,Active,September-17-2024 11:00 AM,September-17-2024 02:00 PM,https://www.redfin.com/CA/Los-Angeles/2134-Overland-Ave-90025/home/6800256,TheMLS,24-439603,N,Y,34.0466913,-118.4284002
MLS Listing,,Single Family Residential,4131 Edgehill Dr,Los Angeles,CA,90008,1100000,4,2.0,PHHT - Park Hills Heights,2071,4620,1929,1,531,,Active,September-21-2024 11:00 AM,September-21-2024 02:00 PM,https://www.redfin.com/CA/Los-Angeles/4131-Edgehill-Dr-90008/home/6877223,CRMLS,SB24143562,N,Y,34.0090999,-118.3306722
MLS Listing,,Multi-Family (2-4 Unit),7614 Mason Ave,Winnetka,CA,91306,1398000,7,6.0,WIN - Winnetka,3980,6231,1963,1,351,,Active,,,https://www.redfin.com/CA/Winnetka/7614-Mason-Ave-91306/home/3746706,CRMLS,GD24191109,N,Y,34.2088959,-118.5794615
MLS Listing,,Condo/Co-op,10112 Empyrean Way #204,Los Angeles,CA,90067,2695000,2,2.5,Westwood - Century City,2240,464441,1979,1,1203,1929,Active,,,https://www.redfin.com/CA/Los-Angeles/10112-Empyrean-Way-90067/unit-204/home/6809258,TheMLS,24-440187,N,Y,34.053242,-118.40811
MLS Listing,,Multi-Family (2-4 Unit),426 N Normandie Ave,Los Angeles,CA,90004,1200000,4,4.0,C17 - Mid-Wilshire,2584,5824,1923,1,464,,Active,,,https://www.redfin.com/CA/Los-Angeles/426-N-Normandie-Ave-90004/home/7098251,CRMLS,OC24192158,N,Y,34.0784204,-118.30014
MLS Listing,,Single Family Residential,16811 Nordhoff St,Northridge,CA,91343,990000,4,2.0,NR - Northridge,2112,9126,1954,1,469,,Active,,,https://www.redfin.com/CA/Northridge/16811-Nordhoff-St-91343/home/5742633,CRMLS,SR24177522,N,Y,34.2360283,-118.498655
MLS Listing,,Single Family Residential,592 Entrada Dr,Santa Monica,CA,90402,3495000,2,2.5,Santa Monica,2431,5519,1948,1,1438,,Active,September-17-2024 11:00 AM,September-17-2024 02:00 PM,https://www.redfin.com/CA/Santa-Monica/592-Entrada-Dr-90402/home/6840190,TheMLS,24-439471,N,Y,34.0341616,-118.5093839
MLS Listing,,Single Family Residential,5159 Amestoy Ave,Encino,CA,91316,6500000,5,6.0,ENC - Encino,5470,48099,1938,1,1188,,Pre On-Market,,,https://www.redfin.com/CA/Encino/5159-Amestoy-Ave-91316/home/4781598,CRMLS,SR24192048,N,Y,34.164713,-118.5062832
MLS Listing,,Townhouse,4347 Freedom Dr Unit B,Calabasas,CA,91302,865000,2,2.5,CLB - Calabasas,1332,132543,1989,1,649,661,Active,,,https://www.redfin.com/CA/Calabasas/4347-Freedom-Dr-91302/unit-B/home/3582582,CRMLS,SR24176537,N,Y,34.1481814,-118.6145158
MLS Listing,,Single Family Residential,1600 N Kings Rd,Los Angeles,CA,90069,3600000,4,4.5,Sunset Strip - Hollywood Hills West,3405,8708,1953,1,1057,,Active,,,https://www.redfin.com/CA/Los-Angeles/1600-N-Kings-Rd-90069/home/7120192,TheMLS,24-439999,N,Y,34.0996954,-118.3750157
MLS Listing,,Single Family Residential,1895 Rising Glen Rd,Los Angeles,CA,90069,17995000,6,8.5,Sunset Strip - Hollywood Hills West,9400,51297,1997,1,1914,,Active,,,https://www.redfin.com/CA/Los-Angeles/1895-Rising-Glen-Rd-90069/home/23216209,TheMLS,24-438637,N,Y,34.105185,-118.385296
MLS Listing,,Multi-Family (5+ Unit),14825 Magnolia Blvd,Sherman Oaks,CA,91403,2450000,14,11.0,Sherman Oaks,7632,10959,1953,1,321,,Active,,,https://www.redfin.com/CA/Sherman-Oaks/14825-Magnolia-Blvd-91403/home/4744591,TheMLS,24-440159,N,Y,34.165088,-118.4562754
MLS Listing,,Single Family Residential,13206 Cranston Ave,Sylmar,CA,91342,825000,4,2.0,SYL - Sylmar,1472,7502,1963,1,560,,Active,,,https://www.redfin.com/CA/Sylmar/13206-Cranston-Ave-91342/home/5435385,CRMLS,SR24192292,N,Y,34.3116768,-118.4176972
MLS Listing,,Multi-Family (2-4 Unit),1900 N Normandie Ave,Los Angeles,CA,90027,1200000,5,3.0,Los Feliz,2970,7505,1922,1,404,,Active,,,https://www.redfin.com/CA/Los-Angeles/1900-N-Normandie-Ave-90027/home/7133525,TheMLS,24-440139,N,Y,34.105675,-118.3003256
MLS Listing,,Single Family Residential,2111 Glendon Ave,Los Angeles,CA,90025,2950000,5,5.5,Westwood - Century City,3137,6763,1927,1,940,,Pre On-Market,,,https://www.redfin.com/CA/Los-Angeles/2111-Glendon-Ave-90025/home/6800102,TheMLS,24-440133,N,Y,34.0453444,-118.4319562
MLS Listing,,Single Family Residential,3522 Perlita Ave,Los Angeles,CA,90039,1610000,4,3.0,Atwater,1295,6758,1916,1,1243,,Active,September-17-2024 11:00 AM,September-17-2024 02:00 PM,https://www.redfin.com/CA/Los-Angeles/3522-Perlita-Ave-90039/home/7065341,TheMLS,24-438409,N,Y,34.1188087,-118.2585192
MLS Listing,,Single Family Residential,4034 Denny Ave,Studio City,CA,91604,2599000,3,3.0,Studio City,2417,4803,1951,1,1075,,Active,September-22-2024 01:00 PM,September-22-2024 04:00 PM,https://www.redfin.com/CA/Studio-City/4034-Denny-Ave-91604/home/5307096,TheMLS,24-439939,N,Y,34.1426509,-118.3645489
MLS Listing,,Single Family Residential,1172 Mirasol St,Los Angeles,CA,90023,675000,3,2.0,BOYH - Boyle Heights,896,5002,1923,1,753,,Active,,,https://www.redfin.com/CA/Los-Angeles/1172-Mirasol-St-90023/home/6944700,CRMLS,PF24191914,N,Y,34.0198339,-118.1982142
MLS Listing,,Condo/Co-op,725 S Barrington Ave #202,Los Angeles,CA,90049,589000,1,1.0,Brentwood,736,24486,1972,1,800,621,Active,September-17-2024 11:00 AM,September-17-2024 02:00 PM,https://www.redfin.com/CA/Los-Angeles/725-S-Barrington-Ave-90049/unit-202/home/6836122,TheMLS,24-437461,N,Y,34.0552592,-118.4677868
MLS Listing,,Single Family Residential,12624 Hartland St,North Hollywood,CA,91605,1295000,3,2.0,NHO - North Hollywood,1747,6995,1953,1,741,,Pre On-Market,,,https://www.redfin.com/CA/North-Hollywood/12624-Hartland-St-91605/home/5062494,CRMLS,GD24192146,N,Y,34.1947162,-118.4083019
MLS Listing,,Single Family Residential,1680 Sunset Plaza Dr,Los Angeles,CA,90069,6250000,4,5.0,Sunset Strip - Hollywood Hills West,4500,5310,2017,1,1389,,Active,,,https://www.redfin.com/CA/Los-Angeles/1680-Sunset-Plaza-Dr-90069/home/173223991,TheMLS,24-440103,N,Y,34.1015074,-118.3799304
MLS Listing,,Multi-Family (5+ Unit),540 N Orlando Ave,West Hollywood,CA,90048,6890000,28,29.0,West Hollywood Vicinity,15010,11479,1962,1,459,,Active,,,https://www.redfin.com/CA/West-Hollywood/540-N-Orlando-Ave-90048/home/7104768,TheMLS,24-439117,N,Y,34.0814023,-118.3730069
MLS Listing,,Single Family Residential,3977 Archdale Rd,Encino,CA,91436,4179000,4,4.5,ENC - Encino,3958,29467,1955,1,1056,,Active,September-17-2024 11:00 AM,September-17-2024 02:00 PM,https://www.redfin.com/CA/Encino/3977-Archdale-Rd-91436/home/4923682,CRMLS,SR24189395,N,Y,34.1427624,-118.476738
MLS Listing,,Single Family Residential,19633 Wells Dr,Tarzana,CA,91356,3427000,5,4.5,Tarzana,4518,18609,2014,1,759,,Active,,,https://www.redfin.com/CA/Tarzana/19633-Wells-Dr-91356/home/58302426,TheMLS,24-439975,N,Y,34.1642123,-118.561319
MLS Listing,,Multi-Family (5+ Unit),843 S Ardmore Ave,Los Angeles,CA,90005,4200000,21,20.0,C17 - Mid-Wilshire,13095,6764,1989,1,321,,Active,,,https://www.redfin.com/CA/Los-Angeles/843-S-Ardmore-Ave-90005/home/6918300,CRMLS,SR24192209,N,Y,34.0565978,-118.3023121
MLS Listing,,Single Family Residential,19350 Starlight Dr,Tarzana,CA,91356,3599000,5,3.5,Tarzana,4718,18813,1978,1,763,,Active,September-20-2024 11:00 AM,September-20-2024 02:00 PM,https://www.redfin.com/CA/Tarzana/19350-Starlight-Dr-91356/home/4239029,TheMLS,24-437885,N,Y,34.1598548,-118.5550616
MLS Listing,,Single Family Residential,141 N Bentley Ave,Los Angeles,CA,90049,24995000,7,9.0,Bel Air - Holmby Hills,9040,29514,2022,1,2765,,Active,,,https://www.redfin.com/CA/Los-Angeles/141-N-Bentley-Ave-90049/home/6828148,TheMLS,24-438943,N,Y,34.0757367,-118.4584451
MLS Listing,,Single Family Residential,11037 Anzio Rd,Los Angeles,CA,90077,12500000,8,9.5,Bel Air - Holmby Hills,10369,112912,1990,1,1206,,Active,,,https://www.redfin.com/CA/Los-Angeles/11037-Anzio-Rd-90077/home/6830687,TheMLS,24-437215,N,Y,34.0923769,-118.4647723
MLS Listing,,Single Family Residential,1139 Sierra Alta Way,Los Angeles,CA,90069,2395000,3,3.5,Sunset Strip - Hollywood Hills West,2821,6252,1948,1,849,,Active,September-22-2024 02:00 PM,September-22-2024 05:00 PM,https://www.redfin.com/CA/Los-Angeles/1139-Sierra-Alta-Way-90069/home/6835575,TheMLS,24-440021,N,Y,34.0916866,-118.3946876
MLS Listing,,Single Family Residential,8244 N Clear Sky Way,West Hills,CA,91304,1799950,4,4.5,WEH - West Hills,3627,9577,2021,1,496,200,Active,,,https://www.redfin.com/CA/Canoga-Park/8244-N-Clear-Sky-Way-91304/home/110208060,CRMLS,SR24192043,N,Y,34.2183177,-118.6574023
MLS Listing,,Single Family Residential,9330 Rhea Ave,Northridge,CA,91324,899000,3,2.0,NR - Northridge,1370,7877,1957,1,656,,Active,,,https://www.redfin.com/CA/Northridge/9330-Rhea-Ave-91324/home/5856863,CRMLS,SR24190154,N,Y,34.2401592,-118.5411853
MLS Listing,,Single Family Residential,1787 W 35th St,Los Angeles,CA,90018,850000,4,2.0,699 - Not Defined,1720,6802,1967,1,494,,Active,,,https://www.redfin.com/CA/Los-Angeles/1787-W-35th-St-90018/home/6885369,CRMLS,PW24189146,N,Y,34.024878,-118.3115821
MLS Listing,,Single Family Residential,13100 Terra Bella St,Pacoima,CA,91331,700000,2,1.0,PAC - Pacoima,900,7667,1955,1,778,,Active,,,https://www.redfin.com/CA/Pacoima/13100-Terra-Bella-St-91331/home/5606925,CRMLS,GD24155656,N,Y,34.2581616,-118.4181103
MLS Listing,,Single Family Residential,18801 Celtic St,Porter Ranch,CA,91326,1600000,4,3.0,PORA - Porter Ranch,2573,11755,1968,1,622,,Active,September-19-2024 05:30 PM,September-19-2024 08:30 PM,https://www.redfin.com/CA/Porter-Ranch/18801-Celtic-St-91326/home/5791778,CRMLS,GD24164953,N,Y,34.2689145,-118.5430881
MLS Listing,,Single Family Residential,10519 Louisiana Ave,Los Angeles,CA,90025,3499000,5,5.5,Westwood - Century City,3600,7031,2024,1,972,,Active,,,https://www.redfin.com/CA/Los-Angeles/10519-Louisiana-Ave-90025/home/6796889,TheMLS,24-440087,N,Y,34.0495062,-118.423426
MLS Listing,,Single Family Residential,3721 Woodcliff Rd,Sherman Oaks,CA,91403,3875000,4,4.0,Sherman Oaks,3456,9103,1954,1,1121,,Active,September-22-2024 01:00 PM,September-22-2024 04:00 PM,https://www.redfin.com/CA/Sherman-Oaks/3721-Woodcliff-Rd-91403/home/4896593,TheMLS,24-439955,N,Y,34.1378685,-118.4678456
MLS Listing,,Single Family Residential,11811 N Greenwood Dr,Porter Ranch,CA,91326,3850000,5,5.0,Porter Ranch,5086,10898,2022,1,757,392,Active,,,https://www.redfin.com/CA/Porter-Ranch/11811-N-Greenwood-Dr-91326/home/143518596,TheMLS,24-439925,N,Y,34.2868664,-118.5777663
MLS Listing,,Single Family Residential,17811 Collins St,Encino,CA,91316,864000,2,1.0,ENC - Encino,802,5582,1949,1,1077,,Active,,,https://www.redfin.com/CA/Encino/17811-Collins-St-91316/home/4088767,CRMLS,SR24192169,N,Y,34.1740529,-118.5208112
MLS Listing,,Condo/Co-op,500 Molino St #205,Los Angeles,CA,90013,999000,1,1.0,Metropolitan,1420,83084,1923,1,704,546,Active,September-22-2024 02:00 PM,September-22-2024 04:00 PM,https://www.redfin.com/CA/Los-Angeles/500-Molino-St-90013/unit-205/home/12290768,TheMLS,24-440069,N,Y,34.0417009,-118.2335207
MLS Listing,,Single Family Residential,9651 Oso Ave,Chatsworth,CA,91311,1150000,4,3.0,CHT - Chatsworth,1870,7498,1959,1,615,,Active,,,https://www.redfin.com/CA/Chatsworth/9651-Oso-Ave-91311/home/5843904,CRMLS,GD24190383,N,Y,34.2456596,-118.5757025
MLS Listing,,Single Family Residential,7303 N Eaton Pl,Los Angeles,CA,90046,2095000,3,3.5,West Hollywood Vicinity,2500,6838,2024,1,838,,Active,September-21-2024 02:00 PM,September-21-2024 05:00 PM,https://www.redfin.com/CA/Los-Angeles/7303-N-Eaton-St-90042/home/192576114,TheMLS,24-440019,N,Y,34.1246973,-118.1964966
MLS Listing,,Single Family Residential,7311 N Eaton Pl,Los Angeles,CA,90046,2295000,3,4.0,West Hollywood Vicinity,2900,6836,2024,1,791,,Active,September-21-2024 02:00 PM,September-21-2024 05:00 PM,https://www.redfin.com/CA/Los-Angeles/7311-N-Eaton-St-90042/home/192177366,TheMLS,24-440013,N,Y,34.1246973,-118.1964966
MLS Listing,,Single Family Residential,7309 N Eaton Pl,Los Angeles,CA,90046,1995000,3,3.5,West Hollywood Vicinity,2300,6838,2024,1,867,,Active,September-21-2024 02:00 PM,September-21-2024 05:00 PM,https://www.redfin.com/CA/Los-Angeles/7309-N-Eaton-St-90042/home/192177481,TheMLS,24-440023,N,Y,34.1246973,-118.1964966
MLS Listing,,Single Family Residential,704 N Grand Ave,Los Angeles,CA,90012,499000,2,2.0,Silver Lake - Echo Park,1444,3074,1899,1,346,,Active,,,https://www.redfin.com/CA/Los-Angeles/704-N-Grand-Ave-90012/home/7054827,TheMLS,24-439661,N,Y,34.0627802,-118.2431927
MLS Listing,,Condo/Co-op,6645 W 86th Pl #201,Los Angeles,CA,90045,995000,3,2.5,Westchester,1729,7149,1993,1,575,570,Active,,,https://www.redfin.com/CA/Los-Angeles/6645-W-86th-Pl-90045/unit-201/home/6634859,TheMLS,24-439941,N,Y,33.9595497,-118.4061032
MLS Listing,,Condo/Co-op,10590 Wilshire Blvd #1402,Los Angeles,CA,90024,1950000,3,2.5,Westwood - Century City,2160,20953,1976,1,903,2306,Active,,,https://www.redfin.com/CA/Los-Angeles/10590-Wilshire-Blvd-90024/unit-1402/home/6804392,TheMLS,24-414475,N,Y,34.0612735,-118.4331786
MLS Listing,,Single Family Residential,22511 Victory Blvd,West Hills,CA,91307,1250000,3,3.0,WEH - West Hills,2083,15573,1955,1,600,,Active,September-21-2024 02:00 PM,September-21-2024 05:00 PM,https://www.redfin.com/CA/West-Hills/22511-Victory-Blvd-91307/home/3212657,CRMLS,SR24188087,N,Y,34.1868149,-118.6172829
MLS Listing,,Multi-Family (2-4 Unit),2522 Michigan Ave,Los Angeles,CA,90033,1490000,6,4.0,Boyle Heights,3732,5464,1923,1,399,,Active,,,https://www.redfin.com/CA/Los-Angeles/2522-Michigan-Ave-90033/home/6940828,TheMLS,24-440061,N,Y,34.0442366,-118.2067782
MLS Listing,,Multi-Family (2-4 Unit),1467 S Canfield Ave,Los Angeles,CA,90035,1599000,5,4.0,C09 - Beverlywood Vicinity,2604,5127,1927,1,614,,Active,,,https://www.redfin.com/CA/Los-Angeles/1467-S-Canfield-Ave-90035/home/6788111,CRMLS,IV24191990,N,Y,34.0532579,-118.3896739
MLS Listing,,Multi-Family (5+ Unit),7011 Woodley Ave,Van Nuys,CA,91406,1295000,10,6.0,Lake Balboa,3542,7003,1954,1,366,,Active,,,https://www.redfin.com/CA/Van-Nuys/7011-Woodley-Ave-91406/home/4492370,TheMLS,24-439815,N,Y,34.1979829,-118.4840388
MLS Listing,,Single Family Residential,2839 Mandeville Canyon Rd,Los Angeles,CA,90049,3150000,3,3.0,Brentwood,2572,9755,1956,1,1225,,Active,,,https://www.redfin.com/CA/Los-Angeles/2839-Mandeville-Canyon-Rd-90049/home/6859579,TheMLS,24-439894,N,Y,34.09159,-118.5038333
MLS Listing,,Multi-Family (2-4 Unit),6211 S San Pedro St,Los Angeles,CA,90003,959999,8,4.0,C42 - Downtown L.A.,3288,5440,2014,1,292,,Active,,,https://www.redfin.com/CA/Los-Angeles/6211-S-San-Pedro-St-90003/home/7273708,CRMLS,RS24166582,N,Y,33.982982,-118.2697661
MLS Listing,,Condo/Co-op,13600 Marina Pointe Dr #1604,Marina Del Rey,CA,90292,1995000,2,2.5,Marina Del Rey,1885,122880,1999,1,1058,2124,Active,,,https://www.redfin.com/CA/Marina-del-Rey/13600-Marina-Pointe-Dr-90292/unit-1604/home/8105362,TheMLS,24-439419,N,Y,33.9846804,-118.4442003
MLS Listing,,Condo/Co-op,13600 Marina Pointe Dr #1912,Marina Del Rey,CA,90292,2200000,2,2.5,Marina Del Rey,1920,122529,1999,1,1146,2134,Active,,,https://www.redfin.com/CA/Marina-del-Rey/13600-Marina-Pointe-Dr-90292/unit-1912/home/8111455,TheMLS,24-437769,N,Y,33.9846804,-118.4442003
MLS Listing,,Single Family Residential,7416 White Oak Ave,Van Nuys,CA,91406,750000,2,1.0,VN - Van Nuys,964,5999,1950,1,778,,Active,,,https://www.redfin.com/CA/Van-Nuys/7416-White-Oak-Ave-91406/home/4327746,CRMLS,BB24188146,N,Y,34.2053791,-118.5183175
MLS Listing,,Single Family Residential,144 E 77th St,Los Angeles,CA,90003,499000,3,1.0,C34 - Los Angeles Southwest,1020,3600,1927,1,489,,Active,,,https://www.redfin.com/CA/Los-Angeles/144-E-77th-St-90003/home/7284180,CRMLS,IV24178086,N,Y,33.9694505,-118.2722694
MLS Listing,,Multi-Family (5+ Unit),3005 Normandie Ave,Los Angeles,CA,90007,1695000,10,8.0,C34 - Los Angeles Southwest,4837,6601,1960,1,350,,Active,,,https://www.redfin.com/CA/Los-Angeles/3005-S-Normandie-Ave-90007/home/6895082,CRMLS,SB24190961,N,Y,34.027007,-118.3005564
MLS Listing,,Single Family Residential,3535 Verdugo Vista Ter,Los Angeles,CA,90065,775000,3,2.0,623 - Glassel Park,1548,5076,1958,1,501,,Active,September-21-2024 01:00 PM,September-21-2024 04:00 PM,https://www.redfin.com/CA/Los-Angeles/3535-Verdugo-Vista-Ter-90065/home/7079054,CRMLS,WS24189206,N,Y,34.118539,-118.2215609
MLS Listing,,Multi-Family (2-4 Unit),153 W 89th St,Los Angeles,CA,90003,799900,5,2.0,C37 - Metropolitan South,1641,5401,1962,1,487,,Active,,,https://www.redfin.com/CA/Los-Angeles/153-W-89th-St-90003/home/7296561,CRMLS,WS24173241,N,Y,33.9556985,-118.2757648
MLS Listing,,Multi-Family (2-4 Unit),3727 Middle Rd,Los Angeles,CA,90063,899888,3,2.5,699 - Not Defined,1682,4675,1924,1,535,,Active,,,https://www.redfin.com/CA/Los-Angeles/3727-Middle-Rd-90063/home/6954546,CRMLS,CV24189102,N,Y,34.0576367,-118.1849813
MLS Listing,,Townhouse,22525 Sherman Way #703,West Hills,CA,91307,775000,3,3.0,WEH - West Hills,1633,167688,1981,1,475,470,Active,,,https://www.redfin.com/CA/West-Hills/22525-Sherman-Way-91307/unit-703/home/3081313,CRMLS,SR24191645,N,Y,34.2012171,-118.617715
MLS Listing,,Condo/Co-op,4321 Los Feliz Blvd #4,Los Angeles,CA,90027,899000,2,2.0,637 - Los Feliz,1283,15406,1978,1,701,400,Active,September-21-2024 01:00 PM,September-21-2024 03:00 PM,https://www.redfin.com/CA/Los-Angeles/4321-Los-Feliz-Blvd-90027/unit-4/home/7136331,CRMLS,BB24187282,N,Y,34.1127294,-118.2848324
MLS Listing,,Single Family Residential,7281 Pondera Cir,West Hills,CA,91307,1498000,6,3.0,WEH - West Hills,2472,10140,1969,1,606,,Active,September-21-2024 01:00 PM,September-21-2024 04:00 PM,https://www.redfin.com/CA/West-Hills/7281-Pondera-Cir-91307/home/3119768,CRMLS,WS24191654,N,Y,34.2018852,-118.6440265
MLS Listing,,Single Family Residential,155 Sequoia Dr,Pasadena,CA,91105,1399999,2,2.0,647 - Pasadena (SW),1350,7840,1954,1,1037,,Active,,,https://www.redfin.com/CA/Pasadena/155-Sequoia-Dr-91105/home/7184384,CRMLS,P1-19017,N,Y,34.1388279,-118.1809927
MLS Listing,,Single Family Residential,3876 Olmsted Ave,Los Angeles,CA,90008,799500,2,1.0,Park Hills Heights,1216,6003,1939,2,657,,Pre On-Market,,,https://www.redfin.com/CA/Los-Angeles/3876-Olmsted-Ave-90008/home/6881201,TheMLS,24-439893,N,Y,34.015238,-118.3278782
MLS Listing,,Condo/Co-op,8707 Falmouth Ave #223,Playa Del Rey,CA,90293,760000,2,2.0,Playa Del Rey,970,136686,1982,2,784,572,Active,,,https://www.redfin.com/CA/Playa-del-Rey/8707-Falmouth-Ave-90293/unit-223/home/6629636,TheMLS,24-440011,N,Y,33.9546706,-118.4349908
MLS Listing,,Single Family Residential,6610 Barton Ave,Los Angeles,CA,90038,1299000,4,3.0,Hollywood,1484,3400,1922,2,875,,Active,September-17-2024 11:00 AM,September-17-2024 02:00 PM,https://www.redfin.com/CA/Los-Angeles/6610-Barton-Ave-90038/home/7107588,TheMLS,24-439545,N,Y,34.0875729,-118.3356662
MLS Listing,,Condo/Co-op,856 N Van Ness Ave #3,Los Angeles,CA,90038,639900,2,2.0,C20 - Hollywood,920,6586,1989,2,696,360,Active,,,https://www.redfin.com/CA/Los-Angeles/856-N-Van-Ness-Ave-90038/unit-3/home/12294422,CRMLS,TR24190872,N,Y,34.086855,-118.315408
MLS Listing,,Single Family Residential,1744 W 37th Pl,Los Angeles,CA,90018,699000,3,2.0,C34 - Los Angeles Southwest,1284,3960,1930,2,544,,Active,,,https://www.redfin.com/CA/Los-Angeles/1744-W-37th-Pl-90018/home/6886163,CRMLS,PW24190505,N,Y,34.0200041,-118.3103217
MLS Listing,,Single Family Residential,5236 Reseda Blvd,Tarzana,CA,91356,2999999,4,4.5,Tarzana,4066,9050,1976,2,738,,Active,September-17-2024 12:00 AM,September-17-2024 02:00 PM,https://www.redfin.com/CA/Tarzana/5236-Reseda-Blvd-91356/home/4110584,TheMLS,24-435641,N,Y,34.1667854,-118.5368514
MLS Listing,,Single Family Residential,2625 Cardiff Ave,Los Angeles,CA,90034,1799000,3,2.0,C09 - Beverlywood Vicinity,1269,8088,1948,2,1418,,Active,September-22-2024 02:00 PM,September-22-2024 05:00 PM,https://www.redfin.com/CA/Los-Angeles/2625-Cardiff-Ave-90034/home/6792269,CRMLS,SR24189345,N,Y,34.0387004,-118.3949415
MLS Listing,,Single Family Residential,7618 Brookmont Pl,West Hills,CA,91304,2150000,4,3.0,WEH - West Hills,3585,11860,1987,2,600,,Pre On-Market,,,https://www.redfin.com/CA/West-Hills/7618-Brookmont-Pl-91304/home/3130902,CRMLS,GD24190695,N,Y,34.2098768,-118.6473944
MLS Listing,,Single Family Residential,3865 Meisner St,Los Angeles,CA,90063,699999,2,1.0,699 - Not Defined,1132,6168,1914,2,618,,Pre On-Market,,,https://www.redfin.com/CA/Los-Angeles/3865-Meisner-St-90063/home/6956137,CRMLS,DW24190264,N,Y,34.0500181,-118.1828707
MLS Listing,,Multi-Family (2-4 Unit),1206 3rd Ave,Los Angeles,CA,90019,1999999,8,4.0,Hancock Park-Wilshire,4908,7802,1921,2,407,,Active,,,https://www.redfin.com/CA/Los-Angeles/1206-3rd-Ave-90019/home/6910665,TheMLS,24-439989,N,Y,34.0494055,-118.3188091
MLS Listing,,Single Family Residential,9254 S Central Ave,Los Angeles,CA,90002,300000,1,1.0,C34 - Los Angeles Southwest,800,4949,1960,2,375,,Active,,,https://www.redfin.com/CA/Los-Angeles/9254-S-Central-Ave-90002/home/40278913,CRMLS,AR24191995,N,Y,33.9520528,-118.2553459
MLS Listing,,Multi-Family (5+ Unit),122 N Rampart Blvd,Los Angeles,CA,90026,1500000,10,8.0,Silver Lake - Echo Park,4446,6880,1960,2,337,,Active,,,https://www.redfin.com/CA/Los-Angeles/122-N-Rampart-Blvd-90026/home/6935906,TheMLS,24-439995,N,Y,34.0700011,-118.2761188
MLS Listing,,Vacant Land,90 90th STE PAV VIC Ave Q2 Littlerock CA,Los Angeles,CA,93543,259900,,,LHO - Lake Hollywood,,94087,,2,,,Active,,,https://www.redfin.com/CA/Sun-Village/90-93543/home/192567514,CRMLS,SR24191959,N,Y,34.147541,-118.286327
MLS Listing,,Single Family Residential,416 E 31st St,Los Angeles,CA,90011,719000,3,1.0,C42 - Downtown L.A.,1020,5002,1906,2,705,,Active,,,https://www.redfin.com/CA/Los-Angeles/416-E-31st-St-90011/home/6928707,CRMLS,MB24191570,N,Y,34.0191343,-118.2673913
MLS Listing,,Single Family Residential,7607 Ben Ave,North Hollywood,CA,91605,835000,3,1.5,North Hollywood,1341,5008,1952,2,623,,Active,,,https://www.redfin.com/CA/North-Hollywood/7607-Ben-Ave-91605/home/5033025,TheMLS,24-439969,N,Y,34.208831,-118.3946621
MLS Listing,,Condo/Co-op,122 N Clark Dr #306,West Hollywood,CA,90048,1725000,2,2.5,Beverly Center-Miracle Mile,1516,17631,2005,2,1138,575,Active,,,https://www.redfin.com/CA/West-Hollywood/122-N-Clark-Dr-90048/unit-306/home/8151367,TheMLS,24-439947,N,Y,34.0757421,-118.3845036
MLS Listing,,Multi-Family (2-4 Unit),7019 Ramsgate Ave,Los Angeles,CA,90045,1225000,4,4.0,C29 - Westchester,2460,5933,1950,2,498,,Active,,,https://www.redfin.com/CA/Los-Angeles/7019-Ramsgate-Ave-90045/home/6599962,CRMLS,SB24191242,N,Y,33.9733094,-118.3719461
MLS Listing,,Single Family Residential,10638 Samoa Ave,Tujunga,CA,91042,799000,3,1.0,Sunland Tujunga,1205,8821,1952,2,663,,Active,September-17-2024 11:00 AM,September-17-2024 02:00 PM,https://www.redfin.com/CA/Tujunga/10638-Samoa-Ave-91042/home/5533873,TheMLS,24-439783,N,Y,34.262219,-118.2866128
MLS Listing,,Single Family Residential,5859 Cedros Ave,Van Nuys,CA,91411,739000,3,2.0,Sherman Oaks,1728,7011,1956,2,428,,Active,September-19-2024 12:00 PM,September-19-2024 01:30 PM,https://www.redfin.com/CA/Van-Nuys/5859-Cedros-Ave-91411/home/4677972,TheMLS,24-439779,N,Y,34.1774455,-118.4533696
MLS Listing,,Single Family Residential,9189 Cayuga Ave,Sun Valley,CA,91352,799990,4,2.0,Sun Valley,2511,11065,1953,2,319,,Active,September-21-2024 12:00 PM,September-21-2024 02:00 PM,https://www.redfin.com/CA/Sun-Valley/9189-Cayuga-Ave-91352/home/5621343,TheMLS,24-439677,N,Y,34.2364833,-118.3987628
MLS Listing,,Single Family Residential,3107 S Harvard Blvd,Los Angeles,CA,90018,1200000,4,3.5,Mid Los Angeles,1724,6375,1953,2,696,,Active,,,https://www.redfin.com/CA/Los-Angeles/3107-S-Harvard-Blvd-90018/home/6894676,TheMLS,24-439791,N,Y,34.0261846,-118.3069502
MLS Listing,,Single Family Residential,4275 Grand View Blvd,Los Angeles,CA,90066,2295000,4,3.0,C34 - Los Angeles Southwest,1866,5771,1926,2,1230,,Pre On-Market,,,https://www.redfin.com/CA/Los-Angeles/4275-Grand-View-Blvd-90066/home/6737555,CRMLS,WS24191833,N,Y,33.9958008,-118.4241566
MLS Listing,,Single Family Residential,5848 W Seaglass Cir,Playa Vista,CA,90094,2599000,3,3.5,Playa Vista,2505,20590,2014,2,1038,304,Active,,,https://www.redfin.com/CA/Playa-Vista/5848-W-Seaglass-Cir-90094/home/79042532,TheMLS,24-439563,N,Y,33.9734701,-118.4193959
MLS Listing,,Condo/Co-op,8577 Rugby Dr #203,West Hollywood,CA,90069,600000,1,1.0,West Hollywood Vicinity,634,13487,1974,2,946,340,Active,,,https://www.redfin.com/CA/West-Hollywood/8577-Rugby-Dr-90069/unit-203/home/6816776,TheMLS,24-439787,N,Y,34.0874377,-118.3784905
MLS Listing,,Single Family Residential,644 Brooks Ave,Venice,CA,90291,4250000,4,5.5,Venice,5310,5195,2015,2,800,,Active,September-22-2024 02:00 PM,September-22-2024 05:00 PM,https://www.redfin.com/CA/Venice/644-Brooks-Ave-90291/home/6742035,TheMLS,24-439765,N,Y,33.9959419,-118.46734
MLS Listing,,Condo/Co-op,18307 BURBANK Blvd #232,Tarzana,CA,91356,425000,1,1.0,TAR - Tarzana,666,235933,1970,2,638,425,Pre On-Market,,,https://www.redfin.com/CA/Tarzana/18307-Burbank-Blvd-91356/unit-232/home/4087916,CRMLS,SR24191771,N,Y,34.1725546,-118.531128
MLS Listing,,Single Family Residential,,Los Angeles,CA,90069,7000000,4,4.0,Sunset Strip - Hollywood Hills West,5376,5137,1957,2,1302,,Active,,,https://www.redfin.com/CA/Los-Angeles/Franklin-Ave-90069/home/7120094,TheMLS,24-439859,N,Y,34.0979164,-118.3785666
MLS Listing,,Vacant Land,3971 Hopevale Dr,Sherman Oaks,CA,91403,130000,,,Sherman Oaks,,4691,,3,,,Active,,,https://www.redfin.com/CA/Sherman-Oaks/3971-Hopevale-Dr-91403/home/22973849,TheMLS,24-439865,N,Y,34.1425547,-118.4636361
MLS Listing,,Condo/Co-op,6800 Corbin Ave #105,Reseda,CA,91335,592000,2,2.0,Reseda,1290,23830,2007,3,459,456,Active,September-22-2024 01:00 PM,September-22-2024 04:00 PM,https://www.redfin.com/CA/Reseda/6800-Corbin-Ave-91335/unit-105/home/17230245,TheMLS,24-439833,N,Y,34.1940925,-118.5617487
MLS Listing,,Single Family Residential,3626 Camino De La Cumbre,Sherman Oaks,CA,91423,2199000,5,4.0,Sherman Oaks,3850,13042,1991,3,571,,Active,,,https://www.redfin.com/CA/Sherman-Oaks/3626-Camino-de-la-Cumbre-91423/home/4868169,TheMLS,24-437027,N,Y,34.1367888,-118.4461501
MLS Listing,,Single Family Residential,3426 S Carolina St,San Pedro,CA,90731,1795000,4,4.5,181 - Point Fermin,2623,3000,1979,3,684,,Pre On-Market,,,https://www.redfin.com/CA/San-Pedro/3426-S-Carolina-St-90731/home/7696512,CRMLS,SB24191020,N,Y,33.7128246,-118.2904175
MLS Listing,,Single Family Residential,8819 Roslyndale Ave,Arleta,CA,91331,949999,3,2.0,ARL - Arleta,1660,6015,1953,3,572,,Active,September-21-2024 12:00 PM,September-21-2024 03:00 PM,https://www.redfin.com/CA/Arleta/8819-Roslyndale-Ave-91331/home/5616365,CRMLS,GD24191275,N,Y,34.2296086,-118.4235486
MLS Listing,,Single Family Residential,15945 Gledhill St,North Hills,CA,91343,1050000,4,2.5,NOH - North Hills,2155,8440,1959,3,487,,Pre On-Market,,,https://www.redfin.com/CA/North-Hills/15945-Gledhill-St-91343/home/5715990,CRMLS,SR24191514,N,Y,34.2421855,-118.4800274
MLS Listing,,Condo/Co-op,1610 Camden Ave #402,Los Angeles,CA,90025,1299000,2,2.5,C05 - Westwood - Century City,1520,7379,2005,3,855,655,Active,,,https://www.redfin.com/CA/Los-Angeles/1610-Camden-Ave-90025/unit-402/home/12289129,CRMLS,SR24189591,N,Y,34.050043,-118.4434022
MLS Listing,,Multi-Family (2-4 Unit),722 Belden Ave,Los Angeles,CA,90022,700000,4,2.0,699 - Not Defined,1807,6479,1928,3,387,,Active,,,https://www.redfin.com/CA/Los-Angeles/722-Belden-Ave-90022/home/7433643,CRMLS,DW24191648,N,Y,34.0208626,-118.15168
MLS Listing,,Multi-Family (2-4 Unit),2150-- 2154 S West View St,Los Angeles,CA,90016,3138000,15,15.0,C16 - Mid Los Angeles,5985,5998,2020,3,524,,Active,,,https://www.redfin.com/CA/Los-Angeles/2150-S-West-View-St-90016/home/6900188,CRMLS,OC24191289,N,Y,34.0361258,-118.346073
MLS Listing,,Condo/Co-op,1722 Malcolm Ave #206,Los Angeles,CA,90024,680000,1,2.0,Westwood - Century City,825,16486,1985,3,824,524,Active,,,https://www.redfin.com/CA/Los-Angeles/1722-Malcolm-Ave-90024/unit-206/home/6803906,TheMLS,24-439829,N,Y,34.0516685,-118.4357039
MLS Listing,,Multi-Family (2-4 Unit),557 W Imperial Hwy,Los Angeles,CA,90044,825000,4,4.0,Metropolitan Southwest,2352,5938,1953,3,351,,Active,,,https://www.redfin.com/CA/Los-Angeles/557-W-Imperial-Hwy-90044/home/7317888,TheMLS,24-439835,N,Y,33.9311327,-118.2846257
MLS Listing,,Multi-Family (2-4 Unit),553 W Imperial Hwy,Los Angeles,CA,90044,825000,4,4.0,Metropolitan Southwest,2352,5460,1953,3,351,,Active,,,https://www.redfin.com/CA/Los-Angeles/553-W-Imperial-Hwy-90044/home/7317887,TheMLS,24-439646,N,Y,33.9312809,-118.2845259
MLS Listing,,Multi-Family (5+ Unit),11775 Culver Blvd,Los Angeles,CA,90066,1195000,6,5.0,Marina Del Rey,1968,4193,1957,3,607,,Active,,,https://www.redfin.com/CA/Los-Angeles/11775-Culver-Blvd-90066/home/6738421,TheMLS,24-438605,N,Y,33.9975849,-118.4164026
MLS Listing,,Single Family Residential,2140 Laurel Canyon Blvd,Los Angeles,CA,90046,1750000,3,2.0,C03 - Sunset Strip - Hollywood Hills West,2335,6751,1928,3,749,,Active,September-17-2024 11:00 AM,September-17-2024 02:00 PM,https://www.redfin.com/CA/Los-Angeles/2140-Laurel-Canyon-Blvd-90046/home/7125580,CRMLS,P1-19265,N,Y,34.1098711,-118.3703275
MLS Listing,,Single Family Residential,13463 Brownell St,San Fernando,CA,91340,638000,2,1.0,SF - San Fernando,1089,7580,1927,3,586,,Pre On-Market,,,https://www.redfin.com/CA/San-Fernando/13463-Brownell-St-91340/home/5457409,CRMLS,SR24183812,N,Y,34.2833562,-118.4260294
MLS Listing,,Single Family Residential,8562 Lookout Mountain Ave,Los Angeles,CA,90046,925000,1,1.0,Sunset Strip - Hollywood Hills West,555,5002,1949,3,1667,,Active,September-22-2024 01:00 PM,September-22-2024 04:00 PM,https://www.redfin.com/CA/Los-Angeles/8562-Lookout-Mountain-Ave-90046/home/7122308,TheMLS,24-439813,N,Y,34.1122097,-118.3804744
MLS Listing,,Townhouse,8607 Burnet Ave Unit G,North Hills,CA,91343,435000,2,2.0,NOH - North Hills,948,223189,1973,3,459,280,Active,,,https://www.redfin.com/CA/North-Hills/8607-Burnet-Ave-91343/unit-G/home/5688749,CRMLS,GD24191604,N,Y,34.2264313,-118.4638106
MLS Listing,,Condo/Co-op,11766 W Sunset Blvd #202,Los Angeles,CA,90049,1350000,3,2.5,Brentwood,1880,8006,2001,3,718,550,Active,September-17-2024 11:00 AM,September-17-2024 02:00 PM,https://www.redfin.com/CA/Los-Angeles/11766-W-Sunset-Blvd-90049/unit-202/home/8121487,TheMLS,24-439809,N,Y,34.0636515,-118.47149
MLS Listing,,Single Family Residential,21329 Mulholland Dr,Woodland Hills,CA,91364,2795000,4,4.5,Woodland Hills,7196,5403,1986,3,388,,Active,,,https://www.redfin.com/CA/Woodland-Hills/21329-Mulholland-Dr-91364/home/4218056,TheMLS,24-439810,N,Y,34.1446944,-118.5975954
MLS Listing,,Single Family Residential,10926 Anzac Ave,Los Angeles,CA,90059,520000,4,1.0,C34 - Los Angeles Southwest,960,3250,1928,3,542,,Active,,,https://www.redfin.com/CA/Los-Angeles/10926-Anzac-Ave-90059/home/7313201,CRMLS,DW24191627,N,Y,33.9364029,-118.2377753
MLS Listing,,Single Family Residential,14229 Burton St,Panorama City,CA,91402,779900,3,2.0,PC - Panorama City,1664,6552,1949,3,469,,Active,,,https://www.redfin.com/CA/Panorama-City/14229-Burton-St-91402/home/4369122,CRMLS,SR24191610,N,Y,34.2208619,-118.4436328
MLS Listing,,Condo/Co-op,12837 Moorpark St #302,Studio City,CA,91604,749000,2,2.0,Studio City,1360,34907,2009,3,551,512,Active,,,https://www.redfin.com/CA/Studio-City/12837-Moorpark-St-91604/unit-302/home/28913664,TheMLS,24-439763,N,Y,34.1508282,-118.4126949
MLS Listing,,Single Family Residential,2247 Earl St,Los Angeles,CA,90039,1650000,3,2.0,671 - Silver Lake,1072,6839,1926,3,1539,,Active,,,https://www.redfin.com/CA/Los-Angeles/2247-Earl-St-90039/home/7067562,CRMLS,SW24189744,N,Y,34.0960626,-118.2556083
MLS Listing,,Single Family Residential,14345 Chase St,Panorama City,CA,91402,749900,3,1.0,PC - Panorama City,1252,6709,1948,3,599,,Active,,,https://www.redfin.com/CA/Panorama-City/14345-Chase-St-91402/home/5633299,CRMLS,SR24191583,N,Y,34.2250076,-118.446242
MLS Listing,,Single Family Residential,8142 Irvine Ave,North Hollywood,CA,91605,1349000,7,6.0,NHO - North Hollywood,2650,8037,1947,3,509,,Active,,,https://www.redfin.com/CA/North-Hollywood/8142-Irvine-Ave-91605/home/5003731,CRMLS,SR24190412,N,Y,34.2190503,-118.3848287
MLS Listing,,Single Family Residential,1034 Stone St,Los Angeles,CA,90063,825000,4,2.5,Boyle Heights,1456,3077,2014,3,567,,Active,,,https://www.redfin.com/CA/Los-Angeles/1034-N-Stone-St-90063/home/22153309,TheMLS,24-438515,N,Y,34.0497612,-118.1936529
MLS Listing,,Condo/Co-op,3219 Colorado Ave #6,Santa Monica,CA,90404,825000,2,2.0,Santa Monica,886,13348,1974,3,931,435,Active,September-17-2024 11:00 AM,September-17-2024 02:00 PM,https://www.redfin.com/CA/Santa-Monica/3219-Colorado-Ave-90404/unit-6/home/6764033,TheMLS,24-439753,N,Y,34.0358811,-118.4653014
MLS Listing,,Single Family Residential,10859 Aqueduct St,Granada Hills,CA,91344,775000,4,2.0,GH - Granada Hills,1766,7453,1957,3,439,,Active,,,https://www.redfin.com/CA/Granada-Hills/10859-Aqueduct-Ave-91344/home/5702763,CRMLS,SR24190787,N,Y,34.2680759,-118.4742578
MLS Listing,,Single Family Residential,5818 Tuxedo Ter,Los Angeles,CA,90068,1495000,2,1.0,Los Feliz,1396,3446,1924,3,1071,,Pre On-Market,,,https://www.redfin.com/CA/Los-Angeles/5818-Tuxedo-Ter-90068/home/7129686,TheMLS,24-439767,N,Y,34.1142564,-118.3157805
MLS Listing,,Townhouse,1041 Harbor Heights Dr Unit D,Harbor City,CA,90710,599000,3,2.5,124 - Harbor City,1197,18546,1998,3,500,394,Pre On-Market,September-21-2024 01:00 PM,September-21-2024 04:00 PM,https://www.redfin.com/CA/Harbor-City/1041-Harbor-Heights-Dr-90710/unit-D/home/8103873,CRMLS,SB24161049,N,Y,33.7935068,-118.2943247
MLS Listing,,Multi-Family (2-4 Unit),11500 Berendo Ave,Los Angeles,CA,90044,949999,8,4.0,C34 - Los Angeles Southwest,3692,8456,1936,3,257,,Active,,,https://www.redfin.com/CA/Los-Angeles/11500-Berendo-Ave-90044/home/7320499,CRMLS,PW24184067,N,Y,33.9298374,-118.2941992
MLS Listing,,Single Family Residential,1636 Haslam Ter,Los Angeles,CA,90069,2695000,4,3.5,Sunset Strip - Hollywood Hills West,2355,7986,1961,3,1144,,Active,September-22-2024 02:00 PM,September-22-2024 05:00 PM,https://www.redfin.com/CA/Los-Angeles/1636-Haslam-Ter-90069/home/7119922,TheMLS,24-439327,N,Y,34.1009583,-118.38208
MLS Listing,,Single Family Residential,4208 Elzevir Rd,Woodland Hills,CA,91364,929000,1,1.0,WHLL - Woodland Hills,708,21747,1928,3,1312,,Active,,,https://www.redfin.com/CA/Woodland-Hills/4208-Elzevir-Rd-91364/home/4216735,CRMLS,SR24191428,N,Y,34.1481868,-118.5916503
MLS Listing,,Single Family Residential,13135 Victory Blvd,Valley Glen,CA,91401,949000,3,3.5,Valley Glen,1930,1422,2018,3,492,140,Active,,,https://www.redfin.com/CA/Van-Nuys/13135-Victory-Blvd-91401/home/167225712,TheMLS,24-427263,N,Y,34.1869281,-118.4193338
MLS Listing,,Townhouse,6236 Shoup Ave,Woodland Hills,CA,91367,825300,2,2.5,WHLL - Woodland Hills,1518,119782,1973,3,544,500,Active,,,https://www.redfin.com/CA/Woodland-Hills/6236-Shoup-Ave-91367/home/3996173,CRMLS,SR24190952,N,Y,34.1842037,-118.6137636
MLS Listing,,Condo/Co-op,13031 Villosa Pl #431,Playa Vista,CA,90094,1549000,2,2.5,Playa Vista,1760,108029,2006,3,880,1026,Active,,,https://www.redfin.com/CA/Playa-Vista/13031-Villosa-Pl-90094/unit-431/home/12294935,TheMLS,24-439169,N,Y,33.9743323,-118.4229699
MLS Listing,,Condo/Co-op,141 S Clark Dr #319,West Hollywood,CA,90048,649999,1,1.0,Beverly Center-Miracle Mile,710,40295,1973,3,915,606,Active,,,https://www.redfin.com/CA/West-Hollywood/141-S-Clark-Dr-90048/unit-319/home/17228461,TheMLS,24-439063,N,Y,34.0740625,-118.3851405
MLS Listing,,Single Family Residential,17240 Sunburst St,Sherwood Forest,CA,91325,1395000,4,3.0,SHFO - Sherwood Forest,2885,17046,1952,3,484,,Active,,,https://www.redfin.com/CA/Sherwood-Forest/17240-Sunburst-St-91325/home/5749924,CRMLS,SR24191288,N,Y,34.2342728,-118.510263
MLS Listing,,Single Family Residential,7637 Radford Ave,North Hollywood,CA,91605,1519999,6,5.0,NHO - North Hollywood,858,6752,1948,3,1772,,Active,,,https://www.redfin.com/CA/North-Hollywood/7637-Radford-Ave-91605/home/5033167,CRMLS,SR24191414,N,Y,34.2095574,-118.3923641
MLS Listing,,Vacant Land,5170 Oakland St,Los Angeles,CA,90032,749900,,,621 - El Sereno,,9172,,3,,,Active,,,https://www.redfin.com/CA/Los-Angeles/5170-Oakland-St-90032/home/23135070,CRMLS,OC24190907,N,Y,34.0880728,-118.1692775
MLS Listing,,Condo/Co-op,18645 Hatteras St #169,Tarzana,CA,91356,455000,2,2.0,TAR - Tarzana,982,230148,1973,3,463,568,Active,,,https://www.redfin.com/CA/Tarzana/18645-Hatteras-St-91356/unit-169/home/4054308,CRMLS,SR24187136,N,Y,34.1773202,-118.5400623
MLS Listing,,Multi-Family (5+ Unit),1184 N Normandie Ave,Los Angeles,CA,90029,3799000,18,23.0,C20 - Hollywood,8977,6752,2024,3,423,,Active,,,https://www.redfin.com/CA/Los-Angeles/1184-N-Normandie-Ave-90029/home/7111024,CRMLS,DW24182248,N,Y,34.0931686,-118.3002623
MLS Listing,,Multi-Family (5+ Unit),4309 W Adams Blvd,Los Angeles,CA,90018,4350000,12,12.0,Mid Los Angeles,8850,10681,1954,3,492,,Active,,,https://www.redfin.com/CA/Los-Angeles/4309-W-Adams-Blvd-90018/home/6898229,TheMLS,24-439523,N,Y,34.0329625,-118.33236
MLS Listing,,Single Family Residential,8410 Reading Ave,Westchester,CA,90045,1260000,3,2.0,Westchester,1484,6498,1947,3,849,,Active,,,https://www.redfin.com/CA/Los-Angeles/8410-Reading-Ave-90045/home/6636372,TheMLS,24-435211,N,Y,33.961672,-118.3817859
MLS Listing,,Condo/Co-op,1100 S Hope St #801,Los Angeles,CA,90015,1450000,2,3.0,Downtown L.A.,1628,41217,2007,4,891,944,Active,September-18-2024 12:30 PM,September-18-2024 02:30 PM,https://www.redfin.com/CA/Los-Angeles/1100-S-Hope-St-90015/unit-801/home/21922699,TheMLS,24-439457,N,Y,34.0417686,-118.2631233
MLS Listing,,Single Family Residential,18627 Gledhill St,Northridge,CA,91324,886000,3,2.0,NR - Northridge,1470,7697,1957,4,603,,Pre On-Market,,,https://www.redfin.com/CA/Northridge/18627-Gledhill-St-91324/home/5855969,CRMLS,TR24190810,N,Y,34.2420398,-118.5392525
MLS Listing,,Single Family Residential,17841 17843 Tarzana St,Encino,CA,91316,1845000,6,5.0,Encino,3608,7574,2016,4,511,,Active,,,https://www.redfin.com/CA/Encino/17841-Tarzana-St-91316/home/4292065,TheMLS,24-395941,N,Y,34.1607327,-118.5214966
MLS Listing,,Single Family Residential,23172 Gainford St,Woodland Hills,CA,91364,1475000,3,2.5,WHLL - Woodland Hills,2010,8219,1957,4,734,,Active,,,https://www.redfin.com/CA/Woodland-Hills/23172-Gainford-St-91364/home/3548847,CRMLS,SR24191386,N,Y,34.1598465,-118.631583
MLS Listing,,Single Family Residential,7865 Sancola Ave,Sun Valley,CA,91352,625000,4,6.0,SUNV - Sun Valley,2172,9695,1910,4,288,,Active,,,https://www.redfin.com/CA/Sun-Valley/7865-Sancola-Ave-91352/home/5272350,CRMLS,IV24191388,N,Y,34.2138363,-118.3544845
MLS Listing,,Condo/Co-op,999 N Doheny Dr #1108,West Hollywood,CA,90069,795000,0,1.0,West Hollywood Vicinity,633,29660,1963,4,1256,1110,Active,,,https://www.redfin.com/CA/West-Hollywood/999-N-Doheny-Dr-90069/unit-1108/home/6819231,TheMLS,24-436007,N,Y,34.0896005,-118.3901096
MLS Listing,,Single Family Residential,5327 Geer St,Los Angeles,CA,90016,879000,4,2.0,Mid Los Angeles,1230,4810,1928,4,715,,Active,,,https://www.redfin.com/CA/Los-Angeles/5327-Geer-St-90016/home/6887437,TheMLS,24-438983,N,Y,34.0295422,-118.3604514
MLS Listing,,Single Family Residential,643 E 109th Pl,Los Angeles,CA,90059,630000,3,2.0,699 - Not Defined,1070,4862,1930,4,589,,Active,,,https://www.redfin.com/CA/Los-Angeles/643-E-109th-Pl-90059/home/7315269,CRMLS,DW24191338,N,Y,33.9366691,-118.2636789
MLS Listing,,Single Family Residential,3670 Avenida Del Sol,Studio City,CA,91604,3000000,4,4.0,STUD - Studio City,4413,14822,1991,4,680,,Active,,,https://www.redfin.com/CA/Studio-City/3670-Avenida-del-Sol-91604/home/5259105,CRMLS,SR24191378,N,Y,34.1372999,-118.4079592
MLS Listing,,Single Family Residential,7657 Glencrest Dr,Burbank,CA,91504,1074900,3,1.0,Sun Valley,1083,8043,1950,4,993,,Active,,,https://www.redfin.com/CA/Burbank/7657-Glencrest-Dr-91504/home/5268266,CSMAR,224003888,N,Y,34.210487,-118.3443219
MLS Listing,,Single Family Residential,13082 Mindanao Way #11,Marina Del Rey,CA,90292,1750000,3,4.0,Marina Del Rey,2370,538904,1980,4,738,1215,Active,September-22-2024 02:00 PM,September-22-2024 05:00 PM,https://www.redfin.com/CA/Marina-del-Rey/13082-Mindanao-Way-90292/unit-11/home/6725971,TheMLS,24-439551,N,Y,33.9865546,-118.4358967
MLS Listing,,Moorage,4631-4637 Loleta Pl,Los Angeles,CA,90041,350000,,,Not Applicable,,10010,,4,,,Active,,,https://www.redfin.com/CA/Los-Angeles/4631-Loleta-Ave-90041/home/7083183,CRMLS,P1-19260,N,Y,34.1308041,-118.1990455
MLS Listing,,Single Family Residential,7239 Chicopee Ave,Lake Balboa,CA,91406,765000,2,1.0,LKBL - Lake Balboa,790,6017,1949,4,968,,Active,September-21-2024 11:00 AM,September-21-2024 03:00 PM,https://www.redfin.com/CA/Van-Nuys/7239-Chicopee-Ave-91406/home/4528812,CRMLS,SR24191372,N,Y,34.2024808,-118.5127229
MLS Listing,,Single Family Residential,17601 McCormick St,Encino,CA,91316,2250000,5,4.0,ENC - Encino,3383,12596,1961,4,665,,Active,,,https://www.redfin.com/CA/Encino/17601-McCormick-St-91316/home/4767029,CRMLS,SR24191368,N,Y,34.166166,-118.5166286
MLS Listing,,Single Family Residential,14639 Hamlin,Van Nuys,CA,91411,850000,2,2.0,VN - Van Nuys,1501,7507,1952,4,566,,Active,,,https://www.redfin.com/CA/Van-Nuys/14639-Hamlin-St-91411/home/4609518,CRMLS,IG24189482,N,Y,34.188948,-118.4522539
MLS Listing,,Single Family Residential,5538 Willowcrest Ave,North Hollywood,CA,91601,1249000,3,2.5,NHO - North Hollywood,1562,6262,1951,4,800,,Active,,,https://www.redfin.com/CA/North-Hollywood/5538-Willowcrest-Ave-91601/home/5293950,CRMLS,SR24191191,N,Y,34.1711136,-118.3624342
MLS Listing,,Single Family Residential,2004 Ronda Dr,Los Angeles,CA,90032,978800,3,2.0,621 - El Sereno,1450,5007,1949,4,675,,Active,,,https://www.redfin.com/CA/Los-Angeles/2004-Ronda-Dr-90032/home/6950310,CRMLS,P1-19259,N,Y,34.0657318,-118.1842734
MLS Listing,,Single Family Residential,13479 Eldridge St,Sylmar,CA,91342,969900,5,3.0,SYL - Sylmar,2076,6002,1948,4,467,,Active,,,https://www.redfin.com/CA/Sylmar/13479-Eldridge-Ave-91342/home/184887723,CRMLS,P1-19258,N,Y,34.3169579,-118.4233486
MLS Listing,,Single Family Residential,17535 Burbank Blvd,Encino,CA,91316,2599000,3,2.0,ENC - Encino,1741,6300,1949,4,1493,,Active,,,https://www.redfin.com/CA/Encino/17535-Burbank-Blvd-91316/home/4755500,CRMLS,GD24191248,N,Y,34.1725615,-118.5154304
MLS Listing,,Single Family Residential,4068 Sutro Ave,Los Angeles,CA,90008,1285000,4,4.0,Park Hills Heights,1795,4939,1938,4,716,,Active,September-17-2024 11:00 AM,September-17-2024 02:00 PM,https://www.redfin.com/CA/Los-Angeles/4068-Sutro-Ave-90008/home/6876459,TheMLS,24-416113,N,Y,34.0098115,-118.3228318
MLS Listing,,Condo/Co-op,10352 Riverside Dr #201,Toluca Lake,CA,91602,1500000,3,3.0,Toluca Lake,1690,9191,2024,4,888,600,Active,,,https://www.redfin.com/CA/Toluca-Lake/10352-Riverside-Dr-91602/unit-201/home/192548070,TheMLS,24-439713,N,Y,34.1519138,-118.3569241
MLS Listing,,Condo/Co-op,10352 Riverside Dr #202,Toluca Lake,CA,91602,1500000,3,3.0,Toluca Lake,1585,9191,2024,4,946,600,Active,,,https://www.redfin.com/CA/Toluca-Lake/10352-Riverside-Dr-91602/unit-202/home/192548069,TheMLS,24-439715,N,Y,34.1519138,-118.3569241
MLS Listing,,Single Family Residential,2955 Kelton Ave,Los Angeles,CA,90064,2495000,4,4.0,West L.A.,3165,5574,1946,4,788,,Active,,,https://www.redfin.com/CA/Los-Angeles/2955-Kelton-Ave-90064/home/6752555,TheMLS,24-439709,N,Y,34.030298,-118.4234429
MLS Listing,,Single Family Residential,623 N Fuller Ave,Los Angeles,CA,90036,2600000,4,4.0,Beverly Center-Miracle Mile,3133,7411,1926,4,830,,Active,September-17-2024 11:00 AM,September-17-2024 02:00 PM,https://www.redfin.com/CA/Los-Angeles/623-N-Fuller-Ave-90036/home/7102838,TheMLS,24-426713,N,Y,34.0825298,-118.3500757
MLS Listing,,Single Family Residential,11333 Hendley Dr,Studio City,CA,91604,2750000,4,4.0,Studio City,2523,37123,1951,4,1090,,Active,,,https://www.redfin.com/CA/Studio-City/11333-Hendley-Dr-91604/home/5252198,TheMLS,24-439529,N,Y,34.13806,-118.3759117
MLS Listing,,Multi-Family (5+ Unit),5977 Franklin Ave,Los Angeles,CA,90028,2400000,4,8.0,C20 - Hollywood,4464,7501,1930,4,538,,Active,,,https://www.redfin.com/CA/Los-Angeles/5977-Franklin-Ave-90028/home/7131265,CRMLS,PW24191294,N,Y,34.1055717,-118.3200565
MLS Listing,,Single Family Residential,11335 Dona Teresa Dr,Studio City,CA,91604,3695000,4,3.0,STUD - Studio City,3149,18772,1961,4,1173,,Active,,,https://www.redfin.com/CA/Studio-City/11335-Dona-Teresa-Dr-91604/home/5256340,CRMLS,SR24190761,N,Y,34.1289526,-118.3801621
MLS Listing,,Single Family Residential,1514 E 124th St,Los Angeles,CA,90059,575000,3,2.0,C37 - Metropolitan South,1405,5229,1945,4,409,,Active,,,https://www.redfin.com/CA/Los-Angeles/1514-E-124th-St-90059/home/7345778,CRMLS,SB24191300,N,Y,33.9195651,-118.2474789
MLS Listing,,Single Family Residential,5549 Onacrest Dr,Los Angeles,CA,90043,1749000,4,3.0,Park Hills Heights,2335,7093,1941,4,749,,Active,September-17-2024 11:00 AM,September-17-2024 02:00 PM,https://www.redfin.com/CA/Los-Angeles/5549-Onacrest-Dr-90043/home/6866496,TheMLS,24-439449,N,Y,33.9902378,-118.3553162
MLS Listing,,Condo/Co-op,3625 Fredonia Dr Unit 2,Los Angeles,CA,90068,699900,1,1.0,Sunset Strip - Hollywood Hills West,765,26400,1963,4,915,828,Active,,,https://www.redfin.com/CA/Los-Angeles/3625-Fredonia-Dr-90068/unit-2/home/5310713,TheMLS,24-439683,N,Y,34.1337367,-118.3598488
MLS Listing,,Multi-Family (5+ Unit),,Culver City,CA,90232,5450000,12,11.0,Culver City,6992,7639,1953,4,779,,Active,,,https://www.redfin.com/CA/Culver-City/Undisclosed-address-90232/home/6721931,TheMLS,24-439699,N,Y,34.019991,-118.3971147
MLS Listing,,Condo/Co-op,5454 Zelzah Ave #312,Encino,CA,91316,549000,2,2.0,ENC - Encino,1261,43614,1970,4,435,390,Active,,,https://www.redfin.com/CA/Encino/5454-Zelzah-Ave-91316/unit-312/home/4130606,CRMLS,SR24191173,N,Y,34.1703204,-118.5215181
MLS Listing,,Condo/Co-op,1225 Armacost Ave #205,Los Angeles,CA,90025,980000,2,2.0,West L.A.,1144,17263,1991,4,857,500,Active,September-17-2024 11:00 AM,September-17-2024 01:00 PM,https://www.redfin.com/CA/Los-Angeles/1225-Armacost-Ave-90025/unit-205/home/8136460,TheMLS,24-437871,N,Y,34.0458183,-118.4640325
MLS Listing,,Condo/Co-op,1225 Armacost Ave #102,Los Angeles,CA,90025,1100000,2,2.0,West L.A.,1354,17263,1991,4,812,500,Active,September-17-2024 11:00 AM,September-17-2024 01:00 PM,https://www.redfin.com/CA/Los-Angeles/1225-Armacost-Ave-90025/unit-102/home/8136448,TheMLS,24-439597,N,Y,34.0458183,-118.4640325
MLS Listing,,Condo/Co-op,1100 Wilshire Blvd #2404,Los Angeles,CA,90017,589000,1,1.0,Downtown L.A.,860,27106,1986,4,685,1209,Active,,,https://www.redfin.com/CA/Los-Angeles/1100-Wilshire-Blvd-90017/unit-2404/home/17236674,TheMLS,24-439549,N,Y,34.0521526,-118.2638542
MLS Listing,,Single Family Residential,4371 Vanalden Ave,Tarzana,CA,91356,2390000,7,6.0,699 - Not Defined,5112,18481,1964,4,468,,Active,,,https://www.redfin.com/CA/Tarzana/4371-Vanalden-Ave-91356/home/4268161,CRMLS,WS24191265,N,Y,34.1495458,-118.5556197
MLS Listing,,Single Family Residential,13915 Garber St,Arleta,CA,91331,777777,3,2.0,ARL - Arleta,1296,6008,1953,4,600,,Active,,,https://www.redfin.com/CA/Arleta/13915-Garber-St-91331/home/5644299,CRMLS,IG24190869,N,Y,34.2443302,-118.4362303
MLS Listing,,Condo/Co-op,2281 Century Hl,Los Angeles,CA,90067,2495000,2,3.5,Westwood - Century City,2524,787596,1980,4,989,2781,Active,,,https://www.redfin.com/CA/Los-Angeles/2281-Century-Hl-90067/home/6809522,TheMLS,24-379687,N,Y,34.0545364,-118.4097081
MLS Listing,,Single Family Residential,18812 Lemay St,Reseda,CA,91335,899000,4,3.0,RES - Reseda,1797,6267,1956,4,500,,Active,,,https://www.redfin.com/CA/Reseda/18812-Lemay-St-91335/home/3853670,CRMLS,SR24188549,N,Y,34.1915496,-118.5430576
MLS Listing,,Single Family Residential,11200 Amestoy Ave,Granada Hills,CA,91344,1049000,4,3.0,GH - Granada Hills,2302,7965,1954,4,456,,Active,,,https://www.redfin.com/CA/Granada-Hills/11200-Amestoy-Ave-91344/home/5762881,CRMLS,SR24183822,N,Y,34.2739544,-118.5048384
MLS Listing,,Condo/Co-op,11500 San Vicente #315,Los Angeles,CA,90049,1595000,2,2.5,Brentwood,2201,84587,1994,4,725,2554,Active,,,https://www.redfin.com/CA/Los-Angeles/11500-San-Vicente-Blvd-90049/unit-315/home/6760910,TheMLS,24-439601,N,Y,34.05275,-118.46114
MLS Listing,,Condo/Co-op,1855 Industrial St #418,Los Angeles,CA,90021,1175000,1,1.0,Metropolitan,1464,42628,1924,4,803,824,Active,September-17-2024 12:00 PM,September-17-2024 02:00 PM,https://www.redfin.com/CA/Los-Angeles/1855-E-Industrial-St-90021/unit-418/home/17239217,TheMLS,24-439667,N,Y,34.0359864,-118.2328349
MLS Listing,,Multi-Family (2-4 Unit),236 W 84th Pl,Los Angeles,CA,90003,1695000,13,7.0,Metropolitan South,,5321,2024,4,,,Active,,,https://www.redfin.com/CA/Los-Angeles/236-W-84th-Pl-90003/home/7296213,TheMLS,24-439629,N,Y,33.9621651,-118.2773399
MLS Listing,,Single Family Residential,11845 Pacific Ave,Los Angeles,CA,90066,4495000,5,5.5,C13 - Palms - Mar Vista,4648,7003,2024,4,967,,Active,,,https://www.redfin.com/CA/Los-Angeles/11845-Pacific-Ave-90066/home/6727242,CRMLS,SR24191082,N,Y,34.0068646,-118.4260884
MLS Listing,,Single Family Residential,7631 Vanalden Ave,Reseda,CA,91335,700000,3,2.0,RES - Reseda,1400,8535,1961,4,500,,Active,September-22-2024 01:00 PM,September-22-2024 04:00 PM,https://www.redfin.com/CA/Reseda/7631-Vanalden-Ave-91335/home/3638469,CRMLS,SR24187527,N,Y,34.2095801,-118.5494757
MLS Listing,,Multi-Family (2-4 Unit),5711 Naomi Ave,Los Angeles,CA,90011,1048888,6,2.0,C34 - Los Angeles Southwest,2468,5406,1970,4,425,,Active,September-21-2024 11:00 AM,September-21-2024 03:00 PM,https://www.redfin.com/CA/Los-Angeles/5711-Naomi-Ave-90011/home/6920713,CRMLS,OC24190258,N,Y,33.9908747,-118.2548564
MLS Listing,,Single Family Residential,18651 Hillsboro Rd,Porter Ranch,CA,91326,1599000,5,4.5,PORA - Porter Ranch,3516,11027,1989,4,455,250,Active,September-21-2024 12:00 PM,September-21-2024 04:00 PM,https://www.redfin.com/CA/Porter-Ranch/18651-Hillsboro-Rd-91326/home/5812818,CRMLS,SR24190785,N,Y,34.2617788,-118.5401198
MLS Listing,,Townhouse,22123 James Alan Cir,Chatsworth,CA,91311,709900,4,3.0,CHT - Chatsworth,1773,73182,1970,4,400,698,Active,September-22-2024 01:00 PM,September-22-2024 05:00 PM,https://www.redfin.com/CA/Chatsworth/22123-James-Alan-Cir-91311/home/5797878,CRMLS,SR24191180,N,Y,34.260699,-118.612808
MLS Listing,,Multi-Family (2-4 Unit),1013 Fraser Ave,East Los Angeles,CA,90022,599900,3,2.0,ELA - East Los Angeles,1288,4780,1949,4,466,,Pre On-Market,,,https://www.redfin.com/CA/Los-Angeles/1013-Fraser-Ave-90022/home/6964857,CRMLS,DW24191038,N,Y,34.019279,-118.162598
MLS Listing,,Single Family Residential,2016 Navy St,Santa Monica,CA,90405,3988000,5,5.0,C14 - Santa Monica,4375,7278,1991,4,912,,Active,,,https://www.redfin.com/CA/Santa-Monica/2016-Navy-St-90405/home/6765748,CRMLS,SR24191163,N,Y,34.008944,-118.4599144
MLS Listing,,Multi-Family (2-4 Unit),766 E 52nd St,Los Angeles,CA,90011,799000,8,4.0,C37 - Metropolitan South,2389,5129,1907,4,334,,Active,,,https://www.redfin.com/CA/Los-Angeles/766-E-52nd-St-90011/home/6919511,CRMLS,BB24191166,N,Y,33.9955811,-118.2614935
MLS Listing,,Single Family Residential,6153 Debs Ave,Woodland Hills,CA,91367,1600000,4,3.0,WHLL - Woodland Hills,1833,8002,1960,4,873,,Active,,,https://www.redfin.com/CA/Woodland-Hills/6153-Debs-Ave-91367/home/3171637,CRMLS,SR24191151,N,Y,34.1826926,-118.6491888
MLS Listing,,Condo/Co-op,10604 Valley Spring Ln #104,North Hollywood,CA,91602,724999,2,2.0,Toluca Lake,1202,16813,1993,4,603,554,Active,,,https://www.redfin.com/CA/North-Hollywood/10604-Valley-Spring-Ln-91602/unit-104/home/5306514,TheMLS,24-439581,N,Y,34.1464671,-118.3618161
MLS Listing,,Condo/Co-op,16169 W Sunset Blvd #302,Pacific Palisades,CA,90272,1095000,3,2.0,Pacific Palisades,1951,,,4,561,590,Active,,,https://www.redfin.com/CA/Pacific-Palisades/16169-W-Sunset-Blvd-90272/unit-302/home/6844562,TheMLS,24-439643,N,Y,34.0488699,-118.5378162
MLS Listing,,Single Family Residential,4320 Teesdale Ave,Studio City,CA,91604,3995000,5,6.5,STUD - Studio City,3900,7747,2024,4,1024,,Active,,,https://www.redfin.com/CA/Studio-City/4320-Teesdale-Ave-91604/home/5245439,CRMLS,SR24191136,N,Y,34.1492187,-118.4081055
