SALE TYPE,SOLD DATE,PROPERTY TYPE,ADDRESS,CITY,STATE OR PROVINCE,ZIP OR POSTAL CODE,PRICE,BEDS,BATHS,LOCATION,SQUARE FEET,LOT SIZE,YEAR BUILT,DAYS ON MARKET,$/SQUARE FEET,HOA/MONTH,STATUS,NEXT OPEN HOUSE START TIME,NEXT OPEN HOUSE END TIME,URL (SEE https://www.redfin.com/buy-a-home/comparative-market-analysis FOR INFO ON PRICING),SOURCE,MLS#,FAVORITE,INTERESTED,LATITUDE,LONGITUDE
MLS Listing,,Single Family Residential,2928 W 78th Pl,Inglewood,CA,90305,1100000,4,3.0,101 - North Inglewood,1912,6658,1928,1,575,,Active,September-21-2024 01:00 PM,September-21-2024 04:00 PM,https://www.redfin.com/CA/Inglewood/2928-W-78th-Pl-90305/home/6423318,CRMLS,SB24185565,N,Y,33.9679684,-118.3253509
MLS Listing,,Single Family Residential,409 E 99th St,Los Angeles,CA,90003,449000,2,1.0,Metropolitan South,576,5086,1926,5,780,,Active,,,https://www.redfin.com/CA/Los-Angeles/409-E-99th-St-90003/home/7304917,TheMLS,24-439263,N,Y,33.9467133,-118.2669221
MLS Listing,,Condo/Co-op,4250 Via Dolce #218,Marina Del Rey,CA,90292,1099000,2,2.0,C12 - Marina Del Rey,1590,191326,1974,5,691,936,Active,,,https://www.redfin.com/CA/Marina-del-Rey/4250-Via-Dolce-90292/unit-218/home/6783366,CRMLS,SB24190359,N,Y,33.974602,-118.4588171
MLS Listing,,Single Family Residential,1307 W Papeete St,Wilmington,CA,90744,788000,4,2.0,195 - West Wilmington,1437,5239,1953,5,548,,Pre On-Market,September-21-2024 10:00 AM,September-21-2024 01:00 PM,https://www.redfin.com/CA/Wilmington/1307-W-Papeete-St-90744/home/7675561,CRMLS,SW24189732,N,Y,33.7870957,-118.2798116
MLS Listing,,Single Family Residential,1558 W 47th St,Los Angeles,CA,90062,699990,3,1.0,PHHT - Park Hills Heights,1395,5743,1910,6,502,,Active,,,https://www.redfin.com/CA/Los-Angeles/1558-W-47th-St-90062/home/6871152,CRMLS,SB24179781,N,Y,34.0007833,-118.3055125
MLS Listing,,Townhouse,15053 Victory Blvd #11,Van Nuys,CA,91411,529000,2,2.5,East Van Nuys,1120,18335,2006,6,472,410,Active,,,https://www.redfin.com/CA/Van-Nuys/15053-Victory-Blvd-91411/unit-11/home/17225703,TheMLS,24-439167,N,Y,34.1869809,-118.4614622
MLS Listing,,Single Family Residential,7816 Quartz Ave,Winnetka,CA,91306,969000,3,2.5,WIN - Winnetka,2108,5182,1972,6,460,,Active,September-22-2024 01:00 PM,September-22-2024 04:00 PM,https://www.redfin.com/CA/Winnetka/7816-Quartz-Ave-91306/home/3670810,CRMLS,BB24187453,N,Y,34.2126206,-118.5638814
MLS Listing,,Condo/Co-op,4170 Fair Ave #101,Studio City,CA,91602,849000,2,2.5,STUD - Studio City,1470,33463,2006,6,578,625,Active,,,https://www.redfin.com/CA/North-Hollywood/4170-Fair-Ave-91602/unit-101/home/8163713,CRMLS,BB24187957,N,Y,34.1441756,-118.3744381
MLS Listing,,Single Family Residential,4449 W 64th St,Los Angeles,CA,90043,1279000,3,2.0,Park Hills Heights,1664,6302,1939,6,769,,Active,September-21-2024 02:00 PM,September-21-2024 05:00 PM,https://www.redfin.com/CA/Los-Angeles/4449-W-64th-St-90043/home/6409392,TheMLS,24-436487,N,Y,33.981961,-118.3517316
MLS Listing,,Single Family Residential,17561 Bullock St,Encino,CA,91316,1149000,3,2.0,ENC - Encino,1215,5502,1949,8,946,,Active,,,https://www.redfin.com/CA/Encino/17561-Bullock-St-91316/home/4751320,CRMLS,BB24188083,N,Y,34.1798772,-118.5159596
MLS Listing,,Condo/Co-op,6815 Remmet Ave #224,Canoga Park,CA,91303,389000,1,1.0,CP - Canoga Park,619,56680,1986,12,628,390,Active,,,https://www.redfin.com/CA/Canoga-Park/6815-Remmet-Ave-91303/unit-224/home/3962218,CRMLS,BB24183428,N,Y,34.1946572,-118.6005154
MLS Listing,,Condo/Co-op,1917 Manning Ave #2,Los Angeles,CA,90025,1349000,4,2.5,C05 - Westwood - Century City,1951,6754,1988,12,691,500,Active,,,https://www.redfin.com/CA/Los-Angeles/1917-Manning-Ave-90025/unit-2/home/6799763,CRMLS,SB24184270,N,Y,34.0507298,-118.4299644
MLS Listing,,Single Family Residential,8303 Topeka Dr,Northridge,CA,91324,799900,3,2.0,NR - Northridge,1600,6799,1978,19,500,,Active,September-21-2024 01:00 PM,September-21-2024 04:00 PM,https://www.redfin.com/CA/Northridge/8303-Topeka-Dr-91324/home/5890766,CRMLS,SR24180727,N,Y,34.2208002,-118.5457647
MLS Listing,,Single Family Residential,348 W 88th St,Los Angeles,CA,90003,599000,3,1.0,C37 - Metropolitan South,1005,3605,1926,19,596,,Active,,,https://www.redfin.com/CA/Los-Angeles/348-W-88th-St-90003/home/7296492,CRMLS,PW24178655,N,Y,33.9572055,-118.2799964
MLS Listing,,Single Family Residential,10947 Odell Ave,Sunland,CA,91040,849000,3,1.5,659 - Sunland/Tujunga,1083,10943,1950,19,784,,Active,,,https://www.redfin.com/CA/Sunland/10947-Odell-Ave-91040/home/5502237,CRMLS,BB24162951,N,Y,34.2681593,-118.3132991
MLS Listing,,Single Family Residential,8304 Stephen Ln,West Hills,CA,91304,1050000,4,2.0,WEH - West Hills,2090,11012,1963,20,502,,Active,,,https://www.redfin.com/CA/West-Hills/8304-Stephen-Ln-91304/home/8095596,CRMLS,BB24177930,N,Y,34.2194544,-118.6383013
MLS Listing,,Single Family Residential,19517 Celtic St,Porter Ranch,CA,91326,1975000,6,6.0,PORA - Porter Ranch,4971,13088,2005,21,397,,Active,,,https://www.redfin.com/CA/Porter-Ranch/19517-Celtic-St-91326/home/5780704,CRMLS,BB24177550,N,Y,34.2718167,-118.5580671
MLS Listing,,Townhouse,646 Flower Ave #3,Venice,CA,90291,1849000,3,3.5,C11 - Venice,1970,5794,2000,23,939,333,Active,,,https://www.redfin.com/CA/Venice/646-Flower-Ave-90291/unit-3/home/8106562,CRMLS,SB24177276,N,Y,33.9987796,-118.4698585
MLS Listing,,Single Family Residential,3911 S Victoria Ave,View Park,CA,90008,1599000,3,2.0,VWPK - View Park,1900,6336,1942,26,842,,Active,,,https://www.redfin.com/CA/View-Park/3911-S-Victoria-Ave-90008/home/6888798,CRMLS,BB24171558,N,Y,34.0146315,-118.3375257
MLS Listing,,Single Family Residential,6425 Varna Ave,Van Nuys,CA,91401,1190000,4,3.0,VN - Van Nuys,2050,7205,1949,27,580,,Active,,,https://www.redfin.com/CA/Van-Nuys/6425-Varna-Ave-91401/home/5094547,CRMLS,BB24170230,N,Y,34.1874632,-118.424998
MLS Listing,,Condo/Co-op,6250 Fulton Ave #104,Van Nuys,CA,91401,425000,1,1.0,VN - Van Nuys,830,12553,1983,27,512,372,Active,,,https://www.redfin.com/CA/Van-Nuys/6250-Fulton-Ave-91401/unit-104/home/17225928,CRMLS,BB24171762,N,Y,34.1844725,-118.4222196
MLS Listing,,Single Family Residential,401 S Cabrillo Ave,San Pedro,CA,90731,1059000,3,2.0,183 - Vista Del Oro,2200,4501,1913,27,481,,Active,,,https://www.redfin.com/CA/San-Pedro/401-S-Cabrillo-Ave-90731/home/7689049,CRMLS,SB24171740,N,Y,33.7404823,-118.2948248
MLS Listing,,Single Family Residential,5103 Biloxi Ave,North Hollywood,CA,91601,1650000,3,2.0,TUL - Toluca Lake,2055,10083,1940,28,803,,Active,,,https://www.redfin.com/CA/North-Hollywood/5103-Biloxi-Ave-91601/home/5297919,CRMLS,SR24172818,N,Y,34.1632994,-118.3585629
MLS Listing,,Vacant Land,5218 Baza Ave,Woodland Hills,CA,91364,199000,,,WHLL - Woodland Hills,,11618,,33,,,Active,,,https://www.redfin.com/CA/Woodland-Hills/5218-Baza-Ave-91364/home/54781179,CRMLS,BB24170390,N,Y,34.1642657,-118.6006436
MLS Listing,,Single Family Residential,4916 Enfield Ave,Encino,CA,91316,1695000,4,3.0,ENC - Encino,1918,6036,1948,34,884,,Active,,,https://www.redfin.com/CA/Encino/4916-Enfield-Ave-91316/home/4292706,CRMLS,BB24159310,N,Y,34.1589701,-118.5236982
MLS Listing,,Condo/Co-op,1234 Wilshire Blvd #331,Los Angeles,CA,90017,599999,2,2.0,C42 - Downtown L.A.,960,71352,2006,34,625,796,Active,,,https://www.redfin.com/CA/Los-Angeles/1234-Wilshire-Blvd-90017/unit-331/home/12294349,CRMLS,BB24168949,N,Y,34.053194,-118.265658
MLS Listing,,Townhouse,13236 Fiji Way Unit B,Marina Del Rey,CA,90292,1359000,2,2.5,C12 - Marina Del Rey,1582,64241,1969,35,859,593,Active,,,https://www.redfin.com/CA/Marina-del-Rey/13236-Fiji-Way-90292/unit-B/home/6732631,CRMLS,SB24167659,N,Y,33.9792142,-118.4344462
MLS Listing,,Condo/Co-op,801 S Grand Ave #1806,Los Angeles,CA,90017,749000,2,2.0,C42 - Downtown L.A.,1200,59001,1985,35,624,1040,Active,,,https://www.redfin.com/CA/Los-Angeles/801-S-Grand-Ave-90017/unit-1806/home/8179719,CRMLS,BB24163085,N,Y,34.0457095,-118.2585553
MLS Listing,,Condo/Co-op,4528 Colbath Ave #103,Sherman Oaks,CA,91423,595000,1,1.0,SO - Sherman Oaks,925,10580,1978,35,643,470,Active,,,https://www.redfin.com/CA/Sherman-Oaks/4528-Colbath-Ave-91423/unit-103/home/4853944,CRMLS,BB24167913,N,Y,34.153884,-118.4362785
MLS Listing,,Single Family Residential,1013 Englander St,San Pedro,CA,90731,1198000,4,2.0,193 - San Pedro - North,2049,5250,1962,40,585,,Active,,,https://www.redfin.com/CA/San-Pedro/1013-Englander-St-90731/home/7683299,CRMLS,SB24154108,N,Y,33.7647511,-118.3000059
MLS Listing,,Condo/Co-op,312 W 5th St #319,Los Angeles,CA,90013,394900,1,1.0,C42 - Downtown L.A.,650,27293,1923,40,608,365,Active,,,https://www.redfin.com/CA/Los-Angeles/312-W-5th-St-90013/unit-319/home/8181158,CRMLS,BB24163252,N,Y,34.0480407,-118.2512918
MLS Listing,,Single Family Residential,22641 Macfarlane Dr,Woodland Hills,CA,91364,2199000,6,3.5,WHLL - Woodland Hills,3804,17057,1955,42,578,,Active,,,https://www.redfin.com/CA/Woodland-Hills/22641-Macfarlane-Dr-91364/home/3556992,CRMLS,BB24162507,N,Y,34.163043,-118.6197558
MLS Listing,,Condo/Co-op,1310 Armacost Ave #104,Los Angeles,CA,90025,1149000,2,2.0,West L.A.,1740,13768,2005,42,660,650,Active,September-22-2024 02:00 PM,September-22-2024 05:00 PM,https://www.redfin.com/CA/Los-Angeles/1310-Armacost-Ave-90025/unit-104/home/8150956,TheMLS,24-424975,N,Y,34.0446723,-118.4622163
MLS Listing,,Single Family Residential,14560 Valley Vista Blvd,Sherman Oaks,CA,91403,2385000,4,4.0,SO - Sherman Oaks,3314,7415,1965,46,720,,Active,,,https://www.redfin.com/CA/Sherman-Oaks/14560-Valley-Vista-Blvd-91403/home/4886820,CRMLS,SR24158086,N,Y,34.1470244,-118.4516487
MLS Listing,,Single Family Residential,4254 Beethoven St,Los Angeles,CA,90066,1995000,3,3.0,Marina Del Rey,1803,4397,1926,48,1106,,Active,September-18-2024 05:00 PM,September-18-2024 07:00 PM,https://www.redfin.com/CA/Los-Angeles/4254-Beethoven-St-90066/home/6736357,TheMLS,24-422799,N,Y,33.9915571,-118.4335517
MLS Listing,,Condo/Co-op,939 S Broadway #413,Los Angeles,CA,90015,549000,1,1.0,C42 - Downtown L.A.,700,15498,1924,51,784,503,Active,,,https://www.redfin.com/CA/Los-Angeles/939-S-Broadway-90015/unit-413/home/173208826,CRMLS,BB24153982,N,Y,34.0416129,-118.2571335
MLS Listing,,Condo/Co-op,12711 Mitchell Ave #3,Los Angeles,CA,90066,902000,2,2.5,C13 - Palms - Mar Vista,1087,6978,1987,54,830,250,Active,,,https://www.redfin.com/CA/Los-Angeles/12711-Mitchell-Ave-90066/unit-3/home/6740326,CRMLS,SB24152168,N,Y,33.9980324,-118.4358946
MLS Listing,,Single Family Residential,7038 Texhoma Ave,Lake Balboa,CA,91406,1089000,3,2.5,LKBL - Lake Balboa,1929,7498,1951,56,565,,Active,,,https://www.redfin.com/CA/Van-Nuys/7038-Texhoma-Ave-91406/home/4535601,CRMLS,BB24150252,N,Y,34.1987156,-118.5149784
MLS Listing,,Condo/Co-op,155 S Oxford Ave Ph 3,Los Angeles,CA,90004,910000,3,2.0,C17 - Mid-Wilshire,1344,13823,2016,61,677,312,Active,,,https://www.redfin.com/CA/Los-Angeles/155-S-Oxford-Ave-90004/unit-3/home/167563838,CRMLS,PF24146760,N,Y,34.0720371,-118.3082491
MLS Listing,,Single Family Residential,520 Altair Pl,Venice,CA,90291,2295000,3,3.0,Venice,1048,2707,1912,61,2190,,Active,September-22-2024 02:00 PM,September-22-2024 05:00 PM,https://www.redfin.com/CA/Venice/520-Altair-Pl-90291/home/6741279,TheMLS,24-417295,N,Y,33.9896384,-118.4666849
MLS Listing,,Condo/Co-op,312 W 5th St #507,Los Angeles,CA,90013,425000,1,1.0,C42 - Downtown L.A.,860,27293,1923,68,494,310,Active,,,https://www.redfin.com/CA/Los-Angeles/312-W-5th-St-90013/unit-507/home/8181092,CRMLS,PF24124763,N,Y,34.0480407,-118.2512918
MLS Listing,,Condo/Co-op,8642 Gregory Way #204,Los Angeles,CA,90035,1089000,2,2.0,C19 - Beverly Center-Miracle Mile,1719,17397,1980,71,634,550,Active,,,https://www.redfin.com/CA/Los-Angeles/8642-Gregory-Way-90035/unit-204/home/6813673,CRMLS,BB24134777,N,Y,34.0627089,-118.3799838
MLS Listing,,Single Family Residential,22666 Cavalier St,Woodland Hills,CA,91364,1199999,3,3.0,WHLL - Woodland Hills,2128,6987,1966,71,564,,Active,,,https://www.redfin.com/CA/Woodland-Hills/22666-Cavalier-St-91364/home/3565466,CRMLS,BB24140407,N,Y,34.1584144,-118.621807
MLS Listing,,Single Family Residential,2827 Budau Ave,Los Angeles,CA,90032,830000,3,2.0,621 - El Sereno,1256,4788,1925,74,661,,Active,,,https://www.redfin.com/CA/Los-Angeles/2827-Budau-Ave-90032/home/6951274,CRMLS,PF24114056,N,Y,34.0780685,-118.1744052
MLS Listing,,Single Family Residential,9369 Hillrose St,Shadow Hills,CA,91040,1795000,4,4.0,672 - Shadow Hills,4044,39359,2007,75,444,,Active,,,https://www.redfin.com/CA/Sunland/9369-Hillrose-St-91040/home/21921338,CRMLS,SR24137964,N,Y,34.2625835,-118.3363693
MLS Listing,,Single Family Residential,9948 Calvin Ave,Northridge,CA,91324,1349000,4,3.0,NR - Northridge,2340,16902,1960,77,576,,Active,,,https://www.redfin.com/CA/Northridge/9948-Calvin-Ave-91324/home/5805618,CRMLS,BB24134838,N,Y,34.2514818,-118.5552183
MLS Listing,,Single Family Residential,19048 Victory Blvd,Tarzana,CA,91335,899000,4,3.0,TAR - Tarzana,1541,7444,1953,77,583,,Active,,,https://www.redfin.com/CA/Tarzana/19048-Victory-Blvd-91335/home/3865381,CRMLS,BB24088119,N,Y,34.1863161,-118.5485179
MLS Listing,,Condo/Co-op,4733 Elmwood Ave #402,Los Angeles,CA,90004,799000,3,2.0,HPK - Hancock Park,1300,7252,2008,79,615,449,Active,,,https://www.redfin.com/CA/Los-Angeles/4733-Elmwood-Ave-90004/unit-402/home/25717000,CRMLS,PF24132732,N,Y,34.0786036,-118.3103042
MLS Listing,,Condo/Co-op,5349 Newcastle Ave #62,Encino,CA,91316,465000,2,2.0,ENC - Encino,927,60939,1967,82,502,529,Active,,,https://www.redfin.com/CA/Encino/5349-Newcastle-Ave-91316/unit-62/home/4143446,CRMLS,BB24130091,N,Y,34.168225,-118.525134
MLS Listing,,Single Family Residential,4235 W 59th Pl,Los Angeles,CA,90043,1648000,4,3.5,PHHT - Park Hills Heights,3128,5566,2014,83,527,,Active,,,https://www.redfin.com/CA/Los-Angeles/4235-W-59th-Pl-90043/home/6447072,CRMLS,SB24131270,N,Y,33.9864219,-118.3492387
MLS Listing,,Single Family Residential,20448 W Liverpool Way,Porter Ranch,CA,91326,3175000,5,6.0,Porter Ranch,5513,14142,2021,89,576,451,Active,,,https://www.redfin.com/CA/Porter-Ranch/20448-W-Liverpool-Way-91326/home/143518762,TheMLS,24-406419,N,Y,34.285311,-118.580759
MLS Listing,,Single Family Residential,19130 Charles St,Tarzana,CA,91356,1899000,3,2.0,TAR - Tarzana,2721,18187,1955,90,698,,Active,,,https://www.redfin.com/CA/Tarzana/19130-Charles-St-91356/home/4253494,CRMLS,BB24120950,N,Y,34.1572008,-118.5500503
MLS Listing,,Townhouse,4640 Glencoe Ave #4,Marina Del Rey,CA,90292,1249000,2,3.0,Marina Del Rey,1646,196139,1977,99,759,805,Active,,,https://www.redfin.com/CA/Marina-del-Rey/4640-Glencoe-Ave-90292/unit-4/home/6725686,TheMLS,24-402827,N,Y,33.9856273,-118.432362
MLS Listing,,Condo/Co-op,321 S San Vicente Blvd #708,Los Angeles,CA,90048,769500,2,2.0,Beverly Center-Miracle Mile,1295,42596,1976,155,594,1140,Active,,,https://www.redfin.com/CA/Los-Angeles/321-S-San-Vicente-Blvd-90048/unit-708/home/6814245,TheMLS,24-381011,N,Y,34.0730973,-118.37796
MLS Listing,,Condo/Co-op,905 New Depot St #12,Los Angeles,CA,90012,558000,3,1.5,671 - Silver Lake,1167,29414,1974,168,478,210,Active,,,https://www.redfin.com/CA/Los-Angeles/905-New-Depot-St-90012/unit-12/home/7054519,CRMLS,PF24063967,N,Y,34.0656737,-118.244944
MLS Listing,,Single Family Residential,7917 S Mariposa Ave,Los Angeles,CA,90044,899950,7,4.0,Metropolitan Southwest,3502,4952,1936,1,257,,Active,,,https://www.redfin.com/CA/Los-Angeles/7917-S-Mariposa-Ave-90044/home/7291484,TheMLS,24-440571,N,Y,33.9667752,-118.2995513
MLS Listing,,Condo/Co-op,1505 S Bentley Ave #102,Los Angeles,CA,90025,1150000,2,2.0,Westwood - Century City,1667,11578,1974,1,690,750,Active,,,https://www.redfin.com/CA/Los-Angeles/1505-S-Bentley-Ave-90025/unit-102/home/6802252,TheMLS,24-433369,N,Y,34.0506817,-118.4459398
MLS Listing,,Single Family Residential,3641 W 64th St,Los Angeles,CA,90043,1279000,3,2.0,PHHT - Park Hills Heights,1537,6125,1936,1,832,,Pre On-Market,,,https://www.redfin.com/CA/Los-Angeles/3641-W-64th-St-90043/home/6412970,CRMLS,PW24189042,N,Y,33.9820194,-118.3367355
MLS Listing,,Condo/Co-op,1818 Pelham Ave #205,Los Angeles,CA,90025,875000,2,2.0,Westwood - Century City,1623,25655,1974,1,539,600,Active,,,https://www.redfin.com/CA/Los-Angeles/1818-Pelham-Ave-90025/unit-205/home/6799478,TheMLS,24-440531,N,Y,34.0514934,-118.4311712
MLS Listing,,Single Family Residential,4449 Tyrone Ave,Sherman Oaks,CA,91423,1749000,3,2.0,Sherman Oaks,2100,6751,1956,1,833,,Active,September-24-2024 11:00 AM,September-24-2024 02:00 PM,https://www.redfin.com/CA/Sherman-Oaks/4449-Tyrone-Ave-91423/home/4830557,TheMLS,24-437151,N,Y,34.1524475,-118.4446434
MLS Listing,,Condo/Co-op,5154 Inglewood Blvd #9,Culver City,CA,90230,899000,2,2.0,C28 - Culver City,1109,7507,1990,1,811,485,Pre On-Market,,,https://www.redfin.com/CA/Culver-City/5154-Inglewood-Blvd-90230/unit-9/home/6730037,CRMLS,SB24193854,N,Y,33.9890027,-118.4104289
MLS Listing,,Single Family Residential,11113 Odell Ave,Sunland,CA,91040,832000,2,1.5,659 - Sunland/Tujunga,1395,5820,1959,1,596,,Active,,,https://www.redfin.com/CA/Sunland/11113-Odell-Ave-91040/home/5503794,CRMLS,GD24193733,N,Y,34.2709759,-118.3125687
MLS Listing,,Single Family Residential,7106 Andasol Ave,Van Nuys,CA,91406,949000,3,2.0,VN - Van Nuys,1345,8097,1951,1,706,,Pre On-Market,September-21-2024 12:00 PM,September-21-2024 03:00 PM,https://www.redfin.com/CA/Van-Nuys/7106-Andasol-Ave-91406/home/4535925,CRMLS,OC24193232,N,Y,34.1994951,-118.5117558
MLS Listing,,Single Family Residential,5265 Del Moreno Dr,Woodland Hills,CA,91364,3995000,5,6.5,WHLL - Woodland Hills,6721,18021,1965,1,594,,Pre On-Market,,,https://www.redfin.com/CA/Woodland-Hills/5265-Del-Moreno-Dr-91364/home/4162319,CRMLS,SR24193725,N,Y,34.165922,-118.5768254
MLS Listing,,Single Family Residential,15517 Wyandotte St,Van Nuys,CA,91406,924000,3,2.0,VN - Van Nuys,1766,6309,1951,1,523,,Active,September-21-2024 12:00 PM,September-21-2024 03:00 PM,https://www.redfin.com/CA/Van-Nuys/15517-Wyandotte-St-91406/home/4484888,CRMLS,SR24193554,N,Y,34.2032292,-118.4712609
MLS Listing,,Multi-Family (5+ Unit),1443 W 7th St,San Pedro,CA,90732,3000000,9,11.0,183 - Vista Del Oro,6695,5383,1980,1,448,,Active,,,https://www.redfin.com/CA/San-Pedro/1443-W-7th-St-90732/home/7692520,CRMLS,PV24188355,N,Y,33.737666,-118.3092538
MLS Listing,,Single Family Residential,19829 Acre St,Northridge,CA,91324,899000,3,2.0,NR - Northridge,1620,8172,1957,1,555,,Pre On-Market,,,https://www.redfin.com/CA/Northridge/19829-Acre-St-91324/home/5885976,CRMLS,SR24191941,N,Y,34.2300353,-118.5660788
MLS Listing,,Condo/Co-op,525 S Ardmore Ave #146,Los Angeles,CA,90020,315000,0,1.0,C17 - Mid-Wilshire,381,73535,1973,1,827,291,Active,,,https://www.redfin.com/CA/Los-Angeles/525-S-Ardmore-Ave-90020/unit-146/home/7090147,CRMLS,IV24189416,N,Y,34.0648414,-118.3021398
MLS Listing,,Single Family Residential,6620 Vesper Ave,Van Nuys,CA,91405,979000,4,2.0,VN - Van Nuys,1600,5962,1926,1,612,,Pre On-Market,September-21-2024 12:00 PM,September-21-2024 02:00 PM,https://www.redfin.com/CA/Van-Nuys/6620-Vesper-Ave-91405/home/4609288,CRMLS,GD24193300,N,Y,34.191388,-118.4506156
MLS Listing,,Condo/Co-op,1100 Wilshire Blvd #1702,Los Angeles,CA,90017,749000,2,2.0,Downtown L.A.,1100,27106,1986,1,681,1363,Active,,,https://www.redfin.com/CA/Los-Angeles/1100-Wilshire-Blvd-90017/unit-1702/home/17236852,TheMLS,24-440247,N,Y,34.0521526,-118.2638542
MLS Listing,,Single Family Residential,7407 W 91st St,Los Angeles,CA,90045,1995000,4,4.0,Westchester,2463,6565,1951,1,810,,Active,September-21-2024 02:00 PM,September-21-2024 05:00 PM,https://www.redfin.com/CA/Los-Angeles/7407-W-91st-St-90045/home/6633024,TheMLS,24-439690,N,Y,33.9545977,-118.4248472
MLS Listing,,Single Family Residential,11418 Indian Hills Rd,Mission Hills,CA,91345,950000,4,3.0,Mission Hills,2652,5138,1977,1,358,,Active,,,https://www.redfin.com/CA/Mission-Hills/11418-Indian-Hills-Rd-91345/home/5704612,TheMLS,24-438269,N,Y,34.2777952,-118.4589876
MLS Listing,,Multi-Family (2-4 Unit),14914 Sylvan St,Van Nuys,CA,91411,1300000,4,3.0,VN - Van Nuys,2606,8777,1954,1,499,,Active,,,https://www.redfin.com/CA/Van-Nuys/14914-Sylvan-St-91411/home/4663114,CRMLS,SR24193608,N,Y,34.1846167,-118.4580137
MLS Listing,,Single Family Residential,7738 Aura Ave,Reseda,CA,91335,839900,3,1.0,RES - Reseda,1268,7507,1952,1,662,,Active,,,https://www.redfin.com/CA/Reseda/7738-Aura-Ave-91335/home/3774803,CRMLS,DW24193720,N,Y,34.2111929,-118.5543973
MLS Listing,,Single Family Residential,5262 Bainbridge Pl,Valley Village,CA,91607,1299000,3,4.0,VVL - Valley Village,1796,3606,2021,1,723,146,Pre On-Market,,,https://www.redfin.com/CA/Valley-Village/5262-N-Bainbridge-Pl-91607/home/176518554,CRMLS,SW24193728,N,Y,34.1666894,-118.4007959
MLS Listing,,Single Family Residential,10109 Ruffner Ave,North Hills,CA,91343,970000,3,3.0,NOH - North Hills,1887,8861,1962,1,514,,Pre On-Market,,,https://www.redfin.com/CA/North-Hills/10109-Ruffner-Ave-91343/home/5739825,CRMLS,SR24193731,N,Y,34.2543217,-118.4972386
MLS Listing,,Single Family Residential,6738 Laramie Ave,Winnetka,CA,91306,810000,3,2.0,WIN - Winnetka,1284,7931,1955,1,631,,Pre On-Market,,,https://www.redfin.com/CA/Winnetka/6738-Laramie-Ave-91306/home/3920155,CRMLS,SR24190804,N,Y,34.1930099,-118.5728203
MLS Listing,,Single Family Residential,5426 4th Ave,Los Angeles,CA,90043,855000,3,2.0,PHHT - Park Hills Heights,1444,5409,1921,1,592,,Pre On-Market,,,https://www.redfin.com/CA/Los-Angeles/5426-4th-Ave-90043/home/6865155,CRMLS,DW24193740,N,Y,33.9923093,-118.3211737
MLS Listing,,Condo/Co-op,14115 Moorpark St #107,Sherman Oaks,CA,91423,875000,2,2.0,SO - Sherman Oaks,1500,23486,1979,1,583,531,Active,September-21-2024 01:00 PM,September-21-2024 04:00 PM,https://www.redfin.com/CA/Sherman-Oaks/14115-Moorpark-St-91423/unit-107/home/4835165,CRMLS,SR24193705,N,Y,34.1506909,-118.4404424
MLS Listing,,Single Family Residential,927 S Ogden Dr,Los Angeles,CA,90036,2475000,4,4.0,Beverly Center-Miracle Mile,2546,6004,1926,1,972,,Active,,,https://www.redfin.com/CA/Los-Angeles/927-S-Ogden-Dr-90036/home/6914248,TheMLS,24-440593,N,Y,34.058798,-118.3617062
MLS Listing,,Condo/Co-op,22919 Mariposa Ave #907,Torrance,CA,90502,699000,3,3.0,123 - County Strip,1380,14023,2009,1,507,186,Active,,,https://www.redfin.com/CA/Torrance/22919-Mariposa-Ave-90502/unit-907/home/21920436,CRMLS,AR24192401,N,Y,33.8179557,-118.2976295
MLS Listing,,Single Family Residential,2039 N Avenue 52,Los Angeles,CA,90042,1499999,3,3.0,Highland Park,1640,7154,1927,1,915,,Active,September-21-2024 02:00 PM,September-21-2024 05:00 PM,https://www.redfin.com/CA/Los-Angeles/2039-N-Avenue-52-90042/home/7083591,TheMLS,24-433055,N,Y,34.1283638,-118.2019527
MLS Listing,,Multi-Family (2-4 Unit),7135 Geyser Ave,Reseda,CA,91335,1830000,11,7.0,RES - Reseda,4606,15009,1939,1,397,,Active,,,https://www.redfin.com/CA/Reseda/7135-Geyser-Ave-91335/home/3843513,CRMLS,SR24190347,N,Y,34.2002935,-118.5428677
MLS Listing,,Single Family Residential,3681 Alta Mesa Dr,Studio City,CA,91604,2299000,4,4.0,STUD - Studio City,3631,10883,1989,1,633,,Active,,,https://www.redfin.com/CA/Studio-City/3681-Alta-Mesa-Dr-91604/home/5259827,CRMLS,SR24193659,N,Y,34.136635,-118.4100118
MLS Listing,,Single Family Residential,2301 9th Ave,Los Angeles,CA,90018,1089999,3,2.0,C16 - Mid Los Angeles,2168,6876,1909,1,503,,Pre On-Market,September-22-2024 12:00 PM,September-22-2024 04:00 PM,https://www.redfin.com/CA/Los-Angeles/2301-9th-Ave-90018/home/6898720,CRMLS,OC24193528,N,Y,34.0360003,-118.3274957
MLS Listing,,Townhouse,9847 N Lassen Rd,Mission Hills (san Fernando),CA,91345,799999,4,3.5,MHL - Mission Hills,1811,1245,2018,1,442,130,Pre On-Market,,,https://www.redfin.com/CA/Mission-Hills/9847-N-Lassen-Rd-91345/home/168701485,CRMLS,SR24193621,N,Y,34.2494021,-118.4666771
MLS Listing,,Townhouse,4656 Willis Ave,Sherman Oaks,CA,91403,825000,2,3.0,SO - Sherman Oaks,1671,53036,1973,1,494,551,Active,,,https://www.redfin.com/CA/Sherman-Oaks/4656-Willis-Ave-91403/home/4826053,CRMLS,SR24193567,N,Y,34.15576,-118.45504
MLS Listing,,Multi-Family (5+ Unit),936 W 71st St,Los Angeles,CA,90044,3500000,,256.0,C36 - Metropolitan Southwest,8798,13191,1937,1,398,,Active,,,https://www.redfin.com/CA/Los-Angeles/936-W-71st-St-90044/home/7277494,CRMLS,TR24193647,N,Y,33.9751437,-118.2907677
MLS Listing,,Single Family Residential,8110 Kenyon Ave,Los Angeles,CA,90045,1295000,3,2.0,C29 - Westchester,1508,6259,1946,1,859,2,Pre On-Market,September-21-2024 12:00 PM,September-21-2024 03:00 PM,https://www.redfin.com/CA/Los-Angeles/8110-Kenyon-Ave-90045/home/6618471,CRMLS,SB24192160,N,Y,33.9650259,-118.4098571
MLS Listing,,Single Family Residential,1111 S Manhattan Pl,Los Angeles,CA,90019,1345000,3,2.0,Hancock Park-Wilshire,1605,6249,1918,1,838,,Active,September-21-2024 01:00 PM,September-21-2024 04:00 PM,https://www.redfin.com/CA/Los-Angeles/1111-S-Manhattan-Pl-90019/home/6909727,TheMLS,24-440909,N,Y,34.0504313,-118.3104183
MLS Listing,,Condo/Co-op,12601 Van Nuys Blvd #252,Pacoima,CA,91331,359000,2,1.0,PAC - Pacoima,666,212165,1989,1,539,465,Pre On-Market,September-21-2024 12:00 AM,September-21-2024 11:59 PM,https://www.redfin.com/CA/Pacoima/12601-Van-Nuys-Blvd-91331/unit-252/home/5474690,CRMLS,PW24193473,N,Y,34.2769024,-118.4081169
MLS Listing,,Single Family Residential,6122 Marbella Pl,Los Angeles,CA,90038,1289000,3,3.5,Hollywood,2205,1056,2024,1,585,,Active,September-22-2024 12:00 PM,September-22-2024 03:00 PM,https://www.redfin.com/CA/Los-Angeles/6122-N-Marbella-Pl-90038/home/182338610,TheMLS,24-388009,N,Y,34.093961,-118.323117
MLS Listing,,Single Family Residential,636 N La Jolla Ave,Los Angeles,CA,90048,3695000,4,6.0,West Hollywood Vicinity,3778,6550,2013,1,978,,Active,September-22-2024 02:00 PM,September-22-2024 05:00 PM,https://www.redfin.com/CA/Los-Angeles/636-N-La-Jolla-Ave-90048/home/7104649,TheMLS,24-440535,N,Y,34.0826481,-118.3677698
MLS Listing,,Condo/Co-op,1045 N Kings Rd #104,West Hollywood,CA,90069,650000,1,1.0,C10 - West Hollywood Vicinity,910,20000,1968,1,714,550,Active,,,https://www.redfin.com/CA/West-Hollywood/1045-N-Kings-Rd-90069/unit-104/home/7104947,CRMLS,OC24193419,N,Y,34.09007,-118.3721676
MLS Listing,,Condo/Co-op,20134 Leadwell St #375,Winnetka,CA,91306,449000,2,2.0,WIN - Winnetka,884,215340,1971,1,508,495,Active,,,https://www.redfin.com/CA/Winnetka/20134-Leadwell-St-91306/unit-375/home/3759785,CRMLS,SR24193093,N,Y,34.2032201,-118.5725876
MLS Listing,,Single Family Residential,15471 Victory Blvd,Van Nuys,CA,91406,975000,3,2.5,VN - Van Nuys,1808,15020,1949,1,539,,Pre On-Market,,,https://www.redfin.com/CA/Van-Nuys/15471-Victory-Blvd-91406/home/4592833,CRMLS,SR24193553,N,Y,34.1870647,-118.4714037
MLS Listing,,Multi-Family (2-4 Unit),3045 Wellington Rd,Los Angeles,CA,90016,2799000,12,13.0,Mid Los Angeles,5247,6147,2023,1,533,,Active,,,https://www.redfin.com/CA/Los-Angeles/3045-Wellington-Rd-90016/home/6892576,TheMLS,24-441081,N,Y,34.0262792,-118.338684
MLS Listing,,Condo/Co-op,1123 S Shenandoah St #103,Los Angeles,CA,90035,1139000,3,2.5,Beverly Center-Miracle Mile,1453,12672,2023,1,784,458,Active,September-22-2024 02:00 PM,September-22-2024 05:00 PM,https://www.redfin.com/CA/Los-Angeles/1123-S-Shenandoah-St-90035/unit-103/home/187058663,TheMLS,24-440301,N,Y,34.0564159,-118.3817978
MLS Listing,,Multi-Family (2-4 Unit),12800 Oxnard St,North Hollywood,CA,91606,1200000,6,6.0,NHO - North Hollywood,3240,7133,1959,1,370,,Active,September-21-2024 11:00 AM,September-21-2024 04:00 PM,https://www.redfin.com/CA/North-Hollywood/12800-Oxnard-St-91606/home/5171850,CRMLS,SR24186225,N,Y,34.1791005,-118.4116779
MLS Listing,,Multi-Family (5+ Unit),9205 Burnet Ave,North Hills,CA,91343,12250000,91,91.0,North Hills,48766,88856,1985,1,251,,Active,,,https://www.redfin.com/CA/North-Hills/9205-Burnet-Ave-91343/home/5694690,TheMLS,24-441049,N,Y,34.2374235,-118.4635402
MLS Listing,,Single Family Residential,2928 S Beverly Dr,Los Angeles,CA,90034,2275000,4,3.0,Beverlywood Vicinity,2668,5499,1937,1,853,,Active,,,https://www.redfin.com/CA/Los-Angeles/2928-S-Beverly-Dr-90034/home/6792577,TheMLS,24-439909,N,Y,34.0359612,-118.3966646
MLS Listing,,Single Family Residential,7953 Sunnybrae Ave,Winnetka,CA,91306,775000,3,2.0,Winnetka,1380,7505,1954,1,562,,Active,,,https://www.redfin.com/CA/Winnetka/7953-Sunnybrae-Ave-91306/home/3694661,TheMLS,24-440055,N,Y,34.2149273,-118.5811469
MLS Listing,,Multi-Family (5+ Unit),4180 Arch Dr,Studio City,CA,91604,12995000,60,60.0,Studio City,30364,16349,1990,1,428,,Active,,,https://www.redfin.com/CA/Studio-City/4180-Arch-Dr-91604/home/5232279,TheMLS,24-441023,N,Y,34.142989,-118.372537
MLS Listing,,Single Family Residential,7346 Pacific View Dr,Los Angeles,CA,90068,2575000,4,4.5,Sunset Strip - Hollywood Hills West,3882,6051,1977,1,663,,Active,September-22-2024 02:00 PM,September-22-2024 05:00 PM,https://www.redfin.com/CA/Los-Angeles/7346-Pacific-View-Dr-90068/home/5313499,TheMLS,24-441079,N,Y,34.1214405,-118.3539076
MLS Listing,,Single Family Residential,4340 Cezanne Ave,Woodland Hills,CA,91364,1689450,4,3.5,Woodland Hills,2806,11150,1967,1,602,,Active,,,https://www.redfin.com/CA/Woodland-Hills/4340-Cezanne-Ave-91364/home/4223514,TheMLS,24-437245,N,Y,34.1461759,-118.6034317
MLS Listing,,Single Family Residential,7774 Shadyspring Dr,Burbank,CA,91504,1199000,3,2.0,610 - Burbank,1763,6821,1950,1,680,,Active,September-21-2024 02:00 PM,September-21-2024 05:00 PM,https://www.redfin.com/CA/Burbank/7774-Shadyspring-Dr-91504/home/5268310,CRMLS,BB24187855,N,Y,34.2125395,-118.3462633
MLS Listing,,Multi-Family (2-4 Unit),1363 Hauser Blvd,Los Angeles,CA,90019,1399000,4,4.0,Beverly Center-Miracle Mile,3352,4923,1947,1,417,,Active,,,https://www.redfin.com/CA/Los-Angeles/1363-Hauser-Blvd-90019/home/6913953,TheMLS,24-441033,N,Y,34.0495539,-118.3566273
MLS Listing,,Condo/Co-op,7250 Franklin Ave #1106,Los Angeles,CA,90046,410000,0,1.0,Sunset Strip - Hollywood Hills West,449,53531,1964,1,913,857,Active,,,https://www.redfin.com/CA/Los-Angeles/7250-Franklin-Ave-90046/unit-1106/home/7114380,TheMLS,24-440993,N,Y,34.1032164,-118.3474659
MLS Listing,,Single Family Residential,4825 Lennox Ave,Sherman Oaks,CA,91423,3995000,5,7.0,Sherman Oaks,5594,10133,2024,1,714,,Active,September-22-2024 02:00 PM,September-22-2024 05:00 PM,https://www.redfin.com/CA/Sherman-Oaks/4825-Lennox-Ave-91423/home/4722940,TheMLS,24-440553,N,Y,34.1584422,-118.4457094
MLS Listing,,Multi-Family (2-4 Unit),830 S Norton Ave,Los Angeles,CA,90005,2490000,9,7.0,Hancock Park-Wilshire,4088,7257,1919,1,609,,Active,,,https://www.redfin.com/CA/Los-Angeles/830-S-Norton-Ave-90005/home/6917648,TheMLS,24-440271,N,Y,34.05739,-118.3185926
MLS Listing,,Single Family Residential,1606 Crater Ln,Los Angeles,CA,90077,1285000,2,2.0,Bel Air - Holmby Hills,988,2598,1965,1,1301,,Active,,,https://www.redfin.com/CA/Los-Angeles/1606-Crater-Ln-90077/home/6830387,TheMLS,24-440881,N,Y,34.1001378,-118.4433333
MLS Listing,,Single Family Residential,7774 Fountain Ave,West Hollywood,CA,90046,1595000,3,1.5,West Hollywood Vicinity,1253,4709,1920,1,1273,,Active,,,https://www.redfin.com/CA/West-Hollywood/7774-Fountain-Ave-90046/home/7106371,TheMLS,24-440975,N,Y,34.0942638,-118.3589771
MLS Listing,,Single Family Residential,3639 Oceanhill Way,Malibu,CA,90265,3195000,5,3.0,Malibu,2564,6723,1964,1,1246,10,Pre On-Market,,,https://www.redfin.com/CA/Malibu/3639-Oceanhill-Way-90265/home/6851042,TheMLS,24-397368,N,Y,34.0461546,-118.5715227
MLS Listing,,Condo/Co-op,9421-1/2 N Sepulveda Blvd #2,North Hills,CA,91343,714100,3,2.5,NOH - North Hills,1485,,2024,1,481,544,Active,,,https://www.redfin.com/CA/North-Hills/9005-2-Sepulveda-Blvd-91343/unit-2/home/191077992,CRMLS,SR24193413,N,Y,34.2340416,-118.4680135
MLS Listing,,Single Family Residential,4940 Don Pio Dr,Woodland Hills,CA,91364,1200000,4,2.5,WHLL - Woodland Hills,1827,5500,1963,1,657,,Pre On-Market,,,https://www.redfin.com/CA/Woodland-Hills/4940-Don-Pio-Dr-91364/home/4205172,CRMLS,SR24193432,N,Y,34.1580703,-118.6042595
MLS Listing,,Condo/Co-op,1211 S Shenandoah St #204,Los Angeles,CA,90035,995000,2,2.5,C19 - Beverly Center-Miracle Mile,1334,13291,1993,1,746,489,Active,September-22-2024 01:00 PM,September-22-2024 04:00 PM,https://www.redfin.com/CA/Los-Angeles/1211-S-Shenandoah-St-90035/unit-204/home/6812616,CRMLS,SR24193244,N,Y,34.0552571,-118.3818825
MLS Listing,,Single Family Residential,10714 Kurt St,Lakeview Terrace,CA,91342,1149879,4,2.0,SYL - Sylmar,1982,11027,1964,1,580,,Active,,,https://www.redfin.com/CA/Sylmar/10714-Kurt-St-91342/home/5464625,CRMLS,SR24192569,N,Y,34.2790873,-118.3646278
MLS Listing,,Condo/Co-op,116 Marmion Way #14,South Pasadena,CA,91030,570000,1,1.0,658 - So. Pasadena,735,24393,1989,1,776,331,Active,September-21-2024 02:00 PM,September-21-2024 04:00 PM,https://www.redfin.com/CA/South-Pasadena/116-Marmion-Way-91030/unit-14/home/7003288,CRMLS,WS24193462,N,Y,34.1114579,-118.1767981
MLS Listing,,Multi-Family (5+ Unit),150 S Alvarado St,Los Angeles,CA,90057,2275000,10,10.0,Downtown L.A.,6536,6388,1954,1,348,,Active,,,https://www.redfin.com/CA/Los-Angeles/150-S-Alvarado-St-90057/home/6934327,TheMLS,24-440959,N,Y,34.0651387,-118.2709116
MLS Listing,,Multi-Family (2-4 Unit),4936 Templeton St,Los Angeles,CA,90032,825000,6,3.0,621 - El Sereno,2350,7154,1922,1,351,,Active,,,https://www.redfin.com/CA/Los-Angeles/4936-Templeton-St-90032/home/6952047,CRMLS,GD24193391,N,Y,34.0816053,-118.1755554
MLS Listing,,Single Family Residential,13685 Terra Bella St,Arleta,CA,91331,649900,3,2.0,ARL - Arleta,1480,9395,1956,1,439,,Active,September-20-2024 12:00 PM,September-20-2024 02:00 PM,https://www.redfin.com/CA/Arleta/13685-Terra-Bella-St-91331/home/5655532,CRMLS,SR24193285,N,Y,34.2490408,-118.4315681
MLS Listing,,Condo/Co-op,2122 Century Park Lane Ln #402,Los Angeles,CA,90067,2250000,2,2.5,Westwood - Century City,1565,589458,1988,1,1438,1378,Active,,,https://www.redfin.com/CA/Los-Angeles/2122-Century-Park-Ln-90067/unit-402/home/6809871,TheMLS,24-439253,N,Y,34.0566647,-118.4117138
MLS Listing,,Multi-Family (2-4 Unit),6600 W 86th Pl,Los Angeles,CA,90045,1089000,4,2.0,Westchester,1926,6511,1949,1,565,,Active,,,https://www.redfin.com/CA/Los-Angeles/6600-W-86th-Pl-90045/home/6634886,TheMLS,24-439148,N,Y,33.959072,-118.404589
MLS Listing,,Single Family Residential,7923 Hooper Ave,Los Angeles,CA,90001,649000,3,2.0,699 - Not Defined,1000,4833,1957,1,649,,Active,,,https://www.redfin.com/CA/Los-Angeles/7923-Hooper-Ave-90001/home/7287694,CRMLS,DW24193378,N,Y,33.9667869,-118.2522448
MLS Listing,,Multi-Family (5+ Unit),1237 Amherst Ave,Los Angeles,CA,90025,3600000,12,10.0,WLA - West Los Angeles,6959,7004,1966,1,517,,Active,,,https://www.redfin.com/CA/Los-Angeles/1237-Amherst-Ave-90025/home/6758733,CRMLS,PW24193373,N,Y,34.0424089,-118.467593
MLS Listing,,Multi-Family (2-4 Unit),1606 N Kingsley Dr,Los Angeles,CA,90027,1250000,4,2.5,C20 - Hollywood,3100,6755,1911,1,403,,Active,,,https://www.redfin.com/CA/Los-Angeles/1606-N-Kingsley-Dr-90027/home/7112420,CRMLS,SR24190387,N,Y,34.1001615,-118.3029955
MLS Listing,,Single Family Residential,8469 Hollywood Blvd,Los Angeles,CA,90069,5950000,3,3.0,Sunset Strip - Hollywood Hills West,2715,15177,1936,1,2192,,Active,,,https://www.redfin.com/CA/Los-Angeles/8469-Hollywood-Blvd-90069/home/7120204,TheMLS,24-440733,N,Y,34.0992364,-118.3740625
MLS Listing,,Condo/Co-op,1411 N Detroit St #106,Los Angeles,CA,90046,900000,2,2.5,C20 - Hollywood,1370,19900,2009,1,657,464,Active,September-21-2024 12:00 AM,September-21-2024 03:00 PM,https://www.redfin.com/CA/Los-Angeles/1411-N-Detroit-St-90046/unit-106/home/40153482,CRMLS,OC24192678,N,Y,34.0965679,-118.3455322
MLS Listing,,Vacant Land,0 0,Los Angeles,CA,90063,80000,,,C34 - Los Angeles Southwest,,8370,,1,,,Active,,,https://www.redfin.com/CA/Hazard/Unknown-90063/home/146124491,CRMLS,AR24192373,N,Y,34.044024,-118.185404
MLS Listing,,Multi-Family (5+ Unit),12032 Magnolia Blvd,Valley Village,CA,91607,1200000,6,5.0,Valley Village,3670,6822,1950,1,327,,Active,,,https://www.redfin.com/CA/Valley-Village/12032-Magnolia-Blvd-91607/home/5212688,TheMLS,24-440513,N,Y,34.1646505,-118.3955561
MLS Listing,,Single Family Residential,2921 S Pacific Ave,San Pedro,CA,90731,765000,2,2.0,181 - Point Fermin,705,2500,1922,1,1085,,Active,,,https://www.redfin.com/CA/San-Pedro/2921-S-Pacific-Ave-90731/home/7696079,CRMLS,SB24193332,N,Y,33.7174587,-118.2882461
MLS Listing,,Multi-Family (2-4 Unit),2113 S Orange Dr,Los Angeles,CA,90016,1599999,6,5.0,Mid Los Angeles,3653,7204,1938,1,438,,Active,,,https://www.redfin.com/CA/Los-Angeles/2113-S-Orange-Dr-90016/home/6899969,TheMLS,24-440451,N,Y,34.0385574,-118.3509011
MLS Listing,,Condo/Co-op,12500 Huston St #108,Valley Village,CA,91607,890000,3,3.0,VVL - Valley Village,1817,18187,1964,1,490,550,Active,,,https://www.redfin.com/CA/Valley-Village/12500-Huston-St-91607/unit-108/home/5216179,CRMLS,SB24156309,N,Y,34.1593026,-118.4056762
MLS Listing,,Single Family Residential,1476 Carla Rdg,Beverly Hills,CA,90210,9295000,3,4.5,Beverly Hills,,25242,1959,1,,,Active,September-22-2024 02:00 PM,September-22-2024 05:00 PM,https://www.redfin.com/CA/Beverly-Hills/1476-Carla-Rdg-90210/home/6835078,TheMLS,24-440227,N,Y,34.0994697,-118.4001379
MLS Listing,,Single Family Residential,11726 Louise Ave,Granada Hills,CA,91344,1299950,4,2.0,GH - Granada Hills,2048,15653,1961,1,635,,Active,,,https://www.redfin.com/CA/Granada-Hills/11726-Louise-Ave-91344/home/5572251,CRMLS,SR24193114,N,Y,34.2836554,-118.5107987
MLS Listing,,Single Family Residential,4248 Vanetta Dr,Studio City,CA,91604,2999000,5,4.5,STUD - Studio City,4900,22346,1982,1,612,,Active,September-21-2024 02:00 PM,September-21-2024 04:00 PM,https://www.redfin.com/CA/Studio-City/4248-Vanetta-Dr-91604/home/5248722,CRMLS,BB24189787,N,Y,34.1415539,-118.4050984
MLS Listing,,Condo/Co-op,889 Francisco St #902,Los Angeles,CA,90017,628000,1,1.0,C42 - Downtown L.A.,750,98914,2017,1,837,1114,Active,,,https://www.redfin.com/CA/Los-Angeles/889-Francisco-St-90017/unit-902/home/142687149,CRMLS,WS24192961,N,Y,34.0480073,-118.264768
MLS Listing,,Multi-Family (2-4 Unit),14210 Sylvan St,Van Nuys,CA,91401,1170000,4,4.0,VN - Van Nuys,2052,8722,1940,1,570,,Active,,,https://www.redfin.com/CA/Van-Nuys/14210-Sylvan-St-91401/home/4641547,CRMLS,SR24193311,N,Y,34.184438,-118.4426771
MLS Listing,,Vacant Land,6928 Gentry Ave,North Hollywood,CA,91605,899000,,,Not Applicable,,8010,,1,,,Active,,,https://www.redfin.com/CA/North-Hollywood/6928-Gentry-Ave-91605/home/5048090,CRMLS,P1-19292,N,Y,34.1966608,-118.3930009
MLS Listing,,Single Family Residential,6422 S Figueroa St,Los Angeles,CA,90003,539000,3,2.0,Downtown L.A.,1496,4199,1910,1,360,,Active,,,https://www.redfin.com/CA/Los-Angeles/6422-S-Figueroa-St-90003/home/7272905,TheMLS,24-440839,N,Y,33.9808811,-118.2823762
MLS Listing,,Multi-Family (5+ Unit),1221 N Detroit St,West Hollywood,CA,90046,7987000,15,1.0,West Hollywood Vicinity,1630,6682,2023,1,4900,,Active,,,https://www.redfin.com/CA/West-Hollywood/1221-N-Detroit-St-90046/home/7107213,TheMLS,24-431297,N,Y,34.0932253,-118.3455063
MLS Listing,,Single Family Residential,7548 Troost Ave,North Hollywood,CA,91605,1020000,3,2.0,North Hollywood,1726,7157,1944,1,591,,Pre On-Market,,,https://www.redfin.com/CA/North-Hollywood/7548-Troost-Ave-91605/home/5028237,TheMLS,24-436121,N,Y,34.2079802,-118.3864021
MLS Listing,,Mobile/Manufactured Home,15455 Glenoaks Blvd #553,Sylmar,CA,91342,375000,2,2.0,Oakridge Mobile Home Park,1680,8194101,2017,1,223,,Active,,,https://www.redfin.com/CA/Sylmar/15455-Glenoaks-Blvd-91342/unit-553/home/192596012,CRMLS,WS24190580,N,Y,34.3272204,-118.4630148
MLS Listing,,Single Family Residential,5621 Valley Glen Way,Los Angeles,CA,90043,1080000,3,2.0,Park Hills Heights,1329,4986,1939,1,813,,Active,,,https://www.redfin.com/CA/Los-Angeles/5621-Valley-Glen-Way-90043/home/6866198,TheMLS,24-435861,N,Y,33.9906032,-118.3494701
MLS Listing,,Single Family Residential,4105 Crisp Canyon Rd,Sherman Oaks,CA,91403,3995000,4,4.0,Sherman Oaks,3257,16028,1932,1,1227,,Active,September-19-2024 06:00 PM,September-19-2024 08:00 PM,https://www.redfin.com/CA/Sherman-Oaks/4105-Crisp-Canyon-Rd-91403/home/4872278,TheMLS,24-440443,N,Y,34.1432572,-118.4564175
MLS Listing,,Single Family Residential,405 N Avenue 53,Los Angeles,CA,90042,1599000,3,2.0,Highland Park,1981,11993,1912,1,807,,Active,,,https://www.redfin.com/CA/Los-Angeles/405-N-Avenue-53-90042/home/7077847,TheMLS,24-440063,N,Y,34.1113168,-118.2004347
MLS Listing,,Multi-Family (2-4 Unit),956 Euclid Ave,Los Angeles,CA,90023,1335000,6,7.0,BOYH - Boyle Heights,,5490,2024,1,,,Pre On-Market,,,https://www.redfin.com/CA/Los-Angeles/956-Euclid-Ave-90023/home/6943824,CRMLS,MB24193235,N,Y,34.0291244,-118.2080816
MLS Listing,,Condo/Co-op,460 S Spring St #708,Los Angeles,CA,90013,370000,0,1.0,Downtown L.A.,510,30796,1912,1,725,645,Active,,,https://www.redfin.com/CA/Los-Angeles/460-S-Spring-St-90013/unit-708/home/17228297,TheMLS,24-440473,N,Y,34.0475743,-118.249297
MLS Listing,,Multi-Family (5+ Unit),138 N Soto St,Los Angeles,CA,90033,3495000,11,9.0,BOYH - Boyle Heights,13924,8910,1930,1,251,,Active,,,https://www.redfin.com/CA/Los-Angeles/138-N-Soto-St-90033/home/6940698,CRMLS,CV24193168,N,Y,34.0445772,-118.2087627
MLS Listing,,Single Family Residential,23300 ostronic,Woodland Hills,CA,91367,1599000,3,2.5,WHLL - Woodland Hills,2316,10501,1954,1,690,,Active,,,https://www.redfin.com/CA/Woodland-Hills/23300-Ostronic-Dr-91367/home/3257298,CRMLS,SR24191005,N,Y,34.1624522,-118.6344468
MLS Listing,,Multi-Family (2-4 Unit),615 W Colden Ave,Los Angeles,CA,90044,799000,8,4.0,699 - Not Defined,2592,6613,1921,1,308,,Active,,,https://www.redfin.com/CA/Los-Angeles/615-W-Colden-Ave-90044/home/7295831,CRMLS,DW24193206,N,Y,33.9494419,-118.2852378
MLS Listing,,Condo/Co-op,1315 S Roxbury Dr #101,Los Angeles,CA,90035,1099000,2,2.0,Beverlywood Vicinity,1608,11316,1979,1,683,525,Active,,,https://www.redfin.com/CA/Los-Angeles/1315-Roxbury-Dr-90035/unit-101/home/6810239,TheMLS,24-439501,N,Y,34.0552676,-118.4034006
MLS Listing,,Single Family Residential,12128 Viewcrest Rd,Studio City,CA,91604,5295000,4,4.5,Studio City,3356,5683,2024,1,1578,,Active,September-20-2024 11:00 AM,September-20-2024 02:00 PM,https://www.redfin.com/CA/Studio-City/12128-Viewcrest-Rd-91604/home/5241131,TheMLS,24-440669,N,Y,34.1387416,-118.3969212
MLS Listing,,Multi-Family (2-4 Unit),8656 Cadillac Ave,Los Angeles,CA,90034,1700000,5,5.0,C09 - Beverlywood Vicinity,2933,4999,1950,1,580,,Active,,,https://www.redfin.com/CA/Los-Angeles/8656-Cadillac-Ave-90034/home/6786113,CRMLS,SR24190183,N,Y,34.0386102,-118.3795467
MLS Listing,,Multi-Family (2-4 Unit),10620 Magnolia Blvd,North Hollywood,CA,91601,1590000,0,1.0,North Hollywood,2475,2506,1948,1,642,,Active,,,https://www.redfin.com/CA/North-Hollywood/10620-Magnolia-Blvd-91601/home/192594418,TheMLS,24-440765,N,Y,34.1646667,-118.3623922
MLS Listing,,Multi-Family (2-4 Unit),807 E 21st St,Los Angeles,CA,90011,1450000,4,7.5,Downtown L.A.,3340,7506,1898,1,434,,Active,,,https://www.redfin.com/CA/Los-Angeles/807-E-21st-St-90011/home/6930984,TheMLS,24-439737,N,Y,34.0255997,-118.2574122
MLS Listing,,Multi-Family (2-4 Unit),1922 Lake Shore Ave,Los Angeles,CA,90039,1495000,4,4.0,Silver Lake - Echo Park,2302,9999,1903,1,649,,Active,,,https://www.redfin.com/CA/Los-Angeles/1922-Lake-Shore-Ave-90039/home/7056228,TheMLS,24-440771,N,Y,34.0885759,-118.255276
MLS Listing,,Multi-Family (2-4 Unit),1226 Meadowbrook Ave,Los Angeles,CA,90019,2395000,6,6.0,Beverly Center-Miracle Mile,3464,6217,1926,1,691,,Active,,,https://www.redfin.com/CA/Los-Angeles/1226-Meadowbrook-Ave-90019/home/6913042,TheMLS,24-439415,N,Y,34.0526339,-118.3482711
MLS Listing,,Single Family Residential,7212 Mulholland Dr,Los Angeles,CA,90068,6350000,5,7.5,Sunset Strip - Hollywood Hills West,6934,4826,1989,1,916,,Active,September-22-2024 02:00 PM,September-22-2024 05:00 PM,https://www.redfin.com/CA/Los-Angeles/7212-Mulholland-Dr-90068/home/7126583,TheMLS,24-435465,N,Y,34.1200993,-118.3480731
MLS Listing,,Single Family Residential,2021 Cambridge Pl,South Pasadena,CA,91030,1998000,4,3.5,658 - So. Pasadena,2431,7489,1991,1,822,,Active,September-19-2024 11:00 AM,September-19-2024 02:00 PM,https://www.redfin.com/CA/South-Pasadena/2021-Cambridge-Pl-91030/home/7003079,CRMLS,P1-19289,N,Y,34.0993064,-118.1583388
MLS Listing,,Single Family Residential,1026 Oak Grove Dr,Los Angeles,CA,90041,979000,2,2.5,Eagle Rock,1463,5117,1925,1,669,,Active,September-19-2024 11:00 AM,September-19-2024 02:00 PM,https://www.redfin.com/CA/Los-Angeles/1026-Oak-Grove-Dr-90041/home/7084024,TheMLS,24-438563,N,Y,34.133003,-118.1906216
MLS Listing,,Single Family Residential,140 S Vendome St,Los Angeles,CA,90057,950000,7,2.0,106 - Los Angeles,1675,4230,1948,1,567,,Active,,,https://www.redfin.com/CA/Los-Angeles/140-S-Vendome-St-90057/home/6934648,CRMLS,NDP2408332,N,Y,34.0706163,-118.2826974
MLS Listing,,Single Family Residential,5960 Wilkinson Ave,Valley Village,CA,91607,1555999,3,3.0,VVL - Valley Village,2351,7297,1979,1,662,,Active,,,https://www.redfin.com/CA/Valley-Village/5960-Wilkinson-Ave-91607/home/5162018,CRMLS,SR24192183,N,Y,34.1789941,-118.4039491
MLS Listing,,Multi-Family (2-4 Unit),4307 Clinton St,Los Angeles,CA,90004,1100000,4,4.0,Mid-Wilshire,4044,4078,1921,1,272,,Active,,,https://www.redfin.com/CA/Los-Angeles/4307-Clinton-St-90004/home/7098068,TheMLS,24-440741,N,Y,34.0814423,-118.2972058
MLS Listing,,Single Family Residential,15501 Covello St,Van Nuys,CA,91406,750000,2,1.0,VN - Van Nuys,797,6261,1948,1,941,,Pre On-Market,September-21-2024 01:00 PM,September-21-2024 04:00 PM,https://www.redfin.com/CA/Van-Nuys/15501-Covello-St-91406/home/4484057,CRMLS,SR24192052,N,Y,34.2076679,-118.4707878
MLS Listing,,Single Family Residential,313 Museum Dr,Los Angeles,CA,90065,839000,2,1.0,Mt Washington,704,4550,1923,1,1192,,Pre On-Market,,,https://www.redfin.com/CA/Los-Angeles/313-Museum-Dr-90065/home/7076051,TheMLS,24-439417,N,Y,34.1003134,-118.2078189
MLS Listing,,Single Family Residential,955 S Ardmore Ave,Los Angeles,CA,90006,1100000,3,2.0,Mid-Wilshire,1199,5907,1913,1,917,,Active,,,https://www.redfin.com/CA/Los-Angeles/955-S-Ardmore-Ave-90006/home/6910171,TheMLS,24-440727,N,Y,34.0539766,-118.3023523
MLS Listing,,Single Family Residential,508 N Sweetzer Ave,Los Angeles,CA,90048,2749995,4,4.5,West Hollywood Vicinity,3827,6534,2020,1,719,225,Active,September-22-2024 01:00 PM,September-22-2024 04:00 PM,https://www.redfin.com/CA/Los-Angeles/508-N-Sweetzer-Ave-90048/home/177449255,TheMLS,24-440579,N,Y,34.0804212,-118.3701099
MLS Listing,,Single Family Residential,10007 Burnet Ave,Mission Hills (san Fernando),CA,91345,825000,3,2.0,MHL - Mission Hills,1243,7983,1954,1,664,,Active,September-21-2024 01:00 PM,September-21-2024 03:00 PM,https://www.redfin.com/CA/Mission-Hills/10007-Burnet-Ave-91345/home/5697373,CRMLS,SR24191066,N,Y,34.2521139,-118.4633306
MLS Listing,,Single Family Residential,7745 Stagg Ln,Winnetka,CA,91306,1389000,4,4.0,WIN - Winnetka,3047,5506,2016,1,456,150,Active,,,https://www.redfin.com/CA/Winnetka/7745-Stagg-Ln-91306/home/110207991,CRMLS,SR24193098,N,Y,34.2119126,-118.5636307
MLS Listing,,Vacant Land,0 Torreon Dr,Woodland Hills,CA,91364,64464,,,WHLL - Woodland Hills,,13181,,1,,,Active,,,https://www.redfin.com/CA/Los-Angeles/Torreon-Dr-91364/home/22127520,CRMLS,BB24189742,N,Y,34.14759,-118.598615
MLS Listing,,Single Family Residential,1008 Oakwood Ave,Venice,CA,90291,4299000,4,3.5,Venice,3308,3838,2024,1,1300,,Active,September-22-2024 10:00 AM,September-22-2024 12:00 PM,https://www.redfin.com/CA/Venice/1008-Oakwood-Ave-90291/home/6742145,TheMLS,24-440683,N,Y,33.9963655,-118.4644294
MLS Listing,,Single Family Residential,3418 Grand View Blvd,Los Angeles,CA,90066,3950000,5,5.5,Palms - Mar Vista,3691,5875,2019,1,1070,,Active,September-21-2024 02:00 PM,September-21-2024 04:00 PM,https://www.redfin.com/CA/Los-Angeles/3418-Grand-View-Blvd-90066/home/6748790,TheMLS,24-440143,N,Y,34.0133163,-118.4372383
MLS Listing,,Condo/Co-op,3613 Glendon Ave #304,Los Angeles,CA,90034,1249000,2,2.5,Palms - Mar Vista,1685,10737,1991,1,741,730,Active,,,https://www.redfin.com/CA/Los-Angeles/3613-Glendon-Ave-90034/unit-304/home/6752282,TheMLS,24-440059,N,Y,34.0210315,-118.4117974
MLS Listing,,Single Family Residential,7219 Spring Ct,West Hills,CA,91307,1250000,5,3.0,WEH - West Hills,2304,1490750,1987,1,543,228,Active,,,https://www.redfin.com/CA/West-Hills/7219-Spring-Ct-91307/home/3119049,CRMLS,SR24184712,N,Y,34.2013188,-118.6356824
MLS Listing,,Multi-Family (2-4 Unit),4524 Hammel St,Los Angeles,CA,90022,850000,6,4.0,699 - Not Defined,1969,5299,1941,1,432,,Active,September-21-2024 12:00 PM,September-21-2024 03:00 PM,https://www.redfin.com/CA/Los-Angeles/4524-Hammel-St-90022/home/6959949,CRMLS,DW24191024,N,Y,34.0421972,-118.1684519
MLS Listing,,Multi-Family (5+ Unit),1904 S Robertson Blvd,Los Angeles,CA,90034,7400000,33,,C09 - Beverlywood Vicinity,17440,21482,1954,1,424,,Active,,,https://www.redfin.com/CA/Los-Angeles/1904-S-Robertson-Blvd-90034/home/6786685,CRMLS,CV24193075,N,Y,34.0441434,-118.3864363
MLS Listing,,Single Family Residential,1776 S Garth Ave,Los Angeles,CA,90035,1749000,3,2.5,Beverlywood Vicinity,1803,5340,1936,1,970,,Active,September-22-2024 01:00 PM,September-22-2024 04:00 PM,https://www.redfin.com/CA/Los-Angeles/1776-S-Garth-Ave-90035/home/6787898,TheMLS,24-440305,N,Y,34.0451996,-118.3776555
MLS Listing,,Single Family Residential,14030 Remington St,Arleta,CA,91331,700000,3,1.0,ARL - Arleta,1116,6435,1951,1,627,,Pre On-Market,September-21-2024 12:00 PM,September-21-2024 03:00 PM,https://www.redfin.com/CA/Arleta/14030-Remington-St-91331/home/5648931,CRMLS,SR24192170,N,Y,34.2442279,-118.4388428
MLS Listing,,Vacant Land,1637 S Vermont Ave,Los Angeles,CA,90006,2690000,,,Mid Los Angeles,,12750,,1,,,Active,,,https://www.redfin.com/CA/Los-Angeles/1637-S-Vermont-Ave-90006/home/22698712,TheMLS,24-440665,N,Y,34.043104,-118.291891
MLS Listing,,Single Family Residential,210 N Berendo St,Los Angeles,CA,90004,1547000,4,3.0,C17 - Mid-Wilshire,2135,7502,1921,1,725,,Active,,,https://www.redfin.com/CA/Los-Angeles/210-N-Berendo-St-90004/home/7097888,CRMLS,OC24177206,N,Y,34.0749045,-118.293881
MLS Listing,,Single Family Residential,16705 Charmel Ln,Pacific Palisades,CA,90272,4599000,4,3.5,Pacific Palisades,2899,14799,1966,1,1586,,Active,September-22-2024 02:00 PM,September-22-2024 05:00 PM,https://www.redfin.com/CA/Pacific-Palisades/16705-Charmel-Ln-90272/home/6845213,TheMLS,24-440663,N,Y,34.0581219,-118.5485965
MLS Listing,,Condo/Co-op,200 N Swall Dr Unit L252,Beverly Hills,CA,90211,1430000,2,2.0,C01 - Beverly Hills,1597,96939,1986,1,895,1978,Active,,,https://www.redfin.com/CA/Beverly-Hills/200-N-Swall-Dr-90211/unit-L252/home/6815768,CRMLS,SB24167116,N,Y,34.0701825,-118.3852016
MLS Listing,,Multi-Family (2-4 Unit),1612 W 226th St,Torrance,CA,90501,1800000,8,4.0,134 - Old Torrance,3124,7202,1948,1,576,,Active,,,https://www.redfin.com/CA/Torrance/1612-W-226th-St-90501/home/7647077,CRMLS,OC24192375,N,Y,33.8210102,-118.3069337
MLS Listing,,Single Family Residential,15945 Gledhill St,North Hills,CA,91343,1050000,4,2.5,NOH - North Hills,2155,8440,1959,1,487,,Active,,,https://www.redfin.com/CA/North-Hills/15945-Gledhill-St-91343/home/5715990,CRMLS,SR24191514,N,Y,34.2421855,-118.4800274
MLS Listing,,Multi-Family (2-4 Unit),926 W Oliver St,San Pedro,CA,90731,810000,6,3.5,187 - Holy Trinity,2509,4874,1920,1,323,,Active,,,https://www.redfin.com/CA/San-Pedro/926-W-Oliver-St-90731/home/7687509,CRMLS,DW24187920,N,Y,33.7470601,-118.2974094
MLS Listing,,Condo/Co-op,1342 N Sierra Bonita Ave #102,West Hollywood,CA,90046,595000,2,2.0,West Hollywood Vicinity,869,8108,1991,1,685,577,Active,September-22-2024 02:00 PM,September-22-2024 04:15 PM,https://www.redfin.com/CA/West-Hollywood/1342-N-Sierra-Bonita-Ave-90046/unit-102/home/7115802,TheMLS,24-440009,N,Y,34.0956959,-118.3537405
MLS Listing,,Condo/Co-op,18350 Hatteras St #141,Tarzana,CA,91356,399000,2,2.0,Tarzana,870,234363,1972,1,459,516,Active,September-21-2024 01:00 PM,September-21-2024 03:00 PM,https://www.redfin.com/CA/Tarzana/18350-Hatteras-St-91356/unit-141/home/8183024,TheMLS,24-437285,N,Y,34.177325,-118.5323416
MLS Listing,,Condo/Co-op,1509 Greenfield Ave #205,Los Angeles,CA,90025,999000,2,2.0,Westwood - Century City,1667,26865,1973,2,599,600,Active,,,https://www.redfin.com/CA/Los-Angeles/1509-Greenfield-Ave-90025/unit-205/home/6802383,TheMLS,24-440631,N,Y,34.0515056,-118.4441028
MLS Listing,,Multi-Family (2-4 Unit),3886 S Van Ness Ave S,Los Angeles,CA,90062,968500,4,2.0,PHHT - Park Hills Heights,1602,5063,1923,2,605,,Active,,,https://www.redfin.com/CA/Los-Angeles/3886-S-Van-Ness-Ave-90062/home/6882717,CRMLS,SR24192660,N,Y,34.0148884,-118.3168141
MLS Listing,,Multi-Family (2-4 Unit),1943 W 39th St,Los Angeles,CA,90062,907000,8,4.0,PHHT - Park Hills Heights,2520,5146,1923,2,360,,Active,,,https://www.redfin.com/CA/Los-Angeles/1943-W-39th-St-90062/home/6882718,CRMLS,SR24192979,N,Y,34.014785,-118.3166638
MLS Listing,,Multi-Family (2-4 Unit),1206 N Normandie Ave,Los Angeles,CA,90029,1200000,3,2.0,Los Angeles,1945,6969,1916,2,617,,Active,,,https://www.redfin.com/CA/Los-Angeles/1206-N-Normandie-Ave-90029/home/7111021,AVMLS,24006989,N,Y,34.093582,-118.3002571
MLS Listing,,Single Family Residential,6069 Gloucester St,Los Angeles,CA,90022,640000,2,1.0,699 - Not Defined,884,3889,1940,2,724,,Active,,,https://www.redfin.com/CA/Los-Angeles/6069-Gloucester-St-90022/home/7431825,CRMLS,MB24192974,N,Y,34.0118795,-118.1418286
MLS Listing,,Single Family Residential,3345 Oakhurst Ave,Los Angeles,CA,90034,1925000,3,3.0,C09 - Beverlywood Vicinity,1665,4377,1929,2,1156,,Pre On-Market,,,https://www.redfin.com/CA/Los-Angeles/3345-Oakhurst-Ave-90034/home/6792752,CRMLS,SR24192921,N,Y,34.0301484,-118.3976998
MLS Listing,,Townhouse,12752 N Watt Ln Unit B,Sylmar,CA,91342,699000,4,4.0,SYL - Sylmar,1780,23907,2019,2,393,300,Active,September-21-2024 02:00 PM,September-21-2024 05:00 PM,https://www.redfin.com/CA/Sylmar/12752-N-Watt-Ln-91342/unit-B/home/169776122,CRMLS,SR24192799,N,Y,34.3023888,-118.4236351
MLS Listing,,Multi-Family (2-4 Unit),1116 N Madison Ave,Los Angeles,CA,90029,1280000,6,4.0,Silver Lake - Echo Park,3268,7709,1905,2,392,,Active,,,https://www.redfin.com/CA/Los-Angeles/1116-N-Madison-Ave-90029/home/7111813,TheMLS,24-440335,N,Y,34.091545,-118.2889051
MLS Listing,,Single Family Residential,18913 Ballinger St,Northridge,CA,91324,959000,3,3.0,Northridge,2001,7620,1963,2,479,,Active,September-21-2024 12:00 PM,September-21-2024 04:00 PM,https://www.redfin.com/CA/Northridge/18913-Ballinger-St-91324/home/5854858,TheMLS,24-440563,N,Y,34.2441642,-118.5455767
MLS Listing,,Condo/Co-op,8787 Shoreham Dr #109,West Hollywood,CA,90069,820000,1,2.0,Sunset Strip - Hollywood Hills West,862,48023,1963,2,951,1821,Pre On-Market,,,https://www.redfin.com/CA/West-Hollywood/8787-Shoreham-Dr-90069/unit-109/home/7120515,TheMLS,24-440567,N,Y,34.0927247,-118.3828802
MLS Listing,,Single Family Residential,2958 Hillcrest Dr,Los Angeles,CA,90016,950000,3,1.0,Mid Los Angeles,1188,4400,1927,2,800,,Active,,,https://www.redfin.com/CA/Los-Angeles/2958-Hillcrest-Dr-90016/home/6892478,TheMLS,24-431517,N,Y,34.02775,-118.3426389
MLS Listing,,Condo/Co-op,2160 Century Park East #802,Los Angeles,CA,90067,855000,2,2.0,Westwood - Century City,1070,223100,1966,2,799,1360,Active,,,https://www.redfin.com/CA/Los-Angeles/2160-Century-Park-E-90067/unit-802/home/6808643,TheMLS,24-439497,N,Y,34.0585574,-118.4112443
MLS Listing,,Multi-Family (2-4 Unit),14 Northstar St,Marina Del Rey,CA,90292,3000000,4,4.0,Marina Del Rey,2092,3150,1924,2,1434,,Active,,,https://www.redfin.com/CA/Marina-del-Rey/14-Northstar-St-90292/home/6782562,TheMLS,24-439987,N,Y,33.9717514,-118.4600491
MLS Listing,,Multi-Family (2-4 Unit),836 W 93rd St,Los Angeles,CA,90044,850000,6,4.0,C34 - Los Angeles Southwest,2123,5407,1924,2,400,,Active,September-21-2024 12:00 PM,September-21-2024 03:00 PM,https://www.redfin.com/CA/Los-Angeles/836-W-93rd-St-90044/home/7296088,CRMLS,DW24192642,N,Y,33.9516792,-118.2906433
MLS Listing,,Single Family Residential,4525 4th Ave,Los Angeles,CA,90043,899000,2,2.0,Park Hills Heights,1035,5400,1921,2,869,,Active,September-22-2024 02:00 PM,September-22-2024 05:00 PM,https://www.redfin.com/CA/Los-Angeles/4525-4th-Ave-90043/home/6869544,TheMLS,24-439855,N,Y,34.0019552,-118.3216824
MLS Listing,,Single Family Residential,755 Napoli Dr,Pacific Palisades,CA,90272,18995000,7,8.0,Pacific Palisades,10603,16186,2023,2,1791,,Active,,,https://www.redfin.com/CA/Pacific-Palisades/755-Napoli-Dr-90272/home/6839598,TheMLS,24-437641,N,Y,34.0421075,-118.5102885
MLS Listing,,Single Family Residential,2791 Ellison Dr,Beverly Hills,CA,90210,10250000,5,6.0,Beverly Hills Post Office,5806,45943,1965,2,1765,,Active,,,https://www.redfin.com/CA/Beverly-Hills/2791-Ellison-Dr-90210/home/6833847,TheMLS,24-430381,N,Y,34.1222018,-118.4255512
MLS Listing,,Single Family Residential,4719 Wortser Ave,Sherman Oaks,CA,91423,1599000,3,3.0,SO - Sherman Oaks,2029,8783,1940,2,788,,Pre On-Market,September-22-2024 12:00 AM,September-22-2024 11:59 PM,https://www.redfin.com/CA/Sherman-Oaks/4719-Wortser-Ave-91423/home/5221035,CRMLS,SR24184360,N,Y,34.156366,-118.4173597
MLS Listing,,Single Family Residential,1452 E 91st St,Los Angeles,CA,90019,800000,5,3.0,Los Angeles,1748,7127,,2,458,,Active,,,https://www.redfin.com/CA/Los-Angeles/1452-E-91st-ST-90019/home/192582216,TCMLS,231383,N,Y,33.954119,-118.24849
MLS Listing,,Multi-Family (2-4 Unit),1943 Hancock St,Los Angeles,CA,90031,2780000,14,13.0,Lincoln Heights,6454,6253,2024,2,431,,Active,,,https://www.redfin.com/CA/Los-Angeles/1943-Hancock-St-90031/home/6947974,TheMLS,24-438453,N,Y,34.0673018,-118.209237
MLS Listing,,Condo/Co-op,11670 W Sunset Blvd #210,Los Angeles,CA,90049,599000,1,1.0,Brentwood,778,30791,1956,2,770,357,Active,,,https://www.redfin.com/CA/Los-Angeles/11670-W-Sunset-Blvd-90049/unit-210/home/17243362,TheMLS,24-438333,N,Y,34.065716,-118.4699269
MLS Listing,,Single Family Residential,1616 W 25th St,Los Angeles,CA,90007,1350000,4,3.0,Mid Los Angeles,3184,8129,1902,2,424,,Active,September-21-2024 01:00 PM,September-21-2024 03:00 PM,https://www.redfin.com/CA/Los-Angeles/1616-W-25th-St-90007/home/6895239,TheMLS,24-440153,N,Y,34.0334718,-118.2979964
MLS Listing,,Single Family Residential,7046 Darnoch Way,West Hills,CA,91307,1399000,4,3.0,West Hills,2533,11194,1961,2,552,,Active,,,https://www.redfin.com/CA/West-Hills/7046-Darnoch-Way-91307/home/3141369,TheMLS,24-440041,N,Y,34.1983952,-118.6437182
MLS Listing,,Condo/Co-op,11775 W Sunset Blvd,Los Angeles,CA,90049,1199900,2,2.5,Brentwood,1252,45120,1955,2,958,660,Active,September-22-2024 02:00 PM,September-22-2024 05:00 PM,https://www.redfin.com/CA/Los-Angeles/11775-W-Sunset-Blvd-90049/home/17243339,TheMLS,24-439142,N,Y,34.063823,-118.471846
MLS Listing,,Single Family Residential,5025 Buchanan St,Los Angeles,CA,90042,999900,3,2.0,632 - Highland Park,1174,5400,1923,2,852,,Active,,,https://www.redfin.com/CA/Los-Angeles/5025-Buchanan-St-90042/home/7081844,CRMLS,CV24191141,N,Y,34.1197415,-118.2063891
MLS Listing,,Condo/Co-op,423 Arnaz Dr #102,Los Angeles,CA,90048,959000,2,2.0,Beverly Center-Miracle Mile,1220,12504,2008,2,786,635,Active,,,https://www.redfin.com/CA/Los-Angeles/423-Arnaz-Dr-90048/unit-102/home/22608641,TheMLS,24-439951,N,Y,34.0713269,-118.3830208
MLS Listing,,Condo/Co-op,8801 Independence Ave #11,Canoga Park,CA,91304,330000,1,1.0,CP - Canoga Park,626,41004,1978,2,527,455,Active,,,https://www.redfin.com/CA/Canoga-Park/8801-Independence-Ave-91304/unit-11/home/5868232,CRMLS,PW24192390,N,Y,34.2301873,-118.5908794
MLS Listing,,Single Family Residential,6736 Sunnyslope Ave,Valley Glen,CA,91401,949000,3,2.0,VG - Valley Glen,1615,6963,1956,2,588,,Active,,,https://www.redfin.com/CA/Van-Nuys/6736-Sunnyslope-Ave-91401/home/5094395,CRMLS,SR24192777,N,Y,34.1931694,-118.4266131
MLS Listing,,Condo/Co-op,5335 Cartwright Ave #4,North Hollywood,CA,91601,689000,2,2.0,North Hollywood,980,6762,2008,2,703,468,Active,,,https://www.redfin.com/CA/North-Hollywood/5335-Cartwright-Ave-91601/unit-4/home/21917446,TheMLS,24-439691,N,Y,34.167669,-118.363526
MLS Listing,,Single Family Residential,1721 Mccollum St,Los Angeles,CA,90026,2500000,4,3.0,Silver Lake - Echo Park,2496,9500,1983,2,1002,210,Active,,,https://www.redfin.com/CA/Los-Angeles/1721-McCollum-St-90026/home/7057891,TheMLS,24-440539,N,Y,34.0883466,-118.2646972
MLS Listing,,Townhouse,18701 Hatteras St #3,Tarzana,CA,91356,925000,3,3.0,TAR - Tarzana,2033,46174,1981,2,455,534,Active,September-21-2024 12:00 PM,September-21-2024 03:00 PM,https://www.redfin.com/CA/Tarzana/18701-Hatteras-St-91356/unit-3/home/4048936,CRMLS,GD24192547,N,Y,34.1779098,-118.5410164
MLS Listing,,Vacant Land,0 Vanland Trl,Los Angeles,CA,90068,195750,,,C03 - Sunset Strip - Hollywood Hills West,,2709,,2,,,Active,,,https://www.redfin.com/CA/Hollywood/Vanland-TRL-90068/home/172027047,CRMLS,SW24192840,N,Y,34.122682,-118.34452
MLS Listing,,Single Family Residential,7701 Lexington Ave,West Hollywood,CA,90046,1499500,2,1.0,West Hollywood Vicinity,1182,5466,1915,2,1269,,Active,,,https://www.redfin.com/CA/West-Hollywood/7701-Lexington-Ave-90046/home/7106532,TheMLS,24-440453,N,Y,34.0928471,-118.3568555
MLS Listing,,Single Family Residential,9100 Cordell Dr,Los Angeles,CA,90069,14850000,4,5.0,Sunset Strip - Hollywood Hills West,,28160,1948,2,,,Active,,,https://www.redfin.com/CA/Los-Angeles/9100-Cordell-Dr-90069/home/7121294,TheMLS,24-439151,N,Y,34.0939718,-118.3897204
MLS Listing,,Townhouse,18550 Hatteras St #19,Tarzana,CA,91356,622000,2,2.5,TAR - Tarzana,1203,191794,1975,2,517,565,Pre On-Market,September-21-2024 02:00 PM,September-21-2024 04:00 PM,https://www.redfin.com/CA/Tarzana/18550-Hatteras-St-91356/unit-19/home/4060149,CRMLS,CV24192568,N,Y,34.1771803,-118.5380431
MLS Listing,,Condo/Co-op,2304 S Beverly Glen Blvd #301,Los Angeles,CA,90064,985000,2,2.0,Westwood - Century City,1332,13075,1972,2,739,520,Pre On-Market,,,https://www.redfin.com/CA/Los-Angeles/2304-S-Beverly-Glen-Blvd-90064/unit-301/home/6795368,TheMLS,24-439849,N,Y,34.0485481,-118.4185637
MLS Listing,,Single Family Residential,241 N Catalina St,Los Angeles,CA,90004,1500000,4,2.0,Mid-Wilshire,1733,7420,1922,2,866,,Active,,,https://www.redfin.com/CA/Los-Angeles/241-N-Catalina-St-90004/home/7097742,TheMLS,24-440487,N,Y,34.0757385,-118.2957585
MLS Listing,,Single Family Residential,4949 Sancola Ave,Toluca Lake,CA,91601,1495000,2,2.5,Toluca Lake,2356,5632,1938,2,635,,Active,,,https://www.redfin.com/CA/North-Hollywood/4949-Sancola-Ave-91601/home/5299435,TheMLS,24-434345,N,Y,34.1607454,-118.354267
MLS Listing,,Single Family Residential,14912 W Navarre Way,Sylmar,CA,91342,709000,4,3.0,SYL - Sylmar,1574,2443,2017,2,450,20,Active,,,https://www.redfin.com/CA/Sylmar/14912-W-Navarre-Way-91342/home/143102794,CRMLS,SR24192277,N,Y,34.2946673,-118.4554378
MLS Listing,,Multi-Family (2-4 Unit),2241 Glover Pl,Los Angeles,CA,90031,998000,6,5.0,632 - Highland Park,2330,4844,1960,2,428,,Pre On-Market,,,https://www.redfin.com/CA/Los-Angeles/2241-Glover-Pl-90031/home/7069402,CRMLS,PW24192766,N,Y,34.0905623,-118.2370788
MLS Listing,,Condo/Co-op,10433 Wilshire Blvd #302,Los Angeles,CA,90024,949000,2,2.5,Westwood - Century City,1418,31468,1963,2,669,1579,Active,,,https://www.redfin.com/CA/Los-Angeles/10433-Wilshire-Blvd-90024/unit-302/home/6826538,TheMLS,24-440411,N,Y,34.0663496,-118.4308891
MLS Listing,,Single Family Residential,3929 Fredonia Dr,Los Angeles,CA,90068,4590000,5,4.0,Studio City,4963,19193,1951,2,925,,Active,September-21-2024 02:00 PM,September-21-2024 05:00 PM,https://www.redfin.com/CA/Los-Angeles/3929-Fredonia-Dr-90068/home/5253485,TheMLS,24-440466,N,Y,34.1348825,-118.364571
MLS Listing,,Single Family Residential,4568 Ellenwood Dr,Eagle Rock,CA,90041,1099999,3,2.0,618 - Eagle Rock,1116,5188,1907,2,986,,Active,September-21-2024 02:00 PM,September-21-2024 04:00 PM,https://www.redfin.com/CA/Los-Angeles/4568-Ellenwood-Dr-90041/home/7079802,CRMLS,BB24192528,N,Y,34.1284037,-118.2191664
MLS Listing,,Single Family Residential,4551 Eagle St,East Los Angeles,CA,90022,499000,2,1.0,ELA - East Los Angeles,792,4121,1922,2,630,,Active,,,https://www.redfin.com/CA/Los-Angeles/4551-Eagle-St-90022/home/6966084,CRMLS,SR24192742,N,Y,34.0294172,-118.1675371
MLS Listing,,Single Family Residential,3959 Tropical Dr,Studio City,CA,91604,1690000,3,3.5,STUD - Studio City,2445,6443,1920,2,691,,Active,September-21-2024 01:00 PM,September-21-2024 04:00 PM,https://www.redfin.com/CA/Studio-City/3959-Tropical-Dr-91604/home/5252408,CRMLS,SR24192523,N,Y,34.1395787,-118.3774963
MLS Listing,,Condo/Co-op,9207 Cedros Ave Unit A,Panorama City,CA,91402,499000,3,2.5,PC - Panorama City,1461,66342,1989,2,342,340,Active,,,https://www.redfin.com/CA/Panorama-City/9207-Cedros-Ave-91402/unit-A/home/5673897,CRMLS,PW24192058,N,Y,34.2376659,-118.4540891
MLS Listing,,Condo/Co-op,20327 Saticoy St #205,Winnetka,CA,91306,425000,2,2.0,WIN - Winnetka,850,35262,1978,2,500,270,Pre On-Market,,,https://www.redfin.com/CA/Winnetka/20327-Saticoy-St-91306/unit-205/home/17228990,CRMLS,SR24192650,N,Y,34.208647,-118.5765214
MLS Listing,,Single Family Residential,25532 Senator Ave,Harbor City,CA,90710,659900,2,1.0,124 - Harbor City,904,5076,1929,2,730,,Active,,,https://www.redfin.com/CA/Harbor-City/25532-Senator-Ave-90710/home/7671823,CRMLS,SB24192724,N,Y,33.7917746,-118.3025662
MLS Listing,,Single Family Residential,6103 S Citrus Ave,Los Angeles,CA,90043,949000,2,2.0,Park Hills Heights,1163,6320,1938,2,816,,Active,,,https://www.redfin.com/CA/Los-Angeles/6103-S-Citrus-Ave-90043/home/6447606,TheMLS,24-440415,N,Y,33.9844554,-118.3563237
MLS Listing,,Multi-Family (2-4 Unit),1340 N Wilmington Blvd,Wilmington,CA,90744,660000,3,5.0,195 - West Wilmington,1504,5730,1929,2,439,,Active,,,https://www.redfin.com/CA/Wilmington/1340-N-Wilmington-Blvd-90744/home/7675197,CRMLS,SR24192133,N,Y,33.789816,-118.274542
MLS Listing,,Condo/Co-op,4230 Colfax Ave #101,Studio City,CA,91604,899000,3,3.0,Studio City,1420,11459,1989,2,633,570,Active,September-22-2024 03:00 PM,September-22-2024 05:00 PM,https://www.redfin.com/CA/Studio-City/4230-Colfax-Ave-91604/unit-101/home/5238781,TheMLS,24-438971,N,Y,34.1464977,-118.3873303
MLS Listing,,Condo/Co-op,5460 White Oak Ave Unit E323,Encino,CA,91316,260000,1,1.5,ENC - Encino,712,406432,1971,2,365,759,Active,,,https://www.redfin.com/CA/Encino/5460-White-Oak-Ave-91316/unit-E323/home/4776887,CRMLS,SR24192536,N,Y,34.1705601,-118.5166391
MLS Listing,,Single Family Residential,1322 N June St,Los Angeles,CA,90028,1549000,4,3.5,632 - Highland Park,1530,5118,1917,2,1012,,Pre On-Market,,,https://www.redfin.com/CA/Los-Angeles/1322-N-June-St-90028/home/7113465,CRMLS,RS24173670,N,Y,34.0950796,-118.3340029
MLS Listing,,Multi-Family (2-4 Unit),1332 E 21st St,Los Angeles,CA,90011,765000,4,2.0,C23 - Metropolitan,1488,5760,1922,2,514,,Active,,,https://www.redfin.com/CA/Los-Angeles/1332-E-21st-St-90011/home/6928060,CRMLS,TR24192617,N,Y,34.02176,-118.2514952
MLS Listing,,Condo/Co-op,4506 Dockweiler St #303,Los Angeles,CA,90019,576000,1,1.0,Hancock Park-Wilshire,640,9859,2024,2,900,419,Active,,,https://www.redfin.com/CA/Los-Angeles/4506-Dockweiler-St-90019/unit-303/home/192581772,TheMLS,24-440251,N,Y,34.0501453,-118.3335627
MLS Listing,,Single Family Residential,11740 Crescenda St,Los Angeles,CA,90049,64500000,8,11.0,Brentwood,20000,153862,2005,2,3225,,Active,,,https://www.redfin.com/CA/Los-Angeles/11740-Crescenda-St-90049/home/17225372,TheMLS,24-435519,N,Y,34.0668439,-118.4726148
MLS Listing,,Single Family Residential,1424 N Mohawk St,Los Angeles,CA,90026,2195000,5,4.5,Silver Lake - Echo Park,3396,2875,2024,2,646,170,Active,,,https://www.redfin.com/CA/Los-Angeles/1424-Mohawk-St-90026/home/192581771,TheMLS,24-419921,N,Y,34.0820434,-118.2632045
MLS Listing,,Condo/Co-op,4506 Dockweiler St #402,Los Angeles,CA,90019,799000,2,2.0,Hancock Park-Wilshire,992,9859,2024,2,805,419,Active,,,https://www.redfin.com/CA/Los-Angeles/4506-Dockweiler-St-90019/unit-402/home/192581770,TheMLS,24-440255,N,Y,34.0501453,-118.3335627
MLS Listing,,Vacant Land,3664 Oakfield Dr,Sherman Oaks,CA,91423,765000,,,Sherman Oaks,,14029,,2,,,Active,,,https://www.redfin.com/CA/Sherman-Oaks/3664-Oakfield-Dr-91423/home/22951465,TheMLS,24-439453,N,Y,34.137868,-118.44811
MLS Listing,,Vacant Land,3654 Oakfield Dr,Sherman Oaks,CA,91423,895000,,,Sherman Oaks,,13642,,2,,,Active,,,https://www.redfin.com/CA/Sherman-Oaks/3654-Oakfield-Dr-91423/home/22915918,TheMLS,24-439437,N,Y,34.13754,-118.448305
MLS Listing,,Single Family Residential,537 W 49th Pl,Los Angeles,CA,90037,650000,3,1.0,C34 - Los Angeles Southwest,1030,4202,1910,2,631,,Active,,,https://www.redfin.com/CA/Los-Angeles/537-W-49th-Pl-90037/home/6872702,CRMLS,IV24192614,N,Y,33.9981896,-118.2840846
MLS Listing,,Single Family Residential,8673 Hollywood Blvd,Los Angeles,CA,90069,6895000,4,4.5,Sunset Strip - Hollywood Hills West,4852,11659,1953,2,1421,,Active,September-22-2024 02:00 PM,September-22-2024 05:00 PM,https://www.redfin.com/CA/Los-Angeles/8673-Hollywood-Blvd-90069/home/7120099,TheMLS,24-440351,N,Y,34.0976801,-118.3781421
MLS Listing,,Condo/Co-op,310 Tahiti Way Unit #219,Marina Del Rey,CA,90292,1200000,3,2.0,C12 - Marina Del Rey,1686,,1979,2,712,971,Active,,,https://www.redfin.com/CA/Marina-del-Rey/310-Tahiti-Way-90292/unit-219/home/6783609,CRMLS,PW24185362,N,Y,33.9731783,-118.4576178
MLS Listing,,Condo/Co-op,2160 Century Park E Unit 709N,Los Angeles,CA,90067,885000,2,2.0,Westwood - Century City,1066,223100,1966,2,830,1332,Active,,,https://www.redfin.com/CA/Los-Angeles/2160-Century-Park-E-90067/unit-709N/home/6808639,TheMLS,24-440257,N,Y,34.0585574,-118.4112443
MLS Listing,,Condo/Co-op,1535 Granville Ave #107,Los Angeles,CA,90025,789000,2,2.0,West L.A.,1039,13754,1979,2,759,414,Active,September-22-2024 02:00 PM,September-22-2024 04:00 PM,https://www.redfin.com/CA/Los-Angeles/1535-Granville-Ave-90025/unit-107/home/12289077,TheMLS,24-440353,N,Y,34.0416972,-118.4576053
MLS Listing,,Multi-Family (5+ Unit),3320 Woodbine St,Los Angeles,CA,90064,6500000,26,20.0,Cheviot Hills - Rancho Park,15543,23092,1954,2,418,,Active,,,https://www.redfin.com/CA/Los-Angeles/3320-Woodbine-St-90064/home/6796332,TheMLS,24-440207,N,Y,34.0304049,-118.4060641
MLS Listing,,Multi-Family (2-4 Unit),1171 W 38th St,Los Angeles,CA,90037,1075000,3,3.0,C23 - Metropolitan,2100,6212,1928,2,512,,Active,,,https://www.redfin.com/CA/Los-Angeles/1171-W-38th-St-90037/home/6884260,CRMLS,PW24192629,N,Y,34.0175959,-118.2966521
MLS Listing,,Single Family Residential,3300 N Knoll Dr,Los Angeles,CA,90068,3150000,3,3.5,Hollywood Hills East,3137,6651,1926,2,1004,,Active,,,https://www.redfin.com/CA/Los-Angeles/3300-N-Knoll-Dr-90068/home/7129048,TheMLS,24-440365,N,Y,34.1291697,-118.3430361
MLS Listing,,Multi-Family (2-4 Unit),1014 Sentinel Ave,Los Angeles,CA,90063,768000,4,2.0,BOYH - Boyle Heights,2142,4796,1926,2,359,,Active,September-21-2024 10:00 AM,September-21-2024 04:00 PM,https://www.redfin.com/CA/Los-Angeles/1014-Sentinel-Ave-90063/home/6957422,CRMLS,WS24192464,N,Y,34.0496669,-118.1947236
MLS Listing,,Single Family Residential,2137 Sunset Plaza Dr,Los Angeles,CA,90069,2995000,2,2.0,Sunset Strip - Hollywood Hills West,,6146,1949,2,,,Active,,,https://www.redfin.com/CA/Los-Angeles/2137-Sunset-Plaza-Dr-90069/home/7122475,TheMLS,24-439443,N,Y,34.1059157,-118.3844507
MLS Listing,,Single Family Residential,10711 Sunnybrae Ave,Chatsworth,CA,91311,1799888,5,3.5,CHT - Chatsworth,3152,11030,1970,2,571,,Active,September-20-2024 12:00 PM,September-20-2024 06:00 PM,https://www.redfin.com/CA/Chatsworth/10711-Sunnybrae-Ave-91311/home/5777199,CRMLS,CV24192398,N,Y,34.2648145,-118.5806005
MLS Listing,,Multi-Family (5+ Unit),8307 S Figueroa St,Los Angeles,CA,90003,2250000,18,10.0,Metropolitan Southwest,7584,7499,1991,2,297,,Active,,,https://www.redfin.com/CA/Los-Angeles/8307-S-Figueroa-St-90003/home/7291060,TheMLS,24-440387,N,Y,33.9628912,-118.2831071
MLS Listing,,Vacant Land,1157 - 1201 E 20th St,Los Angeles,CA,90011,1300000,,,Downtown L.A.,,10886,,2,,,Active,,,https://www.redfin.com/CA/Los-Angeles/1157-E-20th-St-90011/home/6930906,TheMLS,24-440391,N,Y,34.024601,-118.2529169
MLS Listing,,Multi-Family (2-4 Unit),11338 Collins St,North Hollywood,CA,91601,1099000,4,2.0,NHO - North Hollywood,1924,8052,1950,2,571,,Active,,,https://www.redfin.com/CA/North-Hollywood/11338-Collins-St-91601/home/5150186,CRMLS,SR24192540,N,Y,34.1738513,-118.3781351
MLS Listing,,Single Family Residential,3131 & 3135 Oakcrest Dr,Los Angeles,CA,90068,3000000,6,4.0,Sunset Strip - Hollywood Hills West,4392,7071,1928,2,683,,Active,,,https://www.redfin.com/CA/Los-Angeles/3131-Oakcrest-Dr-90068/home/5314954,TheMLS,24-430593,N,Y,34.1258427,-118.3465829
MLS Listing,,Single Family Residential,2370 Bowmont Dr,Beverly Hills,CA,90210,3999000,4,5.0,Beverly Hills Post Office,4219,25353,1947,2,948,,Active,,,https://www.redfin.com/CA/Beverly-Hills/2370-Bowmont-Dr-90210/home/6834619,TheMLS,24-432161,N,Y,34.1153998,-118.3979519
MLS Listing,,Single Family Residential,5920 Matilija Ave,Van Nuys,CA,91401,1599000,4,2.5,Valley Glen,2540,6754,1965,2,630,,Active,,,https://www.redfin.com/CA/Van-Nuys/5920-Matilija-Ave-91401/home/4703151,TheMLS,24-440105,N,Y,34.1781372,-118.4331462
MLS Listing,,Multi-Family (2-4 Unit),232 W 49th St,Los Angeles,CA,90037,698888,4,2.0,C42 - Downtown L.A.,1744,5447,1913,2,401,,Active,,,https://www.redfin.com/CA/Los-Angeles/232-W-49th-St-90037/home/6924178,CRMLS,IV24192550,N,Y,33.9981993,-118.2772587
MLS Listing,,Single Family Residential,22737 Ia Ln,Woodland Hills,CA,91364,2295000,4,4.0,Woodland Hills,3284,25050,1964,2,699,,Active,September-22-2024 02:00 PM,September-22-2024 05:00 PM,https://www.redfin.com/CA/Woodland-Hills/22737-Ia-Ln-91364/home/3566116,TheMLS,24-440363,N,Y,34.1519727,-118.6226462
MLS Listing,,Single Family Residential,10353 Rincon Ave,Pacoima,CA,91331,779000,4,2.0,PAC - Pacoima,1446,8103,1937,2,539,,Active,September-21-2024 12:00 PM,September-21-2024 04:00 PM,https://www.redfin.com/CA/Pacoima/10353-Rincon-Ave-91331/home/5657775,CRMLS,OC24191963,N,Y,34.2582828,-118.4304988
MLS Listing,,Single Family Residential,454 Hoefner Ave,Los Angeles,CA,90022,599000,2,1.0,699 - Not Defined,830,5706,1938,2,722,,Active,,,https://www.redfin.com/CA/Los-Angeles/454-Hoefner-Ave-90022/home/7433056,CRMLS,PF24192406,N,Y,34.0263516,-118.1479122
MLS Listing,,Condo/Co-op,1932 Pelham Ave #401,Los Angeles,CA,90025,1159000,2,2.0,Westwood - Century City,1532,6755,1989,2,757,475,Active,,,https://www.redfin.com/CA/Los-Angeles/1932-Pelham-Ave-90025/unit-401/home/6799778,TheMLS,24-435553,N,Y,34.0502168,-118.4300724
MLS Listing,,Single Family Residential,5210 Etiwanda Ave,Tarzana,CA,91356,1359000,3,2.0,Tarzana,1776,5513,1950,2,765,,Active,September-21-2024 02:00 PM,September-21-2024 05:00 PM,https://www.redfin.com/CA/Tarzana/5210-Etiwanda-Ave-91356/home/4280309,TheMLS,24-440223,N,Y,34.1659437,-118.5305727
MLS Listing,,Single Family Residential,3045 Kelton Ave,Los Angeles,CA,90034,3345000,5,4.5,Palms - Mar Vista,3200,6443,2021,2,1045,,Active,September-21-2024 02:00 PM,September-21-2024 05:00 PM,https://www.redfin.com/CA/Los-Angeles/3045-Kelton-Ave-90034/home/6752578,TheMLS,24-440155,N,Y,34.0285636,-118.4220127
MLS Listing,,Condo/Co-op,421 S La Fayette Park Pl #720,Los Angeles,CA,90057,419000,1,1.0,C42 - Downtown L.A.,715,43264,1971,2,586,501,Active,,,https://www.redfin.com/CA/Los-Angeles/421-S-La-Fayette-Park-Pl-90057/unit-720/home/6935070,CRMLS,WS24192318,N,Y,34.0653187,-118.2821969
MLS Listing,,Multi-Family (2-4 Unit),605 N Hobart Blvd,Los Angeles,CA,90004,1499000,5,5.0,C17 - Mid-Wilshire,2935,7505,1923,2,511,,Active,,,https://www.redfin.com/CA/Los-Angeles/605-N-Hobart-Blvd-90004/home/7098453,CRMLS,PW24187248,N,Y,34.0819976,-118.3060867
MLS Listing,,Condo/Co-op,1111 S Grand Ave #405,Los Angeles,CA,90015,620000,1,1.0,Downtown L.A.,1030,38857,2005,2,602,900,Active,,,https://www.redfin.com/CA/Los-Angeles/1111-S-Grand-Ave-90015/unit-405/home/12290273,TheMLS,24-440267,N,Y,34.0414052,-118.2625906
MLS Listing,,Multi-Family (2-4 Unit),12463 Walsh Ave,Los Angeles,CA,90066,1899500,7,4.0,Marina Del Rey,2344,4891,1956,2,810,,Active,,,https://www.redfin.com/CA/Los-Angeles/12463-Walsh-Ave-90066/home/6732556,TheMLS,24-435155,N,Y,33.9904738,-118.4232825
MLS Listing,,Multi-Family (2-4 Unit),5629 Cleon Ave,North Hollywood,CA,91601,1200000,4,4.0,North Hollywood,2080,5553,1954,2,577,,Active,,,https://www.redfin.com/CA/North-Hollywood/5629-Cleon-Ave-91601/home/5290768,TheMLS,24-440317,N,Y,34.1729982,-118.3684152
MLS Listing,,Single Family Residential,4508 Mount Vernon Dr,View Park,CA,90043,2800000,3,3.5,VWPK - View Park,2924,8935,1964,2,958,,Active,September-20-2024 05:00 PM,September-20-2024 08:00 PM,https://www.redfin.com/CA/View-Park/4508-Mount-Vernon-Dr-90043/home/6866678,CRMLS,SR24190791,N,Y,33.9972583,-118.3558936
MLS Listing,,Single Family Residential,5212 Hartwick St,Los Angeles,CA,90041,949000,3,1.0,618 - Eagle Rock,1758,7351,1922,2,540,,Active,,,https://www.redfin.com/CA/Los-Angeles/5212-Hartwick-St-90041/home/7180576,CRMLS,GD24191009,N,Y,34.1422539,-118.1967241
MLS Listing,,Single Family Residential,2492 Corinth Ave,Los Angeles,CA,90064,1550000,4,2.0,West L.A.,1806,7502,1947,2,858,,Active,September-21-2024 02:00 PM,September-21-2024 05:00 PM,https://www.redfin.com/CA/Los-Angeles/2492-Corinth-Ave-90064/home/6756978,TheMLS,24-438589,N,Y,34.0326313,-118.4376153
MLS Listing,,Vacant Land,8413 Grand View Dr,Los Angeles,CA,90046,149999,,,Sunset Strip - Hollywood Hills West,,5684,,2,,,Active,,,https://www.redfin.com/CA/Los-Angeles/8413-Grand-View-Dr-90046/home/113977500,TheMLS,24-440295,N,Y,34.1028675,-118.3741242
MLS Listing,,Single Family Residential,542 N La Jolla Ave,Los Angeles,CA,90048,1300000,0,,West Hollywood Vicinity,,4460,1928,2,,,Active,,,https://www.redfin.com/CA/Los-Angeles/542-N-La-Jolla-Ave-90048/home/7104440,TheMLS,24-439991,N,Y,34.0814326,-118.3677218
MLS Listing,,Multi-Family (2-4 Unit),216--218 E 66th St,Los Angeles,CA,90003,859900,5,4.0,C42 - Downtown L.A.,1473,5400,1908,2,584,,Active,,,https://www.redfin.com/CA/Los-Angeles/216-E-66th-St-90003/home/7276598,CRMLS,DW24192248,N,Y,33.9795035,-118.2710943
MLS Listing,,Condo/Co-op,22100 Burbank Blvd Unit 311A,Woodland Hills,CA,91367,379000,1,1.0,WHLL - Woodland Hills,599,222578,1979,2,633,476,Active,,,https://www.redfin.com/CA/Woodland-Hills/22100-Burbank-Blvd-91367/unit-311A/home/4003521,CRMLS,SR24192425,N,Y,34.1717888,-118.6090923
MLS Listing,,Vacant Land,3923 Deer Ave,Sherman Oaks,CA,91423,179000,,,Sherman Oaks,,17102,,2,,,Active,,,https://www.redfin.com/CA/Sherman-Oaks/3923-Deer-Ave-91423/home/22973299,TheMLS,24-440237,N,Y,34.139687,-118.431412
MLS Listing,,Single Family Residential,2328 Vestal Ave,Los Angeles,CA,90026,1950000,3,2.0,Silver Lake - Echo Park,2168,6252,1915,2,899,,Active,,,https://www.redfin.com/CA/Los-Angeles/2328-Vestal-Ave-90026/home/7068448,TheMLS,24-440007,N,Y,34.0937974,-118.2489517
MLS Listing,,Condo/Co-op,11918 Kiowa Ave #203,Los Angeles,CA,90049,1299000,2,2.0,Brentwood,1395,14181,1969,2,931,475,Active,September-24-2024 11:00 AM,September-24-2024 02:00 PM,https://www.redfin.com/CA/Los-Angeles/11918-Kiowa-Ave-90049/unit-203/home/6761468,TheMLS,24-437913,N,Y,34.0479234,-118.4659279
MLS Listing,,Multi-Family (2-4 Unit),136 W 48th St,Los Angeles,CA,90037,1850000,9,7.5,C42 - Downtown L.A.,4150,4752,2024,2,446,,Active,,,https://www.redfin.com/CA/Los-Angeles/136-W-48th-St-90037/home/6924138,CRMLS,OC24192351,N,Y,33.998988,-118.2753423
MLS Listing,,Single Family Residential,17845 VALLEY VISTA Blvd,Encino,CA,91316,1899000,3,3.0,ENC - Encino,1717,9450,1951,2,1106,,Active,,,https://www.redfin.com/CA/Encino/17845-Valley-Vista-Blvd-91316/home/4287626,CRMLS,SR24192396,N,Y,34.1581365,-118.5216116
MLS Listing,,Multi-Family (2-4 Unit),2620 Idell St,Los Angeles,CA,90065,975000,4,4.0,CYPK - Cypress Park,2208,7080,1917,2,442,,Active,,,https://www.redfin.com/CA/Los-Angeles/2620-Idell-St-90065/home/7069707,CRMLS,SB24191224,N,Y,34.0864044,-118.2240542
MLS Listing,,Single Family Residential,2134 Overland Ave,Los Angeles,CA,90025,1849000,3,2.0,Westwood - Century City,1608,5404,1928,2,1150,,Active,September-21-2024 02:00 PM,September-21-2024 05:00 PM,https://www.redfin.com/CA/Los-Angeles/2134-Overland-Ave-90025/home/6800256,TheMLS,24-439603,N,Y,34.0466913,-118.4284002
MLS Listing,,Single Family Residential,4131 Edgehill Dr,Los Angeles,CA,90008,1100000,4,2.0,PHHT - Park Hills Heights,2071,4620,1929,2,531,,Active,September-21-2024 11:00 AM,September-21-2024 02:00 PM,https://www.redfin.com/CA/Los-Angeles/4131-Edgehill-Dr-90008/home/6877223,CRMLS,SB24143562,N,Y,34.0090999,-118.3306722
MLS Listing,,Multi-Family (2-4 Unit),7614 Mason Ave,Winnetka,CA,91306,1398000,7,6.0,WIN - Winnetka,3980,6231,1963,2,351,,Active,,,https://www.redfin.com/CA/Winnetka/7614-Mason-Ave-91306/home/3746706,CRMLS,GD24191109,N,Y,34.2088959,-118.5794615
MLS Listing,,Condo/Co-op,10112 Empyrean Way #204,Los Angeles,CA,90067,2695000,2,2.5,Westwood - Century City,2240,464441,1979,2,1203,1929,Active,,,https://www.redfin.com/CA/Los-Angeles/10112-Empyrean-Way-90067/unit-204/home/6809258,TheMLS,24-440187,N,Y,34.053242,-118.40811
MLS Listing,,Multi-Family (2-4 Unit),426 N Normandie Ave,Los Angeles,CA,90004,1200000,4,4.0,C17 - Mid-Wilshire,2584,5824,1923,2,464,,Active,,,https://www.redfin.com/CA/Los-Angeles/426-N-Normandie-Ave-90004/home/7098251,CRMLS,OC24192158,N,Y,34.0784204,-118.30014
MLS Listing,,Single Family Residential,16811 Nordhoff St,Northridge,CA,91343,990000,4,2.0,NR - Northridge,2112,9126,1954,2,469,,Active,September-21-2024 12:00 AM,September-21-2024 11:59 PM,https://www.redfin.com/CA/Northridge/16811-Nordhoff-St-91343/home/5742633,CRMLS,SR24177522,N,Y,34.2360283,-118.498655
MLS Listing,,Single Family Residential,592 Entrada Dr,Santa Monica,CA,90402,3495000,2,2.5,Santa Monica,2431,5519,1948,2,1438,,Active,September-22-2024 02:00 PM,September-22-2024 05:00 PM,https://www.redfin.com/CA/Santa-Monica/592-Entrada-Dr-90402/home/6840190,TheMLS,24-439471,N,Y,34.0341616,-118.5093839
MLS Listing,,Single Family Residential,5159 Amestoy Ave,Encino,CA,91316,6500000,5,6.0,ENC - Encino,5470,48099,1938,2,1188,,Pre On-Market,,,https://www.redfin.com/CA/Encino/5159-Amestoy-Ave-91316/home/4781598,CRMLS,SR24192048,N,Y,34.164713,-118.5062832
MLS Listing,,Townhouse,4347 Freedom Dr Unit B,Calabasas,CA,91302,865000,2,2.5,CLB - Calabasas,1332,132543,1989,2,649,661,Active,,,https://www.redfin.com/CA/Calabasas/4347-Freedom-Dr-91302/unit-B/home/3582582,CRMLS,SR24176537,N,Y,34.1481814,-118.6145158
MLS Listing,,Single Family Residential,1600 N Kings Rd,Los Angeles,CA,90069,3600000,4,4.5,Sunset Strip - Hollywood Hills West,3405,8708,1953,2,1057,,Active,,,https://www.redfin.com/CA/Los-Angeles/1600-N-Kings-Rd-90069/home/7120192,TheMLS,24-439999,N,Y,34.0996954,-118.3750157
MLS Listing,,Single Family Residential,1895 Rising Glen Rd,Los Angeles,CA,90069,17995000,6,8.5,Sunset Strip - Hollywood Hills West,9400,51297,1997,2,1914,,Active,September-21-2024 02:00 PM,September-21-2024 05:00 PM,https://www.redfin.com/CA/Los-Angeles/1895-Rising-Glen-Rd-90069/home/23216209,TheMLS,24-438637,N,Y,34.105185,-118.385296
MLS Listing,,Multi-Family (5+ Unit),14825 Magnolia Blvd,Sherman Oaks,CA,91403,2450000,14,11.0,Sherman Oaks,7632,10959,1953,2,321,,Active,,,https://www.redfin.com/CA/Sherman-Oaks/14825-Magnolia-Blvd-91403/home/4744591,TheMLS,24-440159,N,Y,34.165088,-118.4562754
MLS Listing,,Single Family Residential,13206 Cranston Ave,Sylmar,CA,91342,825000,4,2.0,SYL - Sylmar,1472,7502,1963,2,560,,Active,September-22-2024 12:00 PM,September-22-2024 04:00 PM,https://www.redfin.com/CA/Sylmar/13206-Cranston-Ave-91342/home/5435385,CRMLS,SR24192292,N,Y,34.3116768,-118.4176972
MLS Listing,,Multi-Family (2-4 Unit),1900 N Normandie Ave,Los Angeles,CA,90027,1200000,5,3.0,Los Feliz,2970,7505,1922,2,404,,Active,,,https://www.redfin.com/CA/Los-Angeles/1900-N-Normandie-Ave-90027/home/7133525,TheMLS,24-440139,N,Y,34.105675,-118.3003256
MLS Listing,,Single Family Residential,2111 Glendon Ave,Los Angeles,CA,90025,2950000,5,5.5,Westwood - Century City,3137,6763,1927,2,940,,Pre On-Market,,,https://www.redfin.com/CA/Los-Angeles/2111-Glendon-Ave-90025/home/6800102,TheMLS,24-440133,N,Y,34.0453444,-118.4319562
MLS Listing,,Single Family Residential,3522 Perlita Ave,Los Angeles,CA,90039,1610000,4,3.0,Atwater,1295,6758,1916,2,1243,,Active,September-22-2024 02:00 PM,September-22-2024 05:00 PM,https://www.redfin.com/CA/Los-Angeles/3522-Perlita-Ave-90039/home/7065341,TheMLS,24-438409,N,Y,34.1188087,-118.2585192
MLS Listing,,Single Family Residential,4034 Denny Ave,Studio City,CA,91604,2599000,3,3.0,Studio City,2417,4803,1951,2,1075,,Active,September-22-2024 01:00 PM,September-22-2024 04:00 PM,https://www.redfin.com/CA/Studio-City/4034-Denny-Ave-91604/home/5307096,TheMLS,24-439939,N,Y,34.1426509,-118.3645489
MLS Listing,,Single Family Residential,1172 Mirasol St,Los Angeles,CA,90023,675000,3,2.0,BOYH - Boyle Heights,896,5002,1923,2,753,,Active,,,https://www.redfin.com/CA/Los-Angeles/1172-Mirasol-St-90023/home/6944700,CRMLS,PF24191914,N,Y,34.0198339,-118.1982142
MLS Listing,,Condo/Co-op,725 S Barrington Ave #202,Los Angeles,CA,90049,589000,1,1.0,Brentwood,736,24486,1972,2,800,621,Active,September-22-2024 02:00 PM,September-22-2024 05:00 PM,https://www.redfin.com/CA/Los-Angeles/725-S-Barrington-Ave-90049/unit-202/home/6836122,TheMLS,24-437461,N,Y,34.0552592,-118.4677868
MLS Listing,,Single Family Residential,12624 Hartland St,North Hollywood,CA,91605,1295000,3,2.0,NHO - North Hollywood,1747,6995,1953,2,741,,Pre On-Market,,,https://www.redfin.com/CA/North-Hollywood/12624-Hartland-St-91605/home/5062494,CRMLS,GD24192146,N,Y,34.1947162,-118.4083019
MLS Listing,,Single Family Residential,1680 Sunset Plaza Dr,Los Angeles,CA,90069,6250000,4,5.0,Sunset Strip - Hollywood Hills West,4500,5310,2017,2,1389,,Active,,,https://www.redfin.com/CA/Los-Angeles/1680-Sunset-Plaza-Dr-90069/home/173223991,TheMLS,24-440103,N,Y,34.1015074,-118.3799304
MLS Listing,,Multi-Family (5+ Unit),540 N Orlando Ave,West Hollywood,CA,90048,6890000,28,29.0,West Hollywood Vicinity,15010,11479,1962,2,459,,Active,,,https://www.redfin.com/CA/West-Hollywood/540-N-Orlando-Ave-90048/home/7104768,TheMLS,24-439117,N,Y,34.0814023,-118.3730069
MLS Listing,,Single Family Residential,3977 Archdale Rd,Encino,CA,91436,4179000,4,4.5,ENC - Encino,3958,29467,1955,2,1056,,Active,September-20-2024 11:00 AM,September-20-2024 02:00 PM,https://www.redfin.com/CA/Encino/3977-Archdale-Rd-91436/home/4923682,CRMLS,SR24189395,N,Y,34.1427624,-118.476738
MLS Listing,,Single Family Residential,19633 Wells Dr,Tarzana,CA,91356,3427000,5,4.5,Tarzana,4518,18609,2014,2,759,,Active,,,https://www.redfin.com/CA/Tarzana/19633-Wells-Dr-91356/home/58302426,TheMLS,24-439975,N,Y,34.1642123,-118.561319
MLS Listing,,Multi-Family (5+ Unit),843 S Ardmore Ave,Los Angeles,CA,90005,4200000,21,20.0,C17 - Mid-Wilshire,13095,6764,1989,2,321,,Active,,,https://www.redfin.com/CA/Los-Angeles/843-S-Ardmore-Ave-90005/home/6918300,CRMLS,SR24192209,N,Y,34.0565978,-118.3023121
MLS Listing,,Single Family Residential,19350 Starlight Dr,Tarzana,CA,91356,3599000,5,3.5,Tarzana,4718,18813,1978,2,763,,Active,September-20-2024 11:00 AM,September-20-2024 02:00 PM,https://www.redfin.com/CA/Tarzana/19350-Starlight-Dr-91356/home/4239029,TheMLS,24-437885,N,Y,34.1598548,-118.5550616
MLS Listing,,Single Family Residential,141 N Bentley Ave,Los Angeles,CA,90049,24995000,7,9.0,Bel Air - Holmby Hills,9040,29514,2022,2,2765,,Active,,,https://www.redfin.com/CA/Los-Angeles/141-N-Bentley-Ave-90049/home/6828148,TheMLS,24-438943,N,Y,34.0757367,-118.4584451
MLS Listing,,Single Family Residential,11037 Anzio Rd,Los Angeles,CA,90077,12500000,8,9.5,Bel Air - Holmby Hills,10369,112912,1990,2,1206,,Active,,,https://www.redfin.com/CA/Los-Angeles/11037-Anzio-Rd-90077/home/6830687,TheMLS,24-437215,N,Y,34.0923769,-118.4647723
MLS Listing,,Single Family Residential,1139 Sierra Alta Way,Los Angeles,CA,90069,2395000,3,3.5,Sunset Strip - Hollywood Hills West,2821,6252,1948,2,849,,Active,September-22-2024 02:00 PM,September-22-2024 05:00 PM,https://www.redfin.com/CA/Los-Angeles/1139-Sierra-Alta-Way-90069/home/6835575,TheMLS,24-440021,N,Y,34.0916866,-118.3946876
MLS Listing,,Single Family Residential,8244 N Clear Sky Way,West Hills,CA,91304,1799950,4,4.5,WEH - West Hills,3627,9577,2021,2,496,200,Active,,,https://www.redfin.com/CA/Canoga-Park/8244-N-Clear-Sky-Way-91304/home/110208060,CRMLS,SR24192043,N,Y,34.2183177,-118.6574023
MLS Listing,,Single Family Residential,9330 Rhea Ave,Northridge,CA,91324,899000,3,2.0,NR - Northridge,1370,7877,1957,2,656,,Active,September-21-2024 11:00 AM,September-21-2024 02:00 PM,https://www.redfin.com/CA/Northridge/9330-Rhea-Ave-91324/home/5856863,CRMLS,SR24190154,N,Y,34.2401592,-118.5411853
MLS Listing,,Single Family Residential,1787 W 35th St,Los Angeles,CA,90018,850000,4,2.0,699 - Not Defined,1720,6802,1967,2,494,,Active,,,https://www.redfin.com/CA/Los-Angeles/1787-W-35th-St-90018/home/6885369,CRMLS,PW24189146,N,Y,34.024878,-118.3115821
MLS Listing,,Single Family Residential,13100 Terra Bella St,Pacoima,CA,91331,700000,2,1.0,PAC - Pacoima,900,7667,1955,2,778,,Active,,,https://www.redfin.com/CA/Pacoima/13100-Terra-Bella-St-91331/home/5606925,CRMLS,GD24155656,N,Y,34.2581616,-118.4181103
MLS Listing,,Single Family Residential,18801 Celtic St,Porter Ranch,CA,91326,1600000,4,3.0,PORA - Porter Ranch,2573,11755,1968,2,622,,Active,September-19-2024 06:00 PM,September-19-2024 09:00 PM,https://www.redfin.com/CA/Porter-Ranch/18801-Celtic-St-91326/home/5791778,CRMLS,GD24164953,N,Y,34.2689145,-118.5430881
MLS Listing,,Single Family Residential,10519 Louisiana Ave,Los Angeles,CA,90025,3499000,5,5.5,Westwood - Century City,3600,7031,2024,2,972,,Active,,,https://www.redfin.com/CA/Los-Angeles/10519-Louisiana-Ave-90025/home/6796889,TheMLS,24-440087,N,Y,34.0495062,-118.423426
MLS Listing,,Single Family Residential,3721 Woodcliff Rd,Sherman Oaks,CA,91403,3875000,4,4.0,Sherman Oaks,3456,9103,1954,2,1121,,Active,September-22-2024 01:00 PM,September-22-2024 04:00 PM,https://www.redfin.com/CA/Sherman-Oaks/3721-Woodcliff-Rd-91403/home/4896593,TheMLS,24-439955,N,Y,34.1378685,-118.4678456
MLS Listing,,Single Family Residential,11811 N Greenwood Dr,Porter Ranch,CA,91326,3850000,5,5.0,Porter Ranch,5086,10898,2022,2,757,392,Active,,,https://www.redfin.com/CA/Porter-Ranch/11811-N-Greenwood-Dr-91326/home/143518596,TheMLS,24-439925,N,Y,34.2868664,-118.5777663
MLS Listing,,Single Family Residential,17811 Collins St,Encino,CA,91316,864000,2,1.0,ENC - Encino,802,5582,1949,2,1077,,Active,,,https://www.redfin.com/CA/Encino/17811-Collins-St-91316/home/4088767,CRMLS,SR24192169,N,Y,34.1740529,-118.5208112
MLS Listing,,Condo/Co-op,500 Molino St #205,Los Angeles,CA,90013,999000,1,1.0,Metropolitan,1420,83084,1923,2,704,546,Active,September-22-2024 02:00 PM,September-22-2024 04:00 PM,https://www.redfin.com/CA/Los-Angeles/500-Molino-St-90013/unit-205/home/12290768,TheMLS,24-440069,N,Y,34.0417009,-118.2335207
MLS Listing,,Single Family Residential,9651 Oso Ave,Chatsworth,CA,91311,1150000,4,3.0,CHT - Chatsworth,1870,7498,1959,2,615,,Active,September-21-2024 02:00 PM,September-21-2024 04:00 PM,https://www.redfin.com/CA/Chatsworth/9651-Oso-Ave-91311/home/5843904,CRMLS,GD24190383,N,Y,34.2456596,-118.5757025
MLS Listing,,Single Family Residential,7303 N Eaton Pl,Los Angeles,CA,90046,2095000,3,3.5,West Hollywood Vicinity,2500,6838,2024,2,838,,Active,September-21-2024 02:00 PM,September-21-2024 05:00 PM,https://www.redfin.com/CA/Los-Angeles/7303-N-Eaton-St-90042/home/192576114,TheMLS,24-440019,N,Y,34.1246973,-118.1964966
MLS Listing,,Single Family Residential,7311 N Eaton Pl,Los Angeles,CA,90046,2295000,3,4.0,West Hollywood Vicinity,2900,6836,2024,2,791,,Active,September-21-2024 02:00 PM,September-21-2024 05:00 PM,https://www.redfin.com/CA/Los-Angeles/7311-N-Eaton-St-90042/home/192177366,TheMLS,24-440013,N,Y,34.1246973,-118.1964966
MLS Listing,,Single Family Residential,7309 N Eaton Pl,Los Angeles,CA,90046,1995000,3,3.5,West Hollywood Vicinity,2300,6838,2024,2,867,,Active,September-21-2024 02:00 PM,September-21-2024 05:00 PM,https://www.redfin.com/CA/Los-Angeles/7309-N-Eaton-St-90042/home/192177481,TheMLS,24-440023,N,Y,34.1246973,-118.1964966
MLS Listing,,Single Family Residential,704 N Grand Ave,Los Angeles,CA,90012,499000,2,2.0,Silver Lake - Echo Park,1444,3074,1899,2,346,,Active,,,https://www.redfin.com/CA/Los-Angeles/704-N-Grand-Ave-90012/home/7054827,TheMLS,24-439661,N,Y,34.0627802,-118.2431927
MLS Listing,,Condo/Co-op,6645 W 86th Pl #201,Los Angeles,CA,90045,995000,3,2.5,Westchester,1729,7149,1993,2,575,570,Active,,,https://www.redfin.com/CA/Los-Angeles/6645-W-86th-Pl-90045/unit-201/home/6634859,TheMLS,24-439941,N,Y,33.9595497,-118.4061032
MLS Listing,,Condo/Co-op,10590 Wilshire Blvd #1402,Los Angeles,CA,90024,1950000,3,2.5,Westwood - Century City,2160,20953,1976,2,903,2306,Active,September-22-2024 02:00 PM,September-22-2024 05:00 PM,https://www.redfin.com/CA/Los-Angeles/10590-Wilshire-Blvd-90024/unit-1402/home/6804392,TheMLS,24-414475,N,Y,34.0612735,-118.4331786
MLS Listing,,Single Family Residential,22511 Victory Blvd,West Hills,CA,91307,1250000,3,3.0,WEH - West Hills,2083,15573,1955,2,600,,Active,September-21-2024 02:00 PM,September-21-2024 05:00 PM,https://www.redfin.com/CA/West-Hills/22511-Victory-Blvd-91307/home/3212657,CRMLS,SR24188087,N,Y,34.1868149,-118.6172829
MLS Listing,,Multi-Family (2-4 Unit),2522 Michigan Ave,Los Angeles,CA,90033,1490000,6,4.0,Boyle Heights,3732,5464,1923,2,399,,Active,,,https://www.redfin.com/CA/Los-Angeles/2522-Michigan-Ave-90033/home/6940828,TheMLS,24-440061,N,Y,34.0442366,-118.2067782
MLS Listing,,Multi-Family (2-4 Unit),1467 S Canfield Ave,Los Angeles,CA,90035,1599000,5,4.0,C09 - Beverlywood Vicinity,2604,5127,1927,2,614,,Active,,,https://www.redfin.com/CA/Los-Angeles/1467-S-Canfield-Ave-90035/home/6788111,CRMLS,IV24191990,N,Y,34.0532579,-118.3896739
MLS Listing,,Single Family Residential,2839 Mandeville Canyon Rd,Los Angeles,CA,90049,3150000,3,3.0,Brentwood,2572,9755,1956,2,1225,,Active,,,https://www.redfin.com/CA/Los-Angeles/2839-Mandeville-Canyon-Rd-90049/home/6859579,TheMLS,24-439894,N,Y,34.09159,-118.5038333
MLS Listing,,Multi-Family (2-4 Unit),6211 S San Pedro St,Los Angeles,CA,90003,959999,8,4.0,C42 - Downtown L.A.,3288,5440,2014,2,292,,Active,,,https://www.redfin.com/CA/Los-Angeles/6211-S-San-Pedro-St-90003/home/7273708,CRMLS,RS24166582,N,Y,33.982982,-118.2697661
MLS Listing,,Condo/Co-op,13600 Marina Pointe Dr #1604,Marina Del Rey,CA,90292,1995000,2,2.5,Marina Del Rey,1885,122880,1999,2,1058,2124,Active,,,https://www.redfin.com/CA/Marina-del-Rey/13600-Marina-Pointe-Dr-90292/unit-1604/home/8105362,TheMLS,24-439419,N,Y,33.9846804,-118.4442003
MLS Listing,,Condo/Co-op,13600 Marina Pointe Dr #1912,Marina Del Rey,CA,90292,2200000,2,2.5,Marina Del Rey,1920,122529,1999,2,1146,2134,Active,,,https://www.redfin.com/CA/Marina-del-Rey/13600-Marina-Pointe-Dr-90292/unit-1912/home/8111455,TheMLS,24-437769,N,Y,33.9846804,-118.4442003
MLS Listing,,Single Family Residential,7416 White Oak Ave,Van Nuys,CA,91406,750000,2,1.0,VN - Van Nuys,964,5999,1950,2,778,,Active,,,https://www.redfin.com/CA/Van-Nuys/7416-White-Oak-Ave-91406/home/4327746,CRMLS,BB24188146,N,Y,34.2053791,-118.5183175
MLS Listing,,Single Family Residential,144 E 77th St,Los Angeles,CA,90003,499000,3,1.0,C34 - Los Angeles Southwest,1020,3600,1927,2,489,,Active,,,https://www.redfin.com/CA/Los-Angeles/144-E-77th-St-90003/home/7284180,CRMLS,IV24178086,N,Y,33.9694505,-118.2722694
MLS Listing,,Multi-Family (5+ Unit),3005 Normandie Ave,Los Angeles,CA,90007,1695000,10,8.0,C34 - Los Angeles Southwest,4837,6601,1960,2,350,,Active,,,https://www.redfin.com/CA/Los-Angeles/3005-S-Normandie-Ave-90007/home/6895082,CRMLS,SB24190961,N,Y,34.027007,-118.3005564
MLS Listing,,Single Family Residential,3535 Verdugo Vista Ter,Los Angeles,CA,90065,775000,3,2.0,623 - Glassel Park,1548,5076,1958,2,501,,Active,September-21-2024 01:00 PM,September-21-2024 04:00 PM,https://www.redfin.com/CA/Los-Angeles/3535-Verdugo-Vista-Ter-90065/home/7079054,CRMLS,WS24189206,N,Y,34.118539,-118.2215609
MLS Listing,,Multi-Family (2-4 Unit),153 W 89th St,Los Angeles,CA,90003,799900,5,2.0,C37 - Metropolitan South,1641,5401,1962,2,487,,Active,,,https://www.redfin.com/CA/Los-Angeles/153-W-89th-St-90003/home/7296561,CRMLS,WS24173241,N,Y,33.9556985,-118.2757648
MLS Listing,,Multi-Family (2-4 Unit),3727 Middle Rd,Los Angeles,CA,90063,899888,3,2.5,699 - Not Defined,1682,4675,1924,2,535,,Active,September-22-2024 12:00 PM,September-22-2024 03:00 PM,https://www.redfin.com/CA/Los-Angeles/3727-Middle-Rd-90063/home/6954546,CRMLS,CV24189102,N,Y,34.0576367,-118.1849813
MLS Listing,,Townhouse,22525 Sherman Way #703,West Hills,CA,91307,775000,3,3.0,WEH - West Hills,1633,167688,1981,2,475,470,Active,,,https://www.redfin.com/CA/West-Hills/22525-Sherman-Way-91307/unit-703/home/3081313,CRMLS,SR24191645,N,Y,34.2012171,-118.617715
