SALE TYPE,SOLD DATE,PROPERTY TYPE,ADDRESS,CITY,STATE OR PROVINCE,ZIP OR POSTAL CODE,PRICE,BEDS,BATHS,LOCATION,SQUARE FEET,LOT SIZE,YEAR BUILT,DAYS ON MARKET,$/SQUARE FEET,HOA/MONTH,STATUS,NEXT OPEN HOUSE START TIME,NEXT OPEN HOUSE END TIME,URL (SEE https://www.redfin.com/buy-a-home/comparative-market-analysis FOR INFO ON PRICING),SOURCE,MLS#,FAVORITE,INTERESTED,LATITUDE,LONGITUDE
MLS Listing,,Condo/Co-op,79 Golf Pkwy Unit H,Madison,WI,53704,275000,3,1.5,Madison,1530,,1987,6,180,379,Active,,,https://www.redfin.com/WI/Madison/79-Golf-Pkwy-53704/unit-H/home/89920042,SCWMLS,1985702,N,Y,43.1500749,-89.3663875
MLS Listing,,Single Family Residential,6902 Bluff Point Dr,Madison,WI,53718,679000,4,3.0,Reston Heights,3516,13068,2004,19,193,19,Active,September-21-2024 12:00 PM,September-21-2024 02:00 PM,https://www.redfin.com/WI/Madison/6902-Bluff-Point-Dr-53718/home/57774803,SCWMLS,1984901,N,Y,43.0929628,-89.2575401
MLS Listing,,Single Family Residential,3605 Gregory St,Madison,WI,53711,514000,2,1.0,Madison,1250,4791,1937,30,411,,Active,,,https://www.redfin.com/WI/Madison/3605-Gregory-St-53711/home/89965900,SCWMLS,1984058,N,Y,43.0528223,-89.4399203
MLS Listing,,Condo/Co-op,2148 Allen Blvd #3,Middleton,WI,53562,200000,2,1.0,Middleton,960,,1975,77,208,350,Active,,,https://www.redfin.com/WI/Middleton/2148-Allen-Blvd-53562/unit-3/home/57809018,SCWMLS,1980775,N,Y,43.0943184,-89.4874858
MLS Listing,,Townhouse,141 S Franklin St,Madison,WI,53703,479000,2,1.5,Madison,1300,,1998,125,368,350,Active,,,https://www.redfin.com/WI/Madison/141-S-Franklin-St-53703/home/186256466,SCWMLS,1977377,N,Y,43.0762494,-89.377199
MLS Listing,,Single Family Residential,5430 Park Meadow Dr,Madison,WI,53704,390000,3,2.5,Ridgewood Glacier Addition,1852,4791,2001,1,211,,Active,September-22-2024 12:00 PM,September-22-2024 02:00 PM,https://www.redfin.com/WI/Madison/5430-Park-Meadow-Dr-53704/home/57754861,SCWMLS,1985908,N,Y,43.1123762,-89.2888383
MLS Listing,,Townhouse,214 S Hamilton St,Madison,WI,53703,665000,1,2.0,Madison,1364,,2023,1,488,365,Active,,,https://www.redfin.com/WI/Madison/214-S-Hamilton-St-53703/home/189922829,SCWMLS,1986034,N,Y,43.0711624,-89.3845079
MLS Listing,,Townhouse,208 S Hamilton St,Madison,WI,53703,805000,1,2.0,Madison,1684,,2023,1,478,445,Active,,,https://www.redfin.com/WI/Madison/208-S-Hamilton-St-53703/home/189922830,SCWMLS,1986031,N,Y,43.07117,-89.384476
MLS Listing,,Townhouse,6037 Cottontail Trl,Madison,WI,53718,299000,2,2.5,Madison,1656,,1996,1,181,305,Active,,,https://www.redfin.com/WI/Madison/6037-Cottontail-Trl-53718/home/185144628,SCWMLS,1986029,N,Y,43.076599,-89.275758
MLS Listing,,Single Family Residential,322 North Lawn Ave,Madison,WI,53704,279900,2,1.0,Madison,860,4356,1949,1,325,,Pre On-Market,,,https://www.redfin.com/WI/Madison/322-North-Lawn-Ave-53704/home/89914022,SCWMLS,1986023,N,Y,43.1038233,-89.3456542
MLS Listing,,Condo/Co-op,1634 Kings Mill Way #306,Madison,WI,54317,249900,2,2.0,Madison,1001,,2002,1,250,295,Active,,,https://www.redfin.com/WI/Madison/1634-Kings-Mill-Way-53718/unit-306/home/89946858,RANW,50298099,N,Y,43.0749964,-89.2785905
MLS Listing,,Multi-Family (2-4 Unit),1929 Schlimgen Ave,Madison,WI,53704,349900,3,2.0,Madison,,4791,1937,1,,,Active,September-22-2024 02:00 PM,September-22-2024 04:00 PM,https://www.redfin.com/WI/Madison/1929-Schlimgen-Ave-53704/home/89922315,SCWMLS,1985250,N,Y,43.1185198,-89.358371
MLS Listing,,Single Family Residential,950 Sauk Ridge Trl,Madison,WI,53717,764900,4,3.5,Stonefield Woods,3410,15681,1990,1,224,,Pre On-Market,September-21-2024 01:00 PM,September-21-2024 02:30 PM,https://www.redfin.com/WI/Madison/950-Sauk-Ridge-Trl-53717/home/57622328,SCWMLS,1986006,N,Y,43.0818132,-89.4963286
MLS Listing,,Townhouse,7 Winterberry Trl,Madison,WI,53717,325000,3,2.5,Madison,1796,,1975,1,181,451,Active,September-21-2024 11:30 AM,September-21-2024 03:30 PM,https://www.redfin.com/WI/Madison/7-Winterberry-Trl-53717/home/57857421,SCWMLS,1985999,N,Y,43.0635322,-89.5061994
MLS Listing,,Condo/Co-op,4714 Poplar Creek Dr,Madison,WI,53718,321900,3,2.0,Madison,1758,,2007,1,183,330,Pre On-Market,September-21-2024 10:00 AM,September-21-2024 12:00 PM,https://www.redfin.com/WI/Madison/4714-Poplar-Creek-Dr-53718/home/185131795,SCWMLS,1985975,N,Y,43.15237,-89.280466
MLS Listing,,Single Family Residential,2829 Warner St,Madison,WI,53713,375000,5,2.0,Indian Springs,1989,6969,1993,2,189,,Pre On-Market,September-21-2024 12:00 PM,September-21-2024 02:00 PM,https://www.redfin.com/WI/Madison/2829-Warner-St-53713/home/89911507,SCWMLS,1985965,N,Y,43.0322774,-89.3735983
MLS Listing,,Single Family Residential,9622 Grey Kestrel Dr,Verona,WI,53593,669900,3,2.0,Hawks Valley,1894,7405,2024,2,354,17,Active,,,https://www.redfin.com/WI/Verona/9622-Grey-Kestrel-Dr-53593/home/114000862,SCWMLS,1985952,N,Y,43.028569,-89.554463
MLS Listing,,Townhouse,3039 Bradbury Rd,Madison,WI,53719,349900,3,2.5,Madison,1936,,1997,2,181,255,Active,,,https://www.redfin.com/WI/Madison/3039-Bradbury-Rd-53719/home/185101228,SCWMLS,1985946,N,Y,43.015361,-89.486774
MLS Listing,,Single Family Residential,5601 Tonyawatha Trl,Monona,WI,53716,1700000,4,2.5,Monona Ridge,3148,7840,1987,2,540,,Active,September-19-2024 04:00 PM,September-19-2024 06:00 PM,https://www.redfin.com/WI/Monona/5601-Tonyawatha-Trl-53716/home/89880820,SCWMLS,1985924,N,Y,43.0594278,-89.3510384
MLS Listing,,Single Family Residential,4025 Euclid Ave,Madison,WI,53711,650000,4,1.5,Westmorland,2280,6098,1933,2,285,,Pre On-Market,,,https://www.redfin.com/WI/Madison/4025-Euclid-Ave-53711/home/89908398,SCWMLS,1985917,N,Y,43.0588911,-89.4433267
MLS Listing,,Single Family Residential,1 Jacobs Ct,Madison,WI,53711,429500,3,2.0,Park Ridge Heights,2000,11761,1986,2,215,,Pre On-Market,September-29-2024 12:00 PM,September-29-2024 02:00 PM,https://www.redfin.com/WI/Madison/1-Jacobs-Ct-53711/home/57615988,SCWMLS,1985911,N,Y,43.035679,-89.4940757
MLS Listing,,Single Family Residential,6101 Mulberry Cir,Madison,WI,53711,379900,3,1.5,Meadowood,1338,9583,1962,2,284,,Active,September-21-2024 10:00 AM,September-21-2024 12:00 PM,https://www.redfin.com/WI/Madison/6101-Mulberry-Cir-53711/home/57591000,SCWMLS,1985711,N,Y,43.0307473,-89.4872685
MLS Listing,,Single Family Residential,6125 Dominion Dr,Madison,WI,53718,415000,2,2.0,Grandview Commons,1614,5227,2007,2,257,17,Pre On-Market,,,https://www.redfin.com/WI/Madison/6125-Dominion-Dr-53718/home/57694389,SCWMLS,1985910,N,Y,43.0913477,-89.2737272
MLS Listing,,Single Family Residential,6113 S Highlands Ave,Madison,WI,53705,1250000,4,2.5,Highlands,4616,26136,1966,3,271,,Pre On-Market,,,https://www.redfin.com/WI/Madison/6113-S-Highlands-Ave-53705/home/57646638,SCWMLS,1985897,N,Y,43.077888,-89.4888548
MLS Listing,,Townhouse,3142 Limekiln St,Madison,WI,53719,339800,2,2.5,Madison,1668,,2002,3,204,330,Active,,,https://www.redfin.com/WI/Madison/3142-Limekiln-St-53719/home/181131439,SCWMLS,1985896,N,Y,43.0174169,-89.517691
MLS Listing,,Single Family Residential,4126 Nakoma Rd,Madison,WI,53711,400000,2,1.5,Nakoma,1470,8276,1942,4,272,,Pre On-Market,,,https://www.redfin.com/WI/Madison/4126-Nakoma-Rd-53711/home/57652764,SCWMLS,1985893,N,Y,43.0433743,-89.4450243
MLS Listing,,Townhouse,17 Red Maple Trl,Madison,WI,53715,325000,2,1.5,Madison,1356,,1977,4,240,268,Pre On-Market,,,https://www.redfin.com/WI/Madison/17-Red-Maple-Trl-53717/home/57788806,SCWMLS,1985883,N,Y,43.0659858,-89.5075101
MLS Listing,,Single Family Residential,4609 Gordon Ave,Monona,WI,53716,286000,2,1.0,Monona,792,6098,1950,4,361,,Pre On-Market,,,https://www.redfin.com/WI/Monona/4609-Gordon-Ave-53716/home/57603035,SCWMLS,1985882,N,Y,43.0698417,-89.3275485
MLS Listing,,Single Family Residential,3305 Topping Rd,Madison,WI,53705,1100000,3,2.5,Shorewood Hills,2929,19166,1938,5,376,,Pre On-Market,,,https://www.redfin.com/WI/Madison/3305-Topping-Rd-53705/home/89879065,METROMLS,1891913,N,Y,43.0783562,-89.4472624
MLS Listing,,Single Family Residential,7008 Littlemore Dr,Madison,WI,53718,414900,3,2.5,The Meadowlands,1521,3049,2011,5,273,11,Active,,,https://www.redfin.com/WI/Madison/7008-Littlemore-Dr-53718/home/57712925,SCWMLS,1985805,N,Y,43.0982872,-89.2546996
MLS Listing,,Single Family Residential,401 Blue Moon Dr,Verona,WI,53593,665000,3,3.0,Birchwood Point,3071,10890,2015,5,217,15,Active,,,https://www.redfin.com/WI/Verona/401-Blue-Moon-Dr-53593/home/113961012,SCWMLS,1985803,N,Y,43.0562069,-89.5635919
MLS Listing,,Townhouse,45 Golf Pkwy #45,Madison,WI,53704,434900,2,3.0,Madison,3129,,1981,5,139,387,Active,,,https://www.redfin.com/WI/Madison/45-Golf-Pkwy-53704/unit-45/home/57607180,SCWMLS,1985798,N,Y,43.150606,-89.369659
MLS Listing,,Single Family Residential,2169 Spring Dreams Ln,Madison,WI,53718,399900,4,3.5,Village At Autumn Lake,1939,3049,2024,5,206,27,Active,,,https://www.redfin.com/WI/Madison/2169-Spring-Dreams-Ln-53718/home/178488645,SCWMLS,1985797,N,Y,43.128398,-89.2774249
MLS Listing,,Single Family Residential,2407 Arboretum Dr,Madison,WI,53713,445000,2,1.0,Arboretum / Forest Park,912,10454,1938,5,488,,Pre On-Market,,,https://www.redfin.com/WI/Madison/2407-Arboretum-Dr-53713/home/89879095,SCWMLS,1985794,N,Y,43.0485582,-89.4187707
MLS Listing,,Single Family Residential,2165 Spring Dreams Ln,Madison,WI,53718,394900,4,3.5,Village At Autumn Lake,1941,3049,2023,5,203,27,Active,,,https://www.redfin.com/WI/Madison/2165-Spring-Dreams-Ln-53718/home/178488646,SCWMLS,1985791,N,Y,43.1283,-89.277503
MLS Listing,,Single Family Residential,6846 Village Park Dr,Madison,WI,53718,390000,4,2.0,Parkway Village,2025,6534,2001,5,193,,Active,,,https://www.redfin.com/WI/Madison/6846-Village-Park-Dr-53718/home/57587652,SCWMLS,1985462,N,Y,43.164033,-89.2872657
MLS Listing,,Single Family Residential,1933 West Lawn Ave,Madison,WI,53711,1100000,4,3.0,Madison,1969,5662,1912,5,559,,Pre On-Market,,,https://www.redfin.com/WI/Madison/1933-West-Lawn-Ave-53711/home/85695658,SCWMLS,1985771,N,Y,43.0642806,-89.419343
MLS Listing,,Single Family Residential,7305 Gladstone Dr,Madison,WI,53719,479900,4,3.5,Madison,2474,10890,1993,5,194,,Active,,,https://www.redfin.com/WI/Madison/7305-Gladstone-Dr-53719/home/89934063,SCWMLS,1985743,N,Y,43.0238247,-89.5120431
MLS Listing,,Single Family Residential,531 Pawling St,Madison,WI,53704,300000,2,1.0,North Lawn Addition,681,3920,1937,5,441,,Active,,,https://www.redfin.com/WI/Madison/531-Pawling-St-53704/home/89914199,SCWMLS,1984419,N,Y,43.1059681,-89.3461678
MLS Listing,,Single Family Residential,4654 Secret Garden Dr,Mcfarland,WI,53558,500000,4,3.5,Secret Places At Siggelkow Preserve,2387,6534,2005,5,209,23,Active,,,https://www.redfin.com/WI/McFarland/4654-Secret-Garden-Dr-53558/home/89947048,SCWMLS,1985058,N,Y,43.0310231,-89.2742267
MLS Listing,,Single Family Residential,9625 Winter Basil Dr,Verona,WI,53593,544900,3,2.0,1000 Oaks,1482,6969,2024,6,368,20,Active,,,https://www.redfin.com/WI/Verona/9625-Winter-Basil-Dr-53593/home/174961097,SCWMLS,1985701,N,Y,43.046027,-89.554429
MLS Listing,,Single Family Residential,5014 South Hill Dr,Madison,WI,53705,625000,5,2.5,University Hill Farms,2009,8276,1962,6,311,,Active,,,https://www.redfin.com/WI/Madison/5014-South-Hill-Dr-53705/home/89964652,SCWMLS,1985690,N,Y,43.0639396,-89.4639698
MLS Listing,,Single Family Residential,640 Burnt Sienna Dr,Middleton,WI,53562,449900,2,2.0,Cottages At Chapel View,1222,,2019,6,368,125,Active,September-21-2024 11:00 AM,September-21-2024 01:00 PM,https://www.redfin.com/WI/Middleton/640-Burnt-Sienna-Dr-53562/home/185131219,SCWMLS,1985687,N,Y,43.07314,-89.560439
MLS Listing,,Single Family Residential,4306 Brown Ln,Madison,WI,53704,439900,3,2.5,Madison,2016,9147,1988,6,218,,Active,,,https://www.redfin.com/WI/Madison/4306-Brown-Ln-53704/home/57591361,SCWMLS,1985686,N,Y,43.142108,-89.3991106
MLS Listing,,Single Family Residential,9763 Watts Rd,Verona,WI,53593,440000,2,2.5,1000 Oaks,1480,3920,2018,6,297,25,Pre On-Market,October-5-2024 10:00 AM,October-5-2024 12:00 PM,https://www.redfin.com/WI/Verona/9763-Watts-Rd-53593/home/146984399,SCWMLS,1985682,N,Y,43.051683,-89.557822
MLS Listing,,Single Family Residential,1431 Hooker Ave,Madison,WI,53704,367500,3,2.0,Sheridan Triangle,1552,5227,1940,6,237,,Pre On-Market,September-21-2024 11:00 AM,September-21-2024 02:00 PM,https://www.redfin.com/WI/Madison/1431-Hooker-Ave-53704/home/89934107,SCWMLS,1985677,N,Y,43.116172,-89.365771
MLS Listing,,Single Family Residential,526 Holly Ave,Madison,WI,53711,600000,3,1.5,Westmorland,1645,15245,1948,6,365,,Active,,,https://www.redfin.com/WI/Madison/526-Holly-Ave-53711/home/89909390,SCWMLS,1983537,N,Y,43.0563191,-89.4459217
MLS Listing,,Single Family Residential,5 Redmound Cir,Madison,WI,53717,630000,4,2.5,Wexford Village,3661,17424,1992,6,172,,Pre On-Market,,,https://www.redfin.com/WI/Madison/5-Redmound-Cir-53717/home/89898997,SCWMLS,1985668,N,Y,43.0812413,-89.5173861
MLS Listing,,Single Family Residential,1410 Iowa Dr,Madison,WI,53704,349900,3,1.0,Sherman Village,1405,8276,1963,6,249,,Pre On-Market,,,https://www.redfin.com/WI/Madison/1410-Iowa-Dr-53704/home/57591336,SCWMLS,1985664,N,Y,43.1415753,-89.371647
MLS Listing,,Single Family Residential,9867 Hawks Nest Dr,Verona,WI,53593,475000,3,3.0,Hawks Woods Condos,2134,1742,2017,6,223,,Active,,,https://www.redfin.com/WI/Verona/9867-Hawks-Nest-Dr-53593/home/145181246,SCWMLS,1985665,N,Y,43.041075,-89.55906
MLS Listing,,Single Family Residential,211 N Spooner St,Madison,WI,53726,945700,4,2.5,University Heights,2380,6534,1924,6,397,,Active,,,https://www.redfin.com/WI/Madison/211-N-Spooner-St-53726/home/89906510,SCWMLS,1985655,N,Y,43.0716102,-89.4164885
MLS Listing,,Single Family Residential,1622 Grafton Rd,Madison,WI,53716,375000,3,2.0,Elvehjem,2052,8712,1980,6,183,,Active,,,https://www.redfin.com/WI/Madison/1622-Grafton-Rd-53716/home/89967916,SCWMLS,1985099,N,Y,43.0755284,-89.2853858
MLS Listing,,Single Family Residential,613 Clear Spring Ct,Monona,WI,53716,399900,2,1.0,Tonyawatha Springs,1452,8712,1925,6,275,,Pre On-Market,,,https://www.redfin.com/WI/Monona/613-Clear-Spring-Ct-53716/home/57584531,SCWMLS,1985640,N,Y,43.0705524,-89.3356247
MLS Listing,,Single Family Residential,417 Wyalusing Dr,Madison,WI,53718,435000,3,2.5,Madison,2261,8712,2002,6,192,,Active,,,https://www.redfin.com/WI/Madison/417-Wyalusing-Dr-53718/home/89966474,SCWMLS,1985382,N,Y,43.0932741,-89.2607252
MLS Listing,,Single Family Residential,1 Payson Ct,Madison,WI,53719,545000,4,3.5,Quarry Cove,2360,8712,2004,6,231,,Active,,,https://www.redfin.com/WI/Madison/1-Payson-Ct-53719/home/57779062,SCWMLS,1985634,N,Y,43.0093215,-89.4876715
MLS Listing,,Condo/Co-op,605 Samuel Dr,Madison,WI,53717,575000,3,3.0,Madison,2668,,2001,6,216,432,Active,,,https://www.redfin.com/WI/Madison/605-Samuel-Dr-53717/home/192515435,SCWMLS,1985617,N,Y,43.0723968,-89.5312138
MLS Listing,,Single Family Residential,3610 Atwood Ave,Madison,WI,53714,899900,3,1.5,Madison,1856,10454,1960,6,485,,Active,,,https://www.redfin.com/WI/Madison/3610-Atwood-Ave-53714/home/89915354,SCWMLS,1983189,N,Y,43.0882435,-89.3276033
MLS Listing,,Single Family Residential,706 Hintze Rd,Madison,WI,53704,325000,3,1.0,Madison,1056,9147,1962,6,308,,Pre On-Market,September-26-2024 04:00 PM,September-26-2024 06:00 PM,https://www.redfin.com/WI/Madison/706-Hintze-Rd-53704/home/89969251,SCWMLS,1985624,N,Y,43.1331791,-89.3867301
MLS Listing,,Single Family Residential,705 W Olin Ave,Madison,WI,53715,574900,6,3.0,Bay Creek,2270,7405,1923,6,253,,Active,,,https://www.redfin.com/WI/Madison/705-W-Olin-Ave-53715/home/89907807,SCWMLS,1985620,N,Y,43.0537975,-89.3942598
MLS Listing,,Single Family Residential,2053 Helena St,Madison,WI,53704,524900,3,1.0,Madison,1074,4791,1928,6,489,,Active,,,https://www.redfin.com/WI/Madison/2053-Helena-St-53704/home/89967335,SCWMLS,1985618,N,Y,43.090855,-89.3523095
MLS Listing,,Single Family Residential,805 Big Stone Trl,Middleton,WI,53562,1195000,5,4.5,Blackhawk,4333,15245,2016,7,276,13,Active,,,https://www.redfin.com/WI/Middleton/805-Big-Stone-Trl-53562/home/57978633,SCWMLS,1985601,N,Y,43.0770418,-89.5577326
MLS Listing,,Single Family Residential,1717 Schlimgen Ave,Madison,WI,53704,315000,2,1.0,Sherman,876,6098,1938,7,360,,Pre On-Market,,,https://www.redfin.com/WI/Madison/1717-Schlimgen-Ave-53704/home/57654548,SCWMLS,1985593,N,Y,43.1185913,-89.3628015
MLS Listing,,Single Family Residential,238 Breezy Grass Way,Madison,WI,53718,375000,3,2.5,The Meadowlands,1537,3920,2016,7,244,,Pre On-Market,,,https://www.redfin.com/WI/Madison/238-Breezy-Grass-Way-53718/home/89945562,SCWMLS,1985589,N,Y,43.0990017,-89.2526442
MLS Listing,,Townhouse,23 Washington Pl #23,Madison,WI,53703,875000,3,3.0,Madison,2241,,2008,7,390,794,Pre On-Market,,,https://www.redfin.com/WI/Madison/23-Washington-Pl-53703/unit-23/home/192501866,SCWMLS,1985590,N,Y,43.0717674,-89.3872763
MLS Listing,,Single Family Residential,2269 E Washington Ave,Madison,WI,53704,449900,3,1.5,Wakely,1121,4791,1904,7,401,,Pre On-Market,September-21-2024 11:00 AM,September-21-2024 01:00 PM,https://www.redfin.com/WI/Madison/2269-E-Washington-Ave-53704/home/89914337,SCWMLS,1985576,N,Y,43.0973578,-89.3519427
MLS Listing,,Single Family Residential,4929 Tocora Ln,Madison,WI,53711,485000,3,2.0,Midvale Heights,1505,9583,1955,7,322,,Active,,,https://www.redfin.com/WI/Madison/4929-Tocora-Ln-53711/home/89934343,SCWMLS,1985566,N,Y,43.0584054,-89.4632315
MLS Listing,,Single Family Residential,703 Old Timber Pass,Verona,WI,53593,497500,3,2.5,Birchwood Point,1628,4791,2020,7,306,10,Active,,,https://www.redfin.com/WI/Verona/703-Old-Timber-Pass-53593/home/171433664,SCWMLS,1983906,N,Y,43.0502358,-89.5646848
MLS Listing,,Townhouse,2009 Mckenna Blvd,Madison,WI,53711,299900,3,2.5,Madison,1546,,1998,7,194,280,Active,,,https://www.redfin.com/WI/Madison/2009-McKenna-Blvd-53711/home/179459387,SCWMLS,1983893,N,Y,43.0312594,-89.4967253
MLS Listing,,Single Family Residential,4914 Ralph Cir,Madison,WI,53714,429900,3,2.5,Rolling Meadow,1995,11761,1969,7,215,,Active,,,https://www.redfin.com/WI/Madison/4914-Ralph-Cir-53714/home/89912173,SCWMLS,1985555,N,Y,43.0965567,-89.2970571
MLS Listing,,Single Family Residential,2910 Lakeland Ave,Madison,WI,53704,1250000,3,3.0,Sasy,2542,4356,2006,7,492,,Active,,,https://www.redfin.com/WI/Madison/2910-Lakeland-Ave-53704/home/89966971,SCWMLS,1985552,N,Y,43.0901377,-89.341626
MLS Listing,,Single Family Residential,10 Craig Ave,Madison,WI,53705,264900,2,1.0,Trillium Homes Condo,768,,1951,7,345,,Active,September-22-2024 11:00 AM,September-22-2024 01:00 PM,https://www.redfin.com/WI/Madison/10-Craig-Ave-53705/home/182483598,SCWMLS,1984409,N,Y,43.0797871,-89.47287
MLS Listing,,Townhouse,22 Boca Grande Way,Madison,WI,53719,289900,2,1.5,Madison,1287,,2000,7,225,280,Active,,,https://www.redfin.com/WI/Madison/22-Boca-Grande-Way-53719/home/186310545,SCWMLS,1984823,N,Y,43.0308148,-89.5034448
MLS Listing,,Single Family Residential,1429 Macarthur Rd,Madison,WI,53714,339900,2,1.0,Mayfair Park,977,10018,1950,7,348,,Active,,,https://www.redfin.com/WI/Madison/1429-MacArthur-Rd-53714/home/89923019,SCWMLS,1985090,N,Y,43.1163598,-89.3219726
MLS Listing,,Single Family Residential,6114 Piping Rock Rd,Madison,WI,53711,549000,5,3.0,Green Tree,3115,13503,1966,7,176,,Active,,,https://www.redfin.com/WI/Madison/6114-Piping-Rock-Rd-53711/home/89901900,SCWMLS,1985248,N,Y,43.041577,-89.4870232
MLS Listing,,Single Family Residential,10009 Shadow Ridge Trl,Middleton,WI,53562,1250000,5,3.0,Blackhawk,4874,12196,2015,8,256,14,Active,September-22-2024 01:00 PM,September-22-2024 03:00 PM,https://www.redfin.com/WI/Middleton/10009-Shadow-Ridge-Trl-53562/home/67103116,SCWMLS,1985537,N,Y,43.0763196,-89.5604103
MLS Listing,,Condo/Co-op,123 N Blount St #404,Madison,WI,53703,449900,2,2.0,Madison,1070,,1910,8,420,623,Active,September-21-2024 01:00 PM,September-21-2024 03:00 PM,https://www.redfin.com/WI/Madison/123-N-Blount-St-53703/unit-404/home/57856368,SCWMLS,1985533,N,Y,43.0813413,-89.3781401
MLS Listing,,Condo/Co-op,16 Sherman Ter #2,Madison,WI,53704,219800,2,1.0,Madison,852,,1949,8,258,275,Active,,,https://www.redfin.com/WI/Madison/16-Sherman-Ter-53704/unit-2/home/89964013,SCWMLS,1985528,N,Y,43.0953804,-89.3664257
MLS Listing,,Single Family Residential,7139 Field Flower Way,Madison,WI,53718,450000,3,2.0,The Meadowlands40,1572,8712,2018,8,286,10,Active,September-22-2024 11:00 AM,September-22-2024 01:00 PM,https://www.redfin.com/WI/Madison/7139-Field-Flower-Way-53718/home/107286488,SCWMLS,1982014,N,Y,43.0997957,-89.2507894
MLS Listing,,Single Family Residential,113 Standish Ct,Madison,WI,53705,975000,4,2.5,Sunset Hills,2210,11325,1967,8,441,,Active,September-22-2024 10:00 AM,September-22-2024 12:00 PM,https://www.redfin.com/WI/Madison/113-Standish-Ct-53705/home/89906342,SCWMLS,1985511,N,Y,43.0649049,-89.4423581
MLS Listing,,Condo/Co-op,340 N Allen St #21,Madison,WI,53726,280000,2,1.0,Madison,1141,,1981,8,245,493,Active,,,https://www.redfin.com/WI/Madison/340-N-Allen-St-53726/unit-21/home/89964921,SCWMLS,1985085,N,Y,43.0721972,-89.424068
MLS Listing,,Single Family Residential,1201 Southridge Dr,Madison,WI,53704,400000,3,2.5,Ridgewood The Valley Addition,1622,7840,1999,8,247,,Active,,,https://www.redfin.com/WI/Madison/1201-Southridge-Dr-53704/home/57646403,SCWMLS,1985508,N,Y,43.115934,-89.2918318
MLS Listing,,Single Family Residential,1911 Vilas Ave,Madison,WI,53711,1400000,5,2.5,Vilas,3416,7405,1926,8,410,,Active,,,https://www.redfin.com/WI/Madison/1911-Vilas-Ave-53711/home/89907501,SCWMLS,1985392,N,Y,43.061573,-89.4146981
MLS Listing,,Townhouse,3008 Nessling St,Madison,WI,53719,329900,2,2.5,Madison,1668,,2000,8,198,330,Active,,,https://www.redfin.com/WI/Madison/3008-Nessling-St-53719/home/146328795,SCWMLS,1985481,N,Y,43.0176752,-89.5172607
MLS Listing,,Single Family Residential,3387 Brugger Pl,Mcfarland,WI,53558,429000,3,2.0,April Hill,1528,15681,1981,8,281,,Pre On-Market,,,https://www.redfin.com/WI/McFarland/3387-Brugger-Pl-53558/home/89882005,SCWMLS,1985473,N,Y,43.0315143,-89.2814542
MLS Listing,,Townhouse,326 E Hill Pkwy #5,Madison,WI,53718,279900,2,2.5,Madison,1364,,2006,8,205,275,Active,,,https://www.redfin.com/WI/Madison/326-East-Hill-Pkwy-53718/unit-5/home/57817411,SCWMLS,1985454,N,Y,43.094552,-89.2601589
MLS Listing,,Single Family Residential,206 Oak St,Madison,WI,53704,274500,2,1.0,Madison,816,3920,1925,8,336,,Active,,,https://www.redfin.com/WI/Madison/206-Oak-St-53704/home/89913807,SCWMLS,1982618,N,Y,43.1017371,-89.3435552
MLS Listing,,Single Family Residential,2301 Aspen Rd,Madison,WI,53711,424900,4,1.5,Manor Green Addition To Meadowwood,2794,11325,1963,8,152,,Active,,,https://www.redfin.com/WI/Madison/2301-Aspen-Rd-53711/home/89898791,SCWMLS,1985464,N,Y,43.0285003,-89.4711233
MLS Listing,,Single Family Residential,4731 Catalina Pkwy,Mcfarland,WI,53558,514900,3,2.5,Secret Places,2056,7405,2016,8,250,23,Active,,,https://www.redfin.com/WI/McFarland/4731-Catalina-Pkwy-53558/home/89945842,SCWMLS,1984917,N,Y,43.0290287,-89.2696186
MLS Listing,,Single Family Residential,7426 East Pass,Madison,WI,53719,479000,3,2.5,The Crossing,2404,7840,1999,8,199,,Active,September-21-2024 12:00 PM,September-21-2024 02:00 PM,https://www.redfin.com/WI/Madison/7426-East-Pass-53719/home/57642180,SCWMLS,1983907,N,Y,43.0076179,-89.5080613
MLS Listing,,Single Family Residential,502 Orchard Dr,Madison,WI,53711,394900,3,1.0,Park Heights,1260,10454,1953,8,313,,Active,,,https://www.redfin.com/WI/Madison/502-Orchard-Dr-53711/home/89910092,SCWMLS,1985366,N,Y,43.0559446,-89.456376
MLS Listing,,Single Family Residential,6927 Silver Dawn Dr,Madison,WI,53718,394900,3,2.5,The Meadowlands,1736,6534,2005,8,227,13,Active,September-21-2024 11:00 AM,September-21-2024 01:00 PM,https://www.redfin.com/WI/Madison/6927-Silver-Dawn-Dr-53718/home/57582972,SCWMLS,1985461,N,Y,43.0978004,-89.2574357
MLS Listing,,Townhouse,309 South Point Rd,Verona,WI,53593,394900,3,2.5,Madison,1985,,2017,8,199,200,Active,,,https://www.redfin.com/WI/Verona/309-S-Point-Rd-53593/home/185119647,SCWMLS,1985172,N,Y,43.0570489,-89.5517163
MLS Listing,,Townhouse,5122 Merwood Ln #124,Madison,WI,53718,349900,3,2.5,Madison,1600,,2012,8,219,175,Active,,,https://www.redfin.com/WI/Madison/5122-Merwood-Ln-53718/unit-124/home/192515724,SCWMLS,1985458,N,Y,43.0263805,-89.2922093
MLS Listing,,Single Family Residential,778 Sky Ridge Dr,Madison,WI,53719,450000,5,3.5,Highland Village,2146,6534,1993,9,210,,Pre On-Market,,,https://www.redfin.com/WI/Madison/778-Sky-Ridge-Dr-53719/home/89902089,SCWMLS,1985432,N,Y,43.0499425,-89.5111574
MLS Listing,,Single Family Residential,2609 Myrtle St,Madison,WI,53704,349900,3,1.0,John W. Tilton,1132,4791,1948,9,309,,Active,,,https://www.redfin.com/WI/Madison/2609-Myrtle-St-53704/home/89969742,SCWMLS,1985430,N,Y,43.1098186,-89.3486693
MLS Listing,,Single Family Residential,3833 Clover Ln,Madison,WI,53714,325000,3,2.0,Olbrich Park,1243,6534,1950,9,261,,Pre On-Market,,,https://www.redfin.com/WI/Madison/3833-Clover-Ln-53714/home/89967595,SCWMLS,1985420,N,Y,43.0855181,-89.3224544
MLS Listing,,Condo/Co-op,6402 Milwaukee St #302,Madison,WI,53718,289900,3,2.0,Madison,1379,,2005,9,210,375,Active,,,https://www.redfin.com/WI/Madison/6402-Milwaukee-St-53718/unit-302/home/57829084,SCWMLS,1985395,N,Y,43.1000024,-89.2687448
MLS Listing,,Single Family Residential,421 Jubilee Ln,Madison,WI,53718,425000,3,2.5,Madison,2243,9147,2002,9,189,,Active,,,https://www.redfin.com/WI/Madison/421-Jubilee-Ln-53718/home/89924686,SCWMLS,1985389,N,Y,43.0925919,-89.268969
MLS Listing,,Condo/Co-op,845 Sky Ridge Dr,Madison,WI,53719,349900,3,2.0,Madison,1800,,1992,9,194,175,Active,,,https://www.redfin.com/WI/Madison/845-Sky-Ridge-Dr-53719/home/192439305,SCWMLS,1985390,N,Y,43.0489905,-89.5092786
MLS Listing,,Multi-Family (2-4 Unit),3221 Milwaukee St,Madison,WI,53714,374900,2,2.0,Madison,,4791,1926,9,,,Active,,,https://www.redfin.com/WI/Madison/3221-Milwaukee-St-53714/home/89941751,SCWMLS,1985387,N,Y,43.0995964,-89.3348578
MLS Listing,,Condo/Co-op,65 Golf Course Rd Unit B,Madison,WI,53704,259900,2,1.5,Madison,1310,,1981,9,198,352,Pre On-Market,,,https://www.redfin.com/WI/Madison/65-Golf-Course-Rd-53704/unit-B/home/89968738,SCWMLS,1985386,N,Y,43.1501557,-89.3681457
MLS Listing,,Townhouse,807 N High Point Rd,Madison,WI,53717,467000,3,2.5,Madison,2118,,1998,9,220,350,Active,September-22-2024 02:00 PM,September-22-2024 04:00 PM,https://www.redfin.com/WI/Madison/807-N-High-Point-Rd-53717/home/192434339,SCWMLS,1985371,N,Y,43.0763851,-89.5179585
MLS Listing,,Single Family Residential,26 Wakeman St,Madison,WI,53705,340000,4,1.0,Glen Oak Hills,1316,7405,1957,9,258,,Active,,,https://www.redfin.com/WI/Madison/26-Wakeman-St-53705/home/89904111,SCWMLS,1985013,N,Y,43.0692624,-89.4749574
MLS Listing,,Single Family Residential,7313 Ashwabay Ln,Madison,WI,53719,695000,3,3.5,High Point Estates,3248,20037,1993,9,214,105,Pre On-Market,,,https://www.redfin.com/WI/Madison/7313-Ashwabay-Ln-53719/home/89902079,SCWMLS,1985368,N,Y,43.0458498,-89.510529
MLS Listing,,Townhouse,1546 Langley Ln,Madison,WI,53718,312000,2,2.5,Madison,1731,,1995,9,180,305,Active,,,https://www.redfin.com/WI/Madison/1546-Langley-Ln-53718/home/185145733,SCWMLS,1985364,N,Y,43.076599,-89.275758
MLS Listing,,Single Family Residential,21 Dixon St,Madison,WI,53704,282000,2,1.5,Madison,1304,4791,1926,11,216,,Pre On-Market,,,https://www.redfin.com/WI/Madison/21-Dixon-St-53704/home/89912561,SCWMLS,1985348,N,Y,43.0991865,-89.3402978
MLS Listing,,Single Family Residential,5799 Portage Rd,Madison,WI,53718,1400000,4,2.0,Burke,2040,359370,1900,11,686,,Active,,,https://www.redfin.com/WI/Madison/5799-Portage-Rd-53718/home/89960321,SCWMLS,1985342,N,Y,43.1638732,-89.3053091
MLS Listing,,Single Family Residential,601 Cedar St,Madison,WI,53715,420000,3,1.5,Woodlwan Add To S Madison,1760,7405,1947,11,239,,Active,,,https://www.redfin.com/WI/Madison/601-Cedar-St-53715/home/89908268,SCWMLS,1984953,N,Y,43.0516986,-89.3924445
MLS Listing,,Single Family Residential,1102 Debra Ln,Madison,WI,53704,354900,3,1.0,Madison,1654,9583,1967,11,215,,Active,,,https://www.redfin.com/WI/Madison/1102-Debra-Ln-53704/home/89920031,SCWMLS,1985341,N,Y,43.1475896,-89.3776542
MLS Listing,,Townhouse,308 Glenthistle Ct,Madison,WI,53705,599000,2,2.5,Madison,1806,,1986,11,332,258,Active,,,https://www.redfin.com/WI/Madison/308-Glenthistle-Ct-53705/home/186258169,SCWMLS,1985337,N,Y,43.075131,-89.476291
MLS Listing,,Townhouse,7105 Discovery Ln,Madison,WI,53719,330000,2,2.5,Madison,1540,,2005,12,214,290,Active,,,https://www.redfin.com/WI/Madison/7105-Discovery-Ln-53719/home/185125490,SCWMLS,1985324,N,Y,43.006167,-89.508384
MLS Listing,,Single Family Residential,1844 Autumn Lake Pkwy,Madison,WI,53718,415000,3,2.0,Village At Autumn Lake,1656,4791,2019,12,251,24,Active,,,https://www.redfin.com/WI/Madison/1844-Autumn-Lake-Pkwy-53718/home/145060609,SCWMLS,1985323,N,Y,43.1237371,-89.2826061
MLS Listing,,Single Family Residential,9417 Silverstone Ln,Verona,WI,53593,765000,4,3.5,Hawks Ridge Estates,3177,8712,2012,12,241,,Active,September-22-2024 01:00 PM,September-22-2024 03:00 PM,https://www.redfin.com/WI/Verona/9417-Silverstone-Ln-53593/home/57761880,SCWMLS,1985321,N,Y,43.0297473,-89.5501133
MLS Listing,,Condo/Co-op,617 E Dayton St Unit A,Madison,WI,53703,399000,2,1.0,Madison,935,,2000,12,427,259,Active,,,https://www.redfin.com/WI/Madison/617-E-Dayton-St-53703/unit-A/home/89903752,SCWMLS,1985285,N,Y,43.0802302,-89.3798691
MLS Listing,,Single Family Residential,1305 Rosedale Ave,Madison,WI,53714,310000,2,2.0,Washington Heights,1214,8276,1952,12,255,,Active,,,https://www.redfin.com/WI/Madison/1305-Rosedale-Ave-53714/home/57648107,SCWMLS,1985281,N,Y,43.1133406,-89.322776
MLS Listing,,Condo/Co-op,1008 Whispering Pines Way,Fitchburg,WI,53713,199900,2,1.0,Fitchburg,1019,,1985,12,196,220,Active,,,https://www.redfin.com/WI/Fitchburg/1008-Whispering-Pines-Way-53713/home/185104369,SCWMLS,1985274,N,Y,43.0237906,-89.4260513
MLS Listing,,Condo/Co-op,1530 Golf View Rd Unit C,Madison,WI,53704,250000,2,2.0,Madison,1500,,1985,12,167,390,Pre On-Market,,,https://www.redfin.com/WI/Madison/1530-Golf-View-Rd-53704/unit-C/home/89919534,SCWMLS,1985266,N,Y,43.149256,-89.366622
MLS Listing,,Single Family Residential,605 Sheldon St,Madison,WI,53711,620000,3,1.5,Dudgeon Monroe,2120,4791,1923,12,292,,Pre On-Market,,,https://www.redfin.com/WI/Madison/605-Sheldon-St-53711/home/89941437,SCWMLS,1985265,N,Y,43.0597194,-89.4281945
MLS Listing,,Single Family Residential,9332 Spirit St,Middleton,WI,53562,690000,3,3.5,Woodstone,2724,7405,2013,12,253,,Active,,,https://www.redfin.com/WI/Middleton/9332-Spirit-St-53562/home/57776695,SCWMLS,1984877,N,Y,43.0668004,-89.5482338
MLS Listing,,Single Family Residential,9438 Spirit St,Middleton,WI,53562,634900,4,3.0,Woodstone,2611,7840,2012,12,243,,Active,September-20-2024 04:30 PM,September-20-2024 06:00 PM,https://www.redfin.com/WI/Middleton/9438-Spirit-St-53562/home/57749660,SCWMLS,1983524,N,Y,43.0668287,-89.5506108
MLS Listing,,Single Family Residential,5201 Flad Ave,Madison,WI,53711,575000,4,3.5,Madison,3188,10890,1986,12,180,,Active,,,https://www.redfin.com/WI/Madison/5201-Flad-Ave-53711/home/89910731,SCWMLS,1985257,N,Y,43.0346707,-89.4688145
MLS Listing,,Single Family Residential,6 Quinn Cir,Madison,WI,53713,484500,3,1.5,Waunona Woods,3055,14374,1969,12,159,,Active,,,https://www.redfin.com/WI/Madison/6-Quinn-Cir-53713/home/89918743,SCWMLS,1979146,N,Y,43.0454587,-89.3596649
MLS Listing,,Multi-Family (2-4 Unit),1852 Fisher St,Madison,WI,53713,695000,5,2.0,Madison,,11325,1969,13,,,Active,,,https://www.redfin.com/WI/Madison/1852-Fisher-St-53713/home/89908593,SCWMLS,1984746,N,Y,43.0463537,-89.3919394
MLS Listing,,Single Family Residential,6942 Winstone Dr,Madison,WI,53711,400000,3,2.0,Meadowood,1556,10890,1978,13,257,,Pre On-Market,,,https://www.redfin.com/WI/Madison/6942-Winstone-Dr-53711/home/57592099,SCWMLS,1985226,N,Y,43.027579,-89.502804
MLS Listing,,Single Family Residential,2015 E Johnson St,Madison,WI,53704,350000,3,1.0,Madison,1316,5662,1941,13,266,,Active,,,https://www.redfin.com/WI/Madison/2015-E-Johnson-St-53704/home/89914544,SCWMLS,1985215,N,Y,43.095868,-89.3598232
MLS Listing,,Condo/Co-op,94 Craig Ave,Madison,WI,53705,235000,2,1.0,Madison,768,,1951,13,306,120,Active,,,https://www.redfin.com/WI/Madison/94-Craig-Ave-53705/home/185085178,SCWMLS,1984869,N,Y,43.0759619,-89.472807
MLS Listing,,Single Family Residential,422 Mineau Pkwy,Madison,WI,53711,440000,3,2.0,Mineau Heights,1802,7840,1958,13,244,,Active,,,https://www.redfin.com/WI/Madison/422-Mineau-Pkwy-53711/home/89909230,SCWMLS,1982860,N,Y,43.060014,-89.4603649
MLS Listing,,Condo/Co-op,5120 Walbridge Ave,Madison,WI,53714,250000,2,2.0,Blooming Grove,1186,,2006,13,211,199,Active,,,https://www.redfin.com/WI/Madison/5120-N-Walbridge-Ave-53714/home/185099541,SCWMLS,1984410,N,Y,43.1009236,-89.3139713
MLS Listing,,Single Family Residential,629 Piper Dr,Madison,WI,53711,459900,3,1.5,Midvale Heights,1664,9583,1953,13,276,,Active,,,https://www.redfin.com/WI/Madison/629-Piper-Dr-53711/home/89909505,SCWMLS,1985178,N,Y,43.0517482,-89.4570775
MLS Listing,,Condo/Co-op,849 N High Point Rd,Madison,WI,53717,445000,2,2.0,Madison,1682,,1997,13,265,350,Active,September-22-2024 12:00 PM,September-22-2024 02:00 PM,https://www.redfin.com/WI/Madison/849-N-High-Point-Rd-53717/home/192370083,SCWMLS,1985176,N,Y,43.0776759,-89.517972
MLS Listing,,Single Family Residential,235 Blooming Leaf Way,Verona,WI,53593,499900,3,2.5,Birchwood Point,1806,4356,2017,13,277,10,Active,,,https://www.redfin.com/WI/Verona/235-Blooming-Leaf-Way-53593/home/114000356,SCWMLS,1985160,N,Y,43.0578015,-89.5649618
MLS Listing,,Condo/Co-op,2158 Allen Blvd #2,Middleton,WI,53562,199900,2,1.0,Middleton,820,,1975,13,244,350,Active,,,https://www.redfin.com/WI/Middleton/2158-Allen-Blvd-53562/unit-2/home/57848360,SCWMLS,1982236,N,Y,43.0944716,-89.4866131
MLS Listing,,Condo/Co-op,311 N Hancock St #320,Madison,WI,53703,450000,2,2.0,Madison,1205,,1986,13,373,432,Active,,,https://www.redfin.com/WI/Madison/311-N-Hancock-St-53703/unit-320/home/89945759,SCWMLS,1985165,N,Y,43.0799273,-89.3833847
MLS Listing,,Condo/Co-op,1 Golf Course Rd Unit G,Madison,WI,53704,249900,2,2.0,Madison,1300,,1978,13,192,330,Active,,,https://www.redfin.com/WI/Madison/1-Golf-Course-Rd-53704/unit-G/home/89968487,SCWMLS,1985158,N,Y,43.1489753,-89.3714646
MLS Listing,,Townhouse,3725 Design Pass,Madison,WI,53719,349900,2,2.5,Madison,1447,,2005,13,242,290,Active,,,https://www.redfin.com/WI/Madison/3725-Design-Pass-53719/home/184982966,SCWMLS,1984328,N,Y,43.0061674,-89.5083837
MLS Listing,,Single Family Residential,549 Roman Mist Way,Verona,WI,53593,520000,3,2.5,Acacia Ridge,1848,5662,2019,14,281,19,Active,,,https://www.redfin.com/WI/Verona/549-Roman-Mist-Way-53593/home/170175985,SCWMLS,1985138,N,Y,43.0525607,-89.5484733
MLS Listing,,Single Family Residential,570 Apollo Way,Madison,WI,53718,400000,3,3.5,Grandview Commons,2242,4356,2005,14,178,,Pre On-Market,,,https://www.redfin.com/WI/Madison/570-Apollo-Way-53718/home/89943153,SCWMLS,1985136,N,Y,43.0899121,-89.2803603
MLS Listing,,Single Family Residential,3314 Bradbury Rd,Madison,WI,53719,470000,4,3.5,Quarry Cove,1940,7405,2004,14,242,,Active,,,https://www.redfin.com/WI/Madison/3314-Bradbury-Rd-53719/home/89962563,SCWMLS,1984707,N,Y,43.0109923,-89.4855498
MLS Listing,,Single Family Residential,7822 Copper Leaf Trl,Madison,WI,53719,599900,5,3.5,Valley Ridge,3143,7405,2005,14,191,15,Active,,,https://www.redfin.com/WI/Madison/7822-Copper-Leaf-Trl-53719/home/57571578,SCWMLS,1985101,N,Y,43.0382386,-89.5211636
MLS Listing,,Townhouse,6915 Raymond Rd,Madison,WI,53719,280000,2,1.5,Madison,1279,,1995,14,219,255,Active,,,https://www.redfin.com/WI/Madison/6915-Raymond-Rd-53719/home/185136975,SCWMLS,1983888,N,Y,43.031354,-89.502317
MLS Listing,,Single Family Residential,2526 E Mifflin St,Madison,WI,53704,519900,4,3.0,Madison,1410,5227,1925,14,369,,Active,,,https://www.redfin.com/WI/Madison/2526-E-Mifflin-St-53704/home/57778639,SCWMLS,1985065,N,Y,43.1010778,-89.3501702
MLS Listing,,Single Family Residential,3013 Pelham Rd,Madison,WI,53713,749000,5,3.5,Arbor Hills Pelham Addn,3607,13068,1971,14,208,,Active,,,https://www.redfin.com/WI/Madison/3013-Pelham-Rd-53713/home/89898030,SCWMLS,1985064,N,Y,43.0294819,-89.4288704
MLS Listing,,Single Family Residential,2414 Jonquil Rd,Madison,WI,53711,375000,3,2.0,Meadowood,1567,10890,1976,15,239,,Active,,,https://www.redfin.com/WI/Madison/2414-Jonquil-Rd-53711/home/57603652,SCWMLS,1981373,N,Y,43.0263303,-89.4879175
MLS Listing,,Single Family Residential,4309 Somerset Ln,Madison,WI,53711,475000,3,1.5,Westmorland,1200,9147,1956,15,396,,Active,September-19-2024 04:00 PM,September-19-2024 06:00 PM,https://www.redfin.com/WI/Madison/4309-Somerset-Ln-53711/home/89910191,SCWMLS,1985019,N,Y,43.0484614,-89.4488035
MLS Listing,,Condo/Co-op,6 Heritage Cir #6,Madison,WI,53711,215000,2,1.0,Madison,1142,,1971,15,188,340,Pre On-Market,September-21-2024 10:00 AM,September-21-2024 12:00 PM,https://www.redfin.com/WI/Madison/6-Heritage-Cir-53711/unit-6/home/58662316,SCWMLS,1984991,N,Y,43.0396089,-89.4548751
MLS Listing,,Townhouse,6903 Raymond Rd,Madison,WI,53719,265000,2,2.5,Madison,1139,,1995,15,233,255,Pre On-Market,,,https://www.redfin.com/WI/Madison/6903-Raymond-Rd-53719/home/185132366,SCWMLS,1984988,N,Y,43.031295,-89.5004978
MLS Listing,,Single Family Residential,10 Weir Cir,Madison,WI,53719,419900,3,2.0,Sandstone Ridge,1731,7405,2000,19,243,,Active,,,https://www.redfin.com/WI/Madison/10-Weir-Cir-53719/home/57760599,SCWMLS,1984923,N,Y,43.0076166,-89.4903496
MLS Listing,,Condo/Co-op,1835 Winnebago St #407,Madison,WI,53704,330000,1,1.0,Madison,821,,2006,19,402,373,Pre On-Market,,,https://www.redfin.com/WI/Madison/1835-Winnebago-St-53704/unit-407/home/57827889,SCWMLS,1984912,N,Y,43.0902769,-89.3559395
MLS Listing,,Multi-Family (5+ Unit),225 Nautilus Dr,Madison,WI,53705,1600000,,,Madison,,27007,1965,19,,,Active,,,https://www.redfin.com/WI/Madison/225-Nautilus-Dr-53705/home/164467522,SCWMLS,1984907,N,Y,43.062551,-89.4888733
MLS Listing,,Single Family Residential,82 Chequamegon Bay BAY,Madison,WI,53719,990000,6,5.5,High Point Estates,5690,47480,1989,19,174,23,Active,,,https://www.redfin.com/WI/Madison/82-Chequamegon-Bay-53719/home/89901613,SCWMLS,1980590,N,Y,43.0431451,-89.5119328
MLS Listing,,Condo/Co-op,7414 Whitacre Rd #4,Madison,WI,53717,245000,2,1.5,Madison,1113,,1978,19,220,410,Active,,,https://www.redfin.com/WI/Madison/7414-Whitacre-Rd-53717/unit-4/home/57802857,SCWMLS,1984725,N,Y,43.0731162,-89.511824
MLS Listing,,Single Family Residential,2909 Pelham Rd,Madison,WI,53713,510000,4,2.5,Arbor Hills,2753,13939,1977,19,185,,Active,,,https://www.redfin.com/WI/Madison/2909-Pelham-Rd-53713/home/89897593,SCWMLS,1981937,N,Y,43.0299771,-89.4271811
MLS Listing,,Townhouse,71 Golf Pkwy #71,Madison,WI,53704,575000,4,3.0,Madison,3634,,1999,19,158,457,Active,,,https://www.redfin.com/WI/Madison/71-Golf-Pkwy-53704/unit-71/home/57833558,SCWMLS,1984864,N,Y,43.1508307,-89.3670755
MLS Listing,,Single Family Residential,2125 E Washington Ave,Madison,WI,53704,475000,4,2.0,Wakaley,1754,3484,1907,19,271,,Pre On-Market,September-21-2024 01:00 PM,September-21-2024 03:00 PM,https://www.redfin.com/WI/Madison/2125-E-Washington-Ave-53704/home/57605251,SCWMLS,1984863,N,Y,43.0952443,-89.3547771
MLS Listing,,Single Family Residential,10222 Shady Birch Trl,Verona,WI,53593,590000,4,2.5,Birchwood Point,2172,7405,2018,19,272,,Active,,,https://www.redfin.com/WI/Verona/10222-Shady-Birch-Trl-53593/home/114000370,SCWMLS,1984860,N,Y,43.0540438,-89.5641882
MLS Listing,,Single Family Residential,5738 Forsythia Pl,Madison,WI,53705,400000,3,1.5,Crestwood,1283,7405,1952,19,312,,Active,,,https://www.redfin.com/WI/Madison/5738-Forsythia-Pl-53705/home/89904936,SCWMLS,1984856,N,Y,43.0698931,-89.4814723
MLS Listing,,Single Family Residential,5306 Russett Rd,Madison,WI,53711,380000,3,2.5,Madison,1970,23086,1968,20,193,,Pre On-Market,,,https://www.redfin.com/WI/Madison/5306-Russett-Rd-53711/home/57578231,SCWMLS,1984836,N,Y,43.0334674,-89.4696047
MLS Listing,,Condo/Co-op,350 S Hamilton St #201,Madison,WI,53703,875000,2,2.0,Madison,1646,,2006,20,532,813,Active,,,https://www.redfin.com/WI/Madison/350-S-Hamilton-St-53703/unit-201/home/89949921,SCWMLS,1984832,N,Y,43.0693593,-89.3848386
MLS Listing,,Single Family Residential,5819 Divine St #55,Madison,WI,53718,519900,4,2.5,Jannah Village,1661,8712,2024,20,313,,Active,September-21-2024 11:00 AM,September-21-2024 02:00 PM,https://www.redfin.com/WI/Madison/5819-Divine-St-53718/unit-55/home/190780980,SCWMLS,1984820,N,Y,43.111145,-89.277409
MLS Listing,,Condo/Co-op,123 N Oak Grove Dr,Madison,WI,53719,559900,4,3.0,Madison,3300,,1992,20,170,534,Pre On-Market,,,https://www.redfin.com/WI/Madison/123-N-Oak-Grove-Dr-53717/home/192289832,SCWMLS,1984816,N,Y,43.0789212,-89.4951492
MLS Listing,,Multi-Family (2-4 Unit),1925 E Washington Ave,Madison,WI,53704,415000,4,2.0,Madison,,5227,1902,20,,,Active,,,https://www.redfin.com/WI/Madison/1925-E-Washington-Ave-53704/home/89967163,SCWMLS,1984803,N,Y,43.0925936,-89.3582476
MLS Listing,,Single Family Residential,5714 Divine St #36,Madison,WI,53718,512900,3,2.0,Jannah Village,1547,8712,2024,20,332,,Active,September-21-2024 11:00 AM,September-21-2024 02:00 PM,https://www.redfin.com/WI/Madison/5714-Divine-St-53718/unit-36/home/191015150,SCWMLS,1984801,N,Y,43.111705,-89.279183
MLS Listing,,Single Family Residential,5706 Divine St #34,Madison,WI,53718,514900,3,2.0,Jannah Village,1516,8712,2023,20,340,,Active,September-21-2024 11:00 AM,September-21-2024 02:00 PM,https://www.redfin.com/WI/Madison/5706-Divine-St-53718/unit-34/home/190780983,SCWMLS,1984796,N,Y,43.111706,-89.27973
MLS Listing,,Townhouse,7137 Discovery Ln,Madison,WI,53719,334500,2,2.5,Madison,1447,,2005,20,231,290,Pre On-Market,,,https://www.redfin.com/WI/Madison/7137-Discovery-Ln-53719/home/185105272,SCWMLS,1984778,N,Y,43.005119,-89.508809
MLS Listing,,Condo/Co-op,309 W Washington Ave #815,Madison,WI,53703,475000,1,1.0,Madison,965,,2008,20,492,383,Active,,,https://www.redfin.com/WI/Madison/309-W-Washington-Ave-53703/unit-815/home/57843683,SCWMLS,1982394,N,Y,43.0722116,-89.3872633
MLS Listing,,Townhouse,144 Grand Canyon Dr,Madison,WI,53705,270000,2,1.5,Madison,1242,,1971,20,217,341,Pre On-Market,,,https://www.redfin.com/WI/Madison/144-Grand-Canyon-Dr-53705/home/186309535,SCWMLS,1984736,N,Y,43.0630276,-89.496882
MLS Listing,,Single Family Residential,833 Miami Pass,Madison,WI,53711,1300000,4,3.5,Madison,3549,10018,1928,21,366,,Active,,,https://www.redfin.com/WI/Madison/833-Miami-Pass-53711/home/57792425,SCWMLS,1984706,N,Y,43.0473359,-89.4427287
MLS Listing,,Condo/Co-op,555 S Midvale Blvd #214,Madison,WI,53711,440000,1,1.5,Madison,1176,,2008,21,374,452,Active,,,https://www.redfin.com/WI/Madison/555-S-Midvale-Blvd-53711/unit-214/home/89951442,SCWMLS,1984708,N,Y,43.0541171,-89.4508627
MLS Listing,,Townhouse,125 N Hamilton St #1402,Madison,WI,53703,1995000,2,2.5,Madison,3015,,2002,21,662,1317,Active,,,https://www.redfin.com/WI/Madison/125-N-Hamilton-St-53703/unit-1402/home/107036031,SCWMLS,1983752,N,Y,43.0770881,-89.3838025
MLS Listing,,Single Family Residential,9521 Blackhawk Rd,Madison,WI,53562,625000,4,3.0,Middleton,2520,37897,1980,21,248,,Pre On-Market,September-20-2024 05:00 PM,September-20-2024 07:00 PM,https://www.redfin.com/WI/Middleton/9521-Blackhawk-Rd-53562/home/89900073,SCWMLS,1984691,N,Y,43.0815517,-89.5522074
MLS Listing,,Townhouse,4527 Martha Ln,Madison,WI,53714,275000,2,1.5,Madison,1615,,1987,21,170,250,Active,,,https://www.redfin.com/WI/Madison/4527-Martha-Ln-53714/home/185097642,SCWMLS,1983676,N,Y,43.085427,-89.304422
MLS Listing,,Single Family Residential,9922 Autumn Breeze Rd,Middleton,WI,53562,799000,4,3.0,Autumn Ridge Reserve,3036,7840,2017,21,263,,Pre On-Market,September-22-2024 02:00 PM,September-22-2024 04:00 PM,https://www.redfin.com/WI/Middleton/9922-Autumn-Breeze-Rd-53562/home/114000965,SCWMLS,1984646,N,Y,43.0691314,-89.5587457
MLS Listing,,Multi-Family (5+ Unit),101-109 N Franklin & 510 E. Mifflin St,Madison,WI,53703,2900000,,,Madison,,13155,,22,,,Active,,,https://www.redfin.com/WI/Madison/101-N-Franklin-St-53703/home/89964231,SCWMLS,1984599,N,Y,43.0789662,-89.3807346
MLS Listing,,Single Family Residential,2301 Mica Rd,Madison,WI,53719,545000,4,3.0,Stone Crest Estates,2633,9147,2002,22,207,,Active,September-20-2024 04:00 PM,September-20-2024 06:00 PM,https://www.redfin.com/WI/Madison/2301-Mica-Rd-53719/home/89897136,SCWMLS,1984003,N,Y,43.0280903,-89.5286619
MLS Listing,,Single Family Residential,2634 Union St,Madison,WI,53704,275000,2,2.0,Farwells Eastern Addition,1400,4356,1923,22,196,,Pre On-Market,,,https://www.redfin.com/WI/Madison/2634-Union-St-53704/home/89967069,SCWMLS,1984591,N,Y,43.1010742,-89.3469633
MLS Listing,,Single Family Residential,4306 Green Ave,Madison,WI,53704,499900,3,2.5,Westport Meadows,2095,8712,1988,22,239,,Active,,,https://www.redfin.com/WI/Madison/4306-Green-Ave-53704/home/89921195,SCWMLS,1984564,N,Y,43.1420538,-89.3980361
MLS Listing,,Single Family Residential,752 E Gorham St,Madison,WI,53703,2900000,5,6.5,Doyons,5374,11325,1854,23,540,,Pre On-Market,,,https://www.redfin.com/WI/Madison/752-E-Gorham-St-53703/home/57586764,SCWMLS,1984547,N,Y,43.0839727,-89.3793152
MLS Listing,,Single Family Residential,5 Westwynn Cir,Madison,WI,53704,445000,4,3.5,Madison,2279,9583,1994,23,195,,Active,,,https://www.redfin.com/WI/Madison/5-Westwynn-Cir-53704/home/57775462,SCWMLS,1983544,N,Y,43.1183395,-89.2983933
MLS Listing,,Single Family Residential,701 Vernon Ave,Madison,WI,53714,400000,4,2.0,Meadowood-east,2711,10018,1967,23,148,,Active,,,https://www.redfin.com/WI/Madison/701-Vernon-Ave-53714/home/89916415,SCWMLS,1983550,N,Y,43.0886591,-89.3054391
MLS Listing,,Single Family Residential,228 Sugar Maple Ln,Verona,WI,53593,529000,4,3.0,Birchwood Point,2327,4791,2016,26,227,18,Active,,,https://www.redfin.com/WI/Verona/228-Sugar-Maple-Ln-53593/home/105632417,SCWMLS,1983297,N,Y,43.0580268,-89.5643724
MLS Listing,,Single Family Residential,9327 Highland Gate Way,Verona,WI,53593,464900,3,2.5,Acacia Ridge,1628,3920,2021,26,286,19,Active,,,https://www.redfin.com/WI/Verona/9327-Highland-Gate-Way-53593/home/174961161,SCWMLS,1984396,N,Y,43.0516998,-89.5481433
MLS Listing,,Condo/Co-op,706 Malvern Hill Dr #706,Madison,WI,53718,403000,3,3.0,Madison,2162,,2001,26,186,335,Active,,,https://www.redfin.com/WI/Madison/706-Malvern-Hill-Dr-53718/unit-706/home/89924669,SCWMLS,1984395,N,Y,43.0884298,-89.268723
MLS Listing,,Single Family Residential,7314 Westbourne St,Madison,WI,53719,559000,4,3.5,Country Grove,2759,11325,1995,26,203,,Active,,,https://www.redfin.com/WI/Madison/7314-Westbourne-St-53719/home/89897469,SCWMLS,1983500,N,Y,43.0114086,-89.5111662
MLS Listing,,Single Family Residential,7105 Gladstone Dr,Madison,WI,53719,435000,3,3.0,Skyview Meadows,1926,8276,1988,26,226,,Active,,,https://www.redfin.com/WI/Madison/7105-Gladstone-Dr-53719/home/57657406,SCWMLS,1983272,N,Y,43.0240099,-89.5060357
MLS Listing,,Single Family Residential,4310 Esch Ln,Madison,WI,53704,399900,3,1.0,Madison,2046,10454,1965,26,195,,Active,,,https://www.redfin.com/WI/Madison/4310-Esch-Ln-53704/home/89920614,SCWMLS,1984371,N,Y,43.1408801,-89.3726991
MLS Listing,,Single Family Residential,4322 Upland Dr,Madison,WI,53705,595000,3,1.5,Madison,1646,8276,1949,26,361,,Active,,,https://www.redfin.com/WI/Madison/4322-Upland-Dr-53705/home/89905565,SCWMLS,1982759,N,Y,43.063465,-89.449122
MLS Listing,,Single Family Residential,1817 Tarragon Dr,Madison,WI,53716,575000,4,3.0,Madison,3260,11761,1999,26,176,,Active,,,https://www.redfin.com/WI/Madison/1817-Tarragon-Dr-53716/home/89917866,SCWMLS,1983805,N,Y,43.0721153,-89.3003269
MLS Listing,,Single Family Residential,644 E Johnson St,Madison,WI,53703,424900,3,1.0,Madison,1434,4356,1879,27,296,,Active,,,https://www.redfin.com/WI/Madison/644-E-Johnson-St-53703/home/57675944,SCWMLS,1984062,N,Y,43.0817928,-89.3803941
MLS Listing,,Multi-Family (2-4 Unit),1915 University Ave,Madison,WI,53726,757000,7,2.0,University Heights,,6534,1899,28,,,Active,,,https://www.redfin.com/WI/Madison/1915-University-Ave-53726/home/89907034,SCWMLS,1983360,N,Y,43.0729668,-89.41849
MLS Listing,,Single Family Residential,17 Plover Cir,Madison,WI,53717,735000,4,3.0,Sauk Creek,3310,21344,1988,28,222,,Active,,,https://www.redfin.com/WI/Madison/17-Plover-Cir-53717/home/89899926,SCWMLS,1984245,N,Y,43.0696556,-89.5178261
MLS Listing,,Single Family Residential,1110 S Thompson Dr,Madison,WI,53716,385000,4,2.0,Sunrise Meadows,2053,11325,1977,28,188,,Active,September-22-2024 11:00 AM,September-22-2024 01:00 PM,https://www.redfin.com/WI/Madison/1110-S-Thompson-Dr-53716/home/89916781,SCWMLS,1983429,N,Y,43.0823758,-89.2857233
MLS Listing,,Single Family Residential,1030 Williamson St,Madison,WI,53703,645000,3,1.5,Farwells Replat,1578,4356,1894,28,409,,Active,,,https://www.redfin.com/WI/Madison/1030-Williamson-St-53703/home/57678278,SCWMLS,1984195,N,Y,43.0815925,-89.3670456
MLS Listing,,Condo/Co-op,5383 Mariners Cove Dr #406,Madison,WI,53704,340000,2,2.0,Westport,1813,,1993,28,188,610,Active,,,https://www.redfin.com/WI/Madison/5383-Mariners-Cove-Dr-53704/unit-406/home/57845125,SCWMLS,1984185,N,Y,43.150061,-89.405426
MLS Listing,,Single Family Residential,214 S Whitney Way,Madison,WI,53705,530000,4,2.0,University Hill Farms,2222,13939,1960,28,239,1,Active,,,https://www.redfin.com/WI/Madison/214-S-Whitney-Way-53705/home/89904677,SCWMLS,1984175,N,Y,43.0650682,-89.4711582
MLS Listing,,Single Family Residential,7145 Field Flower Way,Madison,WI,53718,449900,3,2.5,The Meadowlands,1650,7405,2018,28,273,,Active,,,https://www.redfin.com/WI/Madison/7145-Field-Flower-Way-53718/home/107204031,SCWMLS,1983738,N,Y,43.0999762,-89.2507004
MLS Listing,,Single Family Residential,2025 Chadbourne Ave,Madison,WI,53726,1145000,5,3.5,University Heights,3368,7405,1915,28,340,,Active,,,https://www.redfin.com/WI/Madison/2025-Chadbourne-Ave-53726/home/89965168,SCWMLS,1983332,N,Y,43.0684791,-89.4203376
MLS Listing,,Single Family Residential,1033 Ridgewood Way,Madison,WI,53713,289900,3,1.0,Madison,832,8276,1955,29,348,,Pre On-Market,,,https://www.redfin.com/WI/Madison/1033-Ridgewood-Way-53713/home/57669135,SCWMLS,1984169,N,Y,43.0424059,-89.4016861
MLS Listing,,Single Family Residential,729 Ziegler Rd,Madison,WI,53714,499900,4,2.0,Burke Heights,2725,11761,1965,29,183,,Pre On-Market,,,https://www.redfin.com/WI/Madison/729-Ziegler-Rd-53714/home/57707535,SCWMLS,1984147,N,Y,43.1084208,-89.3057355
MLS Listing,,Single Family Residential,2509 Kendall Ave,Madison,WI,53705,499900,2,1.0,Highland Park,1180,5227,1927,29,424,,Active,,,https://www.redfin.com/WI/Madison/2509-Kendall-Ave-53705/home/57643356,SCWMLS,1983655,N,Y,43.0712777,-89.4293574
MLS Listing,,Condo/Co-op,2146 Allen Blvd #1,Middleton,WI,53562,200000,2,1.0,Middleton,820,,1975,29,244,350,Active,September-22-2024 11:00 AM,September-22-2024 01:00 PM,https://www.redfin.com/WI/Middleton/2146-Allen-Blvd-53562/unit-1/home/89944429,SCWMLS,1983964,N,Y,43.0941764,-89.4875063
MLS Listing,,Single Family Residential,303 North Star Dr,Madison,WI,53718,450000,3,2.0,Grandview Commons Northeast,1584,6534,2021,29,284,17,Active,,,https://www.redfin.com/WI/Madison/303-North-Star-Dr-53718/home/174961845,SCWMLS,1984124,N,Y,43.0960601,-89.2756141
MLS Listing,,Townhouse,64 Oak Creek Trl,Madison,WI,53717,589500,3,3.5,Madison,3758,,1980,29,157,563,Active,,,https://www.redfin.com/WI/Madison/64-Oak-Creek-Trl-53717/home/57715057,SCWMLS,1983169,N,Y,43.0661715,-89.5112838
MLS Listing,,Townhouse,4821 Poplar Creek Dr,Madison,WI,53718,325000,3,2.0,Madison,1807,,2008,29,180,330,Active,September-21-2024 11:00 AM,September-21-2024 01:00 PM,https://www.redfin.com/WI/Madison/4821-Poplar-Creek-Dr-53718/home/146329002,SCWMLS,1983231,N,Y,43.1529228,-89.2805607
MLS Listing,,Condo/Co-op,625 N Segoe Rd #210,Madison,WI,53705,390000,1,1.0,Madison,1039,,2006,30,375,530,Active,,,https://www.redfin.com/WI/Madison/625-N-Segoe-Rd-53705/unit-210/home/89928316,SCWMLS,1984074,N,Y,43.0739654,-89.4561215
MLS Listing,,Single Family Residential,5116 Merwood Ln #116,Madison,WI,53718,324900,2,2.0,Liberty Place,1012,4356,2010,30,321,,Active,,,https://www.redfin.com/WI/Madison/5116-Merwood-Ln-53718/unit-116/home/192146684,SCWMLS,1984057,N,Y,43.026379,-89.2924795
MLS Listing,,Single Family Residential,1409 Dayflower Dr,Madison,WI,53719,434900,3,1.5,Valley Ridge,1660,5227,2000,30,262,15,Active,,,https://www.redfin.com/WI/Madison/1409-Dayflower-Dr-53719/home/57690604,SCWMLS,1984024,N,Y,43.0378042,-89.516448
MLS Listing,,Condo/Co-op,7806 E Oakbridge Way,Madison,WI,53717,249900,2,2.0,Madison,1088,,1984,33,230,375,Active,,,https://www.redfin.com/WI/Madison/7806-E-Oakbridge-Way-53717/home/185112104,SCWMLS,1983944,N,Y,43.0630808,-89.5179513
MLS Listing,,Single Family Residential,9233 Honey Harvest Ln,Verona,WI,53593,454900,3,2.5,Acacia Ridge,1525,3484,2024,33,298,19,Active,,,https://www.redfin.com/WI/Fitchburg/9233-Honey-Harvest-Ln-53593/home/192097961,SCWMLS,1983920,N,Y,43.0468157,-89.5443946
MLS Listing,,Condo/Co-op,7201 Mid Town Rd #301,Madison,WI,53719,239900,2,1.0,Madison,1014,,2002,33,237,387,Active,,,https://www.redfin.com/WI/Madison/7201-Mid-Town-Rd-53719/unit-301/home/89928171,SCWMLS,1983600,N,Y,43.0312136,-89.5092688
MLS Listing,,Single Family Residential,521 W Wilson St,Madison,WI,53703,729000,4,2.0,Madison,1056,5227,1892,33,690,,Active,,,https://www.redfin.com/WI/Madison/521-W-Wilson-St-53703/home/89907492,SCWMLS,1982202,N,Y,43.0673237,-89.388302
MLS Listing,,Condo/Co-op,8201 Mayo Dr #406,Madison,WI,53719,314800,2,2.0,Madison,1258,,2006,33,250,320,Active,,,https://www.redfin.com/WI/Madison/8201-Mayo-Dr-53719/unit-406/home/57843438,SCWMLS,1982831,N,Y,43.0331655,-89.5272769
MLS Listing,,Condo/Co-op,309 N Blount St Unit A,Madison,WI,53703,469900,2,2.0,Madison,1513,,1995,33,311,357,Active,September-19-2024 04:30 PM,September-19-2024 06:00 PM,https://www.redfin.com/WI/Madison/309-N-Blount-St-53703/unit-A/home/57844634,SCWMLS,1983862,N,Y,43.0822996,-89.3799838
MLS Listing,,Townhouse,1034 Mckenna Blvd #4,Madison,WI,53719,260000,2,1.5,Madison,1448,,1988,34,180,150,Active,,,https://www.redfin.com/WI/Madison/1034-McKenna-Blvd-53719/unit-4/home/178494170,SCWMLS,1983269,N,Y,43.0425269,-89.5050762
MLS Listing,,Single Family Residential,4609 Tokay Blvd,Madison,WI,53711,625000,3,1.5,Westmorland,2139,10454,1957,34,292,,Pre On-Market,,,https://www.redfin.com/WI/Madison/4609-Tokay-Blvd-53711/home/89909915,SCWMLS,1983793,N,Y,43.0534096,-89.4545147
MLS Listing,,Single Family Residential,2210 Hollister Ave,Madison,WI,53726,1100000,4,2.0,Madison,2276,5662,1915,34,483,,Active,,,https://www.redfin.com/WI/Madison/2210-Hollister-Ave-53726/home/89906289,SCWMLS,1983539,N,Y,43.0664668,-89.424409
MLS Listing,,Single Family Residential,3117 Todd Dr,Madison,WI,53713,575000,5,3.5,Arbor Hills,3490,10018,1971,34,165,,Active,,,https://www.redfin.com/WI/Madison/3117-Todd-Dr-53713/home/89897826,SCWMLS,1982601,N,Y,43.0287596,-89.4252277
MLS Listing,,Condo/Co-op,121 Metro Ter #205,Madison,WI,53718,239900,2,2.0,Madison,1185,,2007,34,202,375,Active,,,https://www.redfin.com/WI/Madison/121-Metro-Ter-53718/unit-205/home/57815655,SCWMLS,1983764,N,Y,43.1003529,-89.2695537
MLS Listing,,Single Family Residential,5121 Oak Valley Dr,Madison,WI,53704,414900,3,2.5,Ridgewood Drumlin Addn,1706,9147,1996,34,243,,Active,,,https://www.redfin.com/WI/Madison/5121-Oak-Valley-Dr-53704/home/57745423,SCWMLS,1983735,N,Y,43.1177411,-89.2942604
MLS Listing,,Condo/Co-op,9913 Hawks Nest Dr,Verona,WI,53593,439900,4,3.0,Madison,2085,,2003,34,211,378,Active,,,https://www.redfin.com/WI/Verona/9913-Hawks-Nest-Dr-53593/home/192075680,SCWMLS,1983733,N,Y,43.0411411,-89.5584974
MLS Listing,,Condo/Co-op,102 Ponwood Cir Unit H,Madison,WI,53717,219900,2,2.0,Madison,1060,,1984,35,207,385,Active,,,https://www.redfin.com/WI/Madison/102-Ponwood-Cir-53717/unit-H/home/89899179,SCWMLS,1982704,N,Y,43.0820585,-89.5006163
MLS Listing,,Single Family Residential,3014 Winter Park Pl,Madison,WI,53719,574900,4,2.5,Ice Age Falls,2541,10454,2005,35,226,17,Active,,,https://www.redfin.com/WI/Madison/3014-Winter-Park-Pl-53719/home/58227220,METROMLS,1887765,N,Y,43.0180996,-89.5213402
MLS Listing,,Single Family Residential,5302 Loruth Ter,Madison,WI,53711,534900,4,3.0,Orchard Ridge,2334,33541,1954,35,229,,Active,September-21-2024 01:00 PM,September-21-2024 03:00 PM,https://www.redfin.com/WI/Madison/5302-Loruth-Ter-53711/home/89910315,SCWMLS,1982037,N,Y,43.0426728,-89.4713301
MLS Listing,,Single Family Residential,1196 Fairhaven Rd,Sun Prairie,WI,53590,500000,3,2.0,Providence,1660,7840,2016,35,301,21,Active,,,https://www.redfin.com/WI/Sun-Prairie/1196-Fairhaven-Rd-53590/home/89943529,SCWMLS,1983497,N,Y,43.166713,-89.284766
MLS Listing,,Single Family Residential,544 Big Stone Trl,Middleton,WI,53562,689900,3,2.5,The Willows,2064,10890,2021,35,334,,Active,,,https://www.redfin.com/WI/Middleton/544-Big-Stone-Trl-53562/home/113961386,SCWMLS,1983210,N,Y,43.0716016,-89.5575363
MLS Listing,,Single Family Residential,4237 Milwaukee St,Madison,WI,53714,389000,4,1.0,Wedgewood,1252,9147,1960,35,311,,Active,,,https://www.redfin.com/WI/Madison/4237-Milwaukee-St-53714/home/89912519,SCWMLS,1983667,N,Y,43.098427,-89.3102927
MLS Listing,,Vacant Land,22 Sandlewood Cir,Madison,WI,53716,125000,,,Woodridge,,10454,,36,,,Active,,,https://www.redfin.com/WI/Madison/22-Sandlewood-Cir-53716/home/57973728,SCWMLS,1983608,N,Y,43.069605,-89.296265
MLS Listing,,Single Family Residential,4502 Diamond Dr,Madison,WI,53714,350000,4,2.0,Madison,1842,16117,1961,36,190,,Pre On-Market,,,https://www.redfin.com/WI/Madison/4502-Diamond-Dr-53714/home/89912191,SCWMLS,1983603,N,Y,43.0980385,-89.3056985
MLS Listing,,Single Family Residential,5932 Portage Rd,Deforest,WI,53532,599900,3,3.5,Burke,2672,52272,1975,37,225,,Active,September-18-2024 04:00 PM,September-18-2024 07:00 PM,https://www.redfin.com/WI/Deforest/5932-Portage-Rd-53532/home/58662230,SCWMLS,1983057,N,Y,43.1716589,-89.3042082
MLS Listing,,Single Family Residential,720 Moorland Rd,Madison,WI,53713,250000,2,1.0,N/a,1119,10890,1985,37,223,,Pre On-Market,,,https://www.redfin.com/WI/Madison/720-Moorland-Rd-53713/home/185104166,SCWMLS,1983533,N,Y,43.0355342,-89.3728213
MLS Listing,,Single Family Residential,606 Whitehall Dr,Madison,WI,53714,394900,4,2.0,Heritage Heights,1860,11325,1972,37,212,,Pre On-Market,September-29-2024 12:00 PM,September-29-2024 02:00 PM,https://www.redfin.com/WI/Madison/606-Whitehall-Dr-53714/home/57743774,SCWMLS,1983532,N,Y,43.0900762,-89.287216
MLS Listing,,Condo/Co-op,123 N Blount St #406,Madison,WI,53703,455000,2,2.0,Madison,1028,,1910,37,443,589,Active,,,https://www.redfin.com/WI/Madison/123-N-Blount-St-53703/unit-406/home/57845743,SCWMLS,1983527,N,Y,43.0813413,-89.3781401
MLS Listing,,Single Family Residential,122 Nautilus Dr,Madison,WI,53705,799900,4,2.5,Faircrest,2754,13939,1965,37,290,,Active,,,https://www.redfin.com/WI/Madison/122-Nautilus-Dr-53705/home/89901050,SCWMLS,1981896,N,Y,43.0657694,-89.4865843
MLS Listing,,Condo/Co-op,622 E Mifflin St,Madison,WI,53703,299900,2,1.0,Madison,849,,2000,37,353,271,Active,,,https://www.redfin.com/WI/Madison/622-E-Mifflin-St-53703/home/192034634,SCWMLS,1983510,N,Y,43.080317,-89.379448
MLS Listing,,Single Family Residential,2657 Hoard St,Madison,WI,53704,269999,2,1.0,Madison,750,4356,1945,39,360,,Active,,,https://www.redfin.com/WI/Madison/2657-Hoard-St-53704/home/89914003,SCWMLS,1983464,N,Y,43.1050168,-89.3483752
MLS Listing,,Condo/Co-op,137 E Wilson St #512,Madison,WI,53703,625000,2,2.0,Madison,1423,,2005,40,439,654,Active,,,https://www.redfin.com/WI/Madison/137-E-Wilson-St-53703/unit-512/home/89928468,SCWMLS,1982951,N,Y,43.0740692,-89.378661
MLS Listing,,Single Family Residential,6109 Mulberry Cir,Madison,WI,53711,435000,3,2.5,Meadowood,1963,14810,1963,40,222,,Active,,,https://www.redfin.com/WI/Madison/6109-Mulberry-Cir-53711/home/57631882,SCWMLS,1974314,N,Y,43.0307305,-89.4878884
MLS Listing,,Townhouse,6842 Park Ridge Dr,Madison,WI,53719,203000,2,1.5,Madison,1078,,1983,41,188,390,Active,,,https://www.redfin.com/WI/Madison/6842-Park-Ridge-Dr-53719/home/191909811,SCWMLS,1982901,N,Y,43.0446958,-89.5018219
MLS Listing,,Single Family Residential,5312 Admiral Dr,Monona,WI,53716,359000,3,1.0,Monona,960,8276,1954,41,374,,Active,,,https://www.redfin.com/WI/Monona/5312-Admiral-Dr-53716/home/89881180,SCWMLS,1981934,N,Y,43.061153,-89.3241804
MLS Listing,,Single Family Residential,9713 Sweet Autumn Dr,Verona,WI,53593,535000,3,2.5,1000 Oaks,2227,6969,2019,41,240,20,Active,,,https://www.redfin.com/WI/Verona/9713-Sweet-Autumn-Dr-53593/home/166839251,SCWMLS,1983291,N,Y,43.0500116,-89.5562118
MLS Listing,,Single Family Residential,13 Homestead Ct,Madison,WI,53711,495000,4,2.5,Prairie Heights,2608,17424,1974,41,190,,Active,,,https://www.redfin.com/WI/Madison/13-Homestead-Ct-53711/home/57616146,SCWMLS,1983268,N,Y,43.0249071,-89.4933614
MLS Listing,,Vacant Land,0 Karmichael,Madison,WI,53718,150000,,,Blooming Grove,,22651,,41,,,Active,,,https://www.redfin.com/WI/Madison/Karmichael-Ct-53718/home/146293964,SCWMLS,1983267,N,Y,43.075518836,-89.267438532
MLS Listing,,Single Family Residential,538 N Sugar Maple Ln,Verona,WI,53593,625000,5,3.5,Eagle Trace,2583,5227,2019,41,242,15,Active,,,https://www.redfin.com/WI/Verona/538-N-Sugar-Maple-Ln-53593/home/168723323,SCWMLS,1982988,N,Y,43.0706911,-89.5631401
MLS Listing,,Condo/Co-op,105 N Oak Grove Dr #22,Madison,WI,53717,534900,3,3.0,Madison,3104,,1991,42,172,529,Active,,,https://www.redfin.com/WI/Madison/105-N-Oak-Grove-Dr-53717/unit-22/home/89899265,SCWMLS,1983256,N,Y,43.078702,-89.496034
MLS Listing,,Single Family Residential,322 Falles Ct,Madison,WI,53705,509000,3,2.0,Madison,1894,9583,1941,42,269,,Active,,,https://www.redfin.com/WI/Madison/322-Falles-Ct-53705/home/57692464,SCWMLS,1983244,N,Y,43.0615262,-89.4500577
MLS Listing,,Single Family Residential,301 Walnut Grove Dr,Madison,WI,53717,545900,4,2.5,Walnut Grove,2897,10018,1972,42,188,,Active,September-19-2024 04:00 PM,September-19-2024 06:00 PM,https://www.redfin.com/WI/Madison/301-Walnut-Grove-Dr-53717/home/89900611,SCWMLS,1982909,N,Y,43.0718397,-89.5033507
MLS Listing,,Single Family Residential,2326 Mica Rd,Madison,WI,53719,450000,3,2.0,Stone Crest Estates,2026,7405,2002,43,222,,Active,,,https://www.redfin.com/WI/Madison/2326-Mica-Rd-53719/home/89896909,SCWMLS,1983173,N,Y,43.0270489,-89.5293214
MLS Listing,,Single Family Residential,842 S Brooks St,Madison,WI,53717,599900,5,3.0,Madison,1608,4791,1926,43,373,,Active,,,https://www.redfin.com/WI/Madison/842-S-Brooks-St-53715/home/89907958,SCWMLS,1983133,N,Y,43.057847,-89.4018239
MLS Listing,,Single Family Residential,1201 Brookwood Rd,Madison,WI,53711,429900,5,2.0,Green Tree Hills,2746,14810,1964,43,157,,Active,,,https://www.redfin.com/WI/Madison/1201-Brookwood-Rd-53711/home/87952202,SCWMLS,1983109,N,Y,43.040944,-89.4859921
MLS Listing,,Single Family Residential,3610 Alpine Rd,Madison,WI,53704,375000,3,2.0,Mendota Hills,1785,13939,1972,44,210,,Pre On-Market,,,https://www.redfin.com/WI/Madison/3610-Alpine-Rd-53704/home/89921131,SCWMLS,1983083,N,Y,43.1309995,-89.3790099
MLS Listing,,Condo/Co-op,617 E Dayton St Unit B,Madison,WI,53703,380000,2,1.0,Madison,1066,,2000,44,356,259,Active,,,https://www.redfin.com/WI/Madison/617-E-Dayton-St-53703/unit-B/home/57831262,SCWMLS,1983081,N,Y,43.0802302,-89.3798691
MLS Listing,,Single Family Residential,402 Debs Rd,Madison,WI,53704,419900,4,2.5,Madison,2100,15245,1950,44,200,,Pre On-Market,,,https://www.redfin.com/WI/Madison/402-Debs-Rd-53704/home/89920715,SCWMLS,1983079,N,Y,43.1454156,-89.3931487
MLS Listing,,Vacant Land,Lot 17 Schewe Rd,Middleton,WI,53562,257800,,,Madison,,15245,,44,,,Active,,,https://www.redfin.com/WI/Middleton/Lot-17-Schewe-Rd-53562/home/179602302,SCWMLS,1983054,N,Y,43.075969,-89.563086
MLS Listing,,Multi-Family (2-4 Unit),5131-5133 Merwood Ln,Madison,WI,53718,679900,6,5.0,Liberty Place,,8712,2011,44,,,Active,,,https://www.redfin.com/WI/Madison/5131-Merwood-Ln-53718/home/191939745,SCWMLS,1983026,N,Y,43.0263327,-89.291914
MLS Listing,,Single Family Residential,826 Burr Oak Ln,Madison,WI,53713,325000,4,2.0,Madison,1200,5662,1994,46,271,,Active,,,https://www.redfin.com/WI/Madison/826-Burr-Oak-Ln-53713/home/89958167,SCWMLS,1983007,N,Y,43.0443865,-89.395095
MLS Listing,,Single Family Residential,7530 Polar Bear Trl,Madison,WI,53719,675000,4,3.5,Ice Age Ridge,2780,13939,2000,47,243,,Active,,,https://www.redfin.com/WI/Madison/7530-Polar-Bear-Trl-53719/home/89897387,SCWMLS,1982983,N,Y,43.0132233,-89.5158403
MLS Listing,,Multi-Family (5+ Unit),731 & 733 Jenifer St,Madison,WI,53704,1875000,,,Madison,,10454,,47,,,Active,,,https://www.redfin.com/WI/Madison/731-Jenifer-St-53703/home/89903629,SCWMLS,1982101,N,Y,43.0772301,-89.371533
MLS Listing,,Condo/Co-op,1801 Opus Ln #103,Verona,WI,53593,535900,2,2.0,Madison,1823,,2021,47,294,535,Active,,,https://www.redfin.com/WI/Verona/1801-Opus-Ln-53593/unit-103/home/114001079,SCWMLS,1982928,N,Y,43.0341885,-89.5414088
MLS Listing,,Condo/Co-op,8201 Mayo Dr #108,Madison,WI,53719,305000,2,2.0,Madison,1266,,2006,47,241,300,Active,,,https://www.redfin.com/WI/Madison/8201-Mayo-Dr-53719/unit-108/home/57840872,SCWMLS,1982904,N,Y,43.0331655,-89.5272769
MLS Listing,,Condo/Co-op,4414 White Aspen Rd,Madison,WI,53704,219900,3,2.0,Madison,1301,,1981,48,169,265,Pre On-Market,,,https://www.redfin.com/WI/Madison/4414-White-Aspen-Rd-53704/home/185123321,SCWMLS,1982844,N,Y,43.1425199,-89.3922565
MLS Listing,,Townhouse,523 Donofrio Dr,Madison,WI,53719,159900,1,1.0,Madison,718,,1985,48,223,275,Active,,,https://www.redfin.com/WI/Madison/523-D-onofrio-Dr-53719/home/191896617,RANW,50295573,N,Y,43.0565676,-89.5139258
MLS Listing,,Single Family Residential,9 Monarch Cir,Madison,WI,53717,999900,5,3.5,Blackhawk,4974,15245,2005,48,201,13,Active,,,https://www.redfin.com/WI/Madison/9-Monarch-Cir-53717/home/62643781,SCWMLS,1982033,N,Y,43.0791861,-89.5431743
MLS Listing,,Condo/Co-op,1203 Whispering Pines Way,Fitchburg,WI,53713,194900,2,1.0,Fitchburg,965,,1985,48,202,220,Active,,,https://www.redfin.com/WI/Fitchburg/1203-Whispering-Pines-Way-53713/home/185125232,SCWMLS,1982792,N,Y,43.023496,-89.427273
MLS Listing,,Single Family Residential,308 Galileo Dr,Madison,WI,53718,425000,3,2.5,Grandview Commons Northeast,1640,6098,2023,49,259,15,Active,,,https://www.redfin.com/WI/Madison/308-Galileo-Dr-53718/home/174961840,SCWMLS,1980817,N,Y,43.095733,-89.274303
MLS Listing,,Single Family Residential,1000 Linda Vista Rd,Madison,WI,53716,354900,3,1.0,Madison,1448,10454,1958,50,245,,Active,,,https://www.redfin.com/WI/Madison/1000-Linda-Vista-Rd-53716/home/89918288,SCWMLS,1982660,N,Y,43.0642199,-89.3152954
MLS Listing,,Condo/Co-op,404 S Blount St #304,Madison,WI,53703,530000,1,1.5,Madison,1074,,1980,50,493,473,Active,,,https://www.redfin.com/WI/Madison/404-S-Blount-St-53703/unit-304/home/89964369,SCWMLS,1982608,N,Y,43.076256,-89.373395
MLS Listing,,Vacant Land,380 Munn Rd,Madison,WI,53713,300000,,,Madison,,8712,,50,,,Active,,,https://www.redfin.com/WI/Madison/380-Munn-Rd-53713/home/89879855,RANW,50295282,N,Y,43.0378338,-89.3732313
MLS Listing,,Townhouse,3020 Nessling St,Madison,WI,53719,339900,2,2.5,Madison,1668,,2000,53,204,330,Active,,,https://www.redfin.com/WI/Madison/3020-Nessling-St-53719/home/146328484,SCWMLS,1980122,N,Y,43.0176338,-89.5173402
MLS Listing,,Single Family Residential,102 S Midvale Blvd,Madison,WI,53705,374900,2,1.0,Sunset Village,1512,9583,1952,54,248,,Active,,,https://www.redfin.com/WI/Madison/102-S-Midvale-Blvd-53705/home/57630468,SCWMLS,1982411,N,Y,43.0648134,-89.4515494
MLS Listing,,Condo/Co-op,7202 Flagship Dr #4,Madison,WI,53719,249900,2,2.0,Madison,1014,,1989,54,246,208,Active,September-21-2024 10:00 AM,September-21-2024 11:30 AM,https://www.redfin.com/WI/Madison/7202-Flagship-Dr-53719/unit-4/home/89950413,SCWMLS,1982320,N,Y,43.0490845,-89.5084043
MLS Listing,,Multi-Family (2-4 Unit),2302/2304 Talc Trl,Madison,WI,53715,759000,6,6.0,Stone Crest Estates,,13068,2002,55,,,Active,,,https://www.redfin.com/WI/Madison/2302-Talc-Trl-53719/home/89896893,SCWMLS,1982300,N,Y,43.027683,-89.532794
MLS Listing,,Single Family Residential,4405 Woods End,Madison,WI,53711,629900,4,2.5,Midvale Heights,2502,8712,1962,55,252,,Active,,,https://www.redfin.com/WI/Madison/4405-Woods-End-53711/home/89909536,SCWMLS,1979658,N,Y,43.0597093,-89.4517442
MLS Listing,,Multi-Family (2-4 Unit),836 E Gorham St,Madison,WI,53703,474900,5,2.0,Prospect Place,,2962,1899,55,,,Active,,,https://www.redfin.com/WI/Madison/836-E-Gorham-St-53703/home/57861696,SCWMLS,1982216,N,Y,43.0847861,-89.3779329
MLS Listing,,Single Family Residential,3210 E Washington Ave,Madison,WI,53704,349999,3,1.0,Madison,1557,9147,1925,55,225,,Active,,,https://www.redfin.com/WI/Madison/3210-E-Washington-Ave-53704/home/89923395,SCWMLS,1981557,N,Y,43.1100612,-89.3353402
MLS Listing,,Single Family Residential,514 Ludington Ave,Madison,WI,53704,689900,3,1.5,Elmside,1842,5227,1909,55,375,,Active,,,https://www.redfin.com/WI/Madison/514-Ludington-Ave-53704/home/89913673,SCWMLS,1981243,N,Y,43.0917986,-89.3400555
MLS Listing,,Single Family Residential,5525 Portage Rd,Madison,WI,53704,975000,5,5.0,Burke,5500,109771,1988,56,177,,Active,,,https://www.redfin.com/WI/Madison/5525-Portage-Rd-53704/home/168661497,SCWMLS,1982173,N,Y,43.1488606,-89.3065021
MLS Listing,,Vacant Land,2012 Besra Dr,Verona,WI,53593,114900,,,Hawks Valley,,7840,,56,,,Active,,,https://www.redfin.com/WI/Verona/2012-Besra-Dr-53593/home/114000880,SCWMLS,1982161,N,Y,43.028273,-89.557541
MLS Listing,,Single Family Residential,5922 Saturn Dr,Madison,WI,53718,444900,3,2.5,Grandview Commons North,1519,8276,2024,56,293,17,Active,,,https://www.redfin.com/WI/Madison/5922-Saturn-Dr-53718/home/114000507,SCWMLS,1982147,N,Y,43.09453,-89.279811
MLS Listing,,Condo/Co-op,1018 W Fiedler Ln #201,Madison,WI,53713,169900,2,1.5,Madison,1012,,1975,56,168,285,Active,,,https://www.redfin.com/WI/Madison/1018-W-Fiedler-Ln-53713/unit-201/home/184762849,SCWMLS,1982104,N,Y,43.037454,-89.4001137
MLS Listing,,Condo/Co-op,6726 Park Ridge Dr Unit A,Madison,WI,53719,259000,2,2.0,Madison,901,,1994,57,287,285,Active,,,https://www.redfin.com/WI/Madison/6726-Park-Ridge-Dr-53719/unit-A/home/57801861,METROMLS,1884580,N,Y,43.0425671,-89.4999068
MLS Listing,,Single Family Residential,7865 Twinflower Dr,Madison,WI,53719,479900,3,2.5,Valley Ridge,2343,7405,2002,57,205,13,Active,,,https://www.redfin.com/WI/Madison/7865-Twinflower-Dr-53719/home/57588495,SCWMLS,1981979,N,Y,43.0352515,-89.5224647
MLS Listing,,Condo/Co-op,309 W Washington Ave #414,Madison,WI,53703,399000,1,1.0,Madison,953,,2008,58,419,384,Active,,,https://www.redfin.com/WI/Madison/309-W-Washington-Ave-53703/unit-414/home/57836440,SCWMLS,1980962,N,Y,43.0722116,-89.3872633
MLS Listing,,Townhouse,5375 Mariners Cove Dr #111,Madison,WI,53704,490000,3,2.5,Westport,2449,,1991,61,200,610,Active,,,https://www.redfin.com/WI/Madison/5375-Mariners-Cove-Dr-53704/unit-111/home/89959974,SCWMLS,1981871,N,Y,43.1503082,-89.4052627
MLS Listing,,Single Family Residential,9626 Winter Basil Dr,Verona,WI,53593,514900,3,2.5,1000 Oaks,1660,6098,2024,61,310,20,Active,,,https://www.redfin.com/WI/Verona/9626-Winter-Basil-Dr-53593/home/174961136,SCWMLS,1981843,N,Y,43.046415,-89.554645
MLS Listing,,Single Family Residential,6545 Doral Cir,Madison,WI,53719,440000,3,3.0,Sandstone Ridge,2249,5227,2001,61,196,,Active,,,https://www.redfin.com/WI/Madison/6545-Doral-Cir-53719/home/89897697,SCWMLS,1980692,N,Y,43.0078033,-89.4973934
MLS Listing,,Single Family Residential,1112 Gilson St,Madison,WI,53715,425000,3,1.5,Bay Creek,1278,6098,1899,61,333,,Active,,,https://www.redfin.com/WI/Madison/1112-Gilson-St-53715/home/89908428,SCWMLS,1981209,N,Y,43.0544775,-89.3900084
MLS Listing,,Townhouse,5328 Lighthouse Bay Dr,Madison,WI,53704,539900,3,3.5,Westport,2200,,1987,62,245,461,Active,,,https://www.redfin.com/WI/Madison/5328-Lighthouse-Bay-Dr-53704/home/185123246,SCWMLS,1981097,N,Y,43.1485053,-89.4051182
MLS Listing,,Single Family Residential,8801 Nelson Xing,Verona,WI,53593,859900,5,3.5,Hawks Landing,4420,20908,2002,62,195,,Active,September-22-2024 12:00 AM,September-22-2024 11:59 PM,https://www.redfin.com/WI/Verona/8801-Nelson-Xing-53593/home/89963594,SCWMLS,1980762,N,Y,43.0364459,-89.5361283
MLS Listing,,Condo/Co-op,1013 N Sunnyvale Ln Unit E,Madison,WI,53713,175000,2,2.0,Madison,1164,,1986,62,150,369,Active,,,https://www.redfin.com/WI/Madison/1013-N-Sunnyvale-Ln-53713/unit-E/home/169601831,SCWMLS,1981222,N,Y,43.0326519,-89.3696691
MLS Listing,,Single Family Residential,1010 Troy Dr,Madison,WI,53704,360000,3,1.0,Madison,1878,17859,1955,64,192,,Pre On-Market,,,https://www.redfin.com/WI/Madison/1010-Troy-Dr-53704/home/89920569,SCWMLS,1981547,N,Y,43.1339678,-89.3800224
MLS Listing,,Condo/Co-op,6249 Charing Cross Ln Unit A,Middleton,WI,53562,145000,1,1.0,Middleton,760,,1971,64,191,367,Active,,,https://www.redfin.com/WI/Middleton/6249-Charing-Cross-Ln-53562/unit-A/home/57850391,SCWMLS,1981499,N,Y,43.092493,-89.4887789
MLS Listing,,Single Family Residential,6110 Misty Bridge Rd,Madison,WI,53718,414900,3,2.5,Grandview Commons,1690,4356,2022,64,246,17,Active,,,https://www.redfin.com/WI/Madison/6110-Misty-Bridge-Rd-53718/home/174961882,SCWMLS,1981501,N,Y,43.0973276,-89.2754795
MLS Listing,,Condo/Co-op,1405 Whispering Pines Way,Madison,WI,53713,179900,2,1.0,Fitchburg,965,,1987,65,186,220,Active,,,https://www.redfin.com/WI/Fitchburg/1405-Whispering-Pines-Way-53713/home/185101747,SCWMLS,1981355,N,Y,43.023496,-89.427273
MLS Listing,,Condo/Co-op,4320 Melody Ln #208,Madison,WI,53704,132900,1,1.0,Madison,775,,1974,66,171,220,Pre On-Market,,,https://www.redfin.com/WI/Madison/4320-Melody-Ln-53704/unit-208/home/89928012,SCWMLS,1981426,N,Y,43.1317548,-89.3097855
MLS Listing,,Single Family Residential,39 Hollywood Dr,Madison,WI,53713,94900,3,2.0,Madison,1020,,2019,68,93,,Active,,,https://www.redfin.com/WI/Madison/39-Hollywood-Dr-53713/home/186055852,SCWMLS,1981395,N,Y,43.0291264,-89.3576767
MLS Listing,,Single Family Residential,225 Alton Dr,Madison,WI,53718,557500,4,2.5,Grandview Commons North,2311,11325,2016,69,241,,Active,,,https://www.redfin.com/WI/Madison/225-Alton-Dr-53718/home/113960786,SCWMLS,1981271,N,Y,43.0970615,-89.2769913
MLS Listing,,Townhouse,7326 Cedar Creek Trl,Madison,WI,53717,415000,2,2.5,Madison,2168,,1978,69,191,465,Active,,,https://www.redfin.com/WI/Madison/7326-Cedar-Creek-Trl-53717/home/89900652,SCWMLS,1980795,N,Y,43.0653923,-89.5099981
MLS Listing,,Single Family Residential,9439 Spirit St,Middleton,WI,53562,719900,4,3.0,Woodstone,3091,5662,2012,71,233,,Active,,,https://www.redfin.com/WI/Middleton/9439-Spirit-St-53562/home/57748650,SCWMLS,1980070,N,Y,43.0663742,-89.5507582
MLS Listing,,Single Family Residential,5127 Merwood Ln #127,Madison,WI,53718,349900,3,3.5,Liberty Place,1652,,2010,71,212,,Active,,,https://www.redfin.com/WI/Madison/5127-Merwood-Ln-53718/unit-127/home/191539920,SCWMLS,1980942,N,Y,43.0265574,-89.2922647
MLS Listing,,Townhouse,5391 Mariners Cove Dr #207,Madison,WI,53704,369900,2,1.5,Westport,1777,,1991,72,208,610,Active,,,https://www.redfin.com/WI/Madison/5391-Mariners-Cove-Dr-53704/unit-207/home/57817002,SCWMLS,1980701,N,Y,43.1489457,-89.4050052
MLS Listing,,Single Family Residential,426 Oak Crest Ave,Madison,WI,53705,360000,3,1.0,Oak Crest,1280,14374,1957,72,281,,Pre On-Market,,,https://www.redfin.com/WI/Madison/426-Oak-Crest-Ave-53705/home/89904576,SCWMLS,1980969,N,Y,43.0730568,-89.4728319
MLS Listing,,Single Family Residential,5401 Park Meadow Dr,Madison,WI,53704,428000,4,2.5,Ridgewood,1696,9147,2001,75,252,,Active,,,https://www.redfin.com/WI/Madison/5401-Park-Meadow-Dr-53704/home/57665382,SCWMLS,1980871,N,Y,43.1136187,-89.2884162
MLS Listing,,Single Family Residential,2141 Middleton Beach Rd,Middleton,WI,53562,2200000,3,3.0,Middleton Beach,2908,8276,1956,75,757,,Active,,,https://www.redfin.com/WI/Middleton/2141-Middleton-Beach-Rd-53562/home/89932321,SCWMLS,1980503,N,Y,43.0945954,-89.4830369
MLS Listing,,Vacant Land,815 Schewe Rd,Middleton,WI,53562,210000,,,Pope Farm Estates,,11325,,77,,,Active,,,https://www.redfin.com/WI/Middleton/815-Schewe-Rd-53562/home/174960667,SCWMLS,1980711,N,Y,43.0775859,-89.56152
MLS Listing,,Condo/Co-op,5353 Garden View Ct #5353,Madison,WI,53713,169000,2,1.0,Madison,665,,1965,78,254,273,Active,,,https://www.redfin.com/WI/Madison/5353-Garden-View-Ct-53713/unit-5353/home/191471844,SCWMLS,1980669,N,Y,43.0476767,-89.3453711
MLS Listing,,Vacant Land,1901 Wheeler Rd,Madison,WI,53704,7000000,,,Madison,,1448370,,79,,,Active,,,https://www.redfin.com/WI/Madison/1901-Wheeler-Rd-53704/home/191422226,SCWMLS,1980292,N,Y,43.145286,-89.357763
MLS Listing,,Single Family Residential,1954 Schlimgen Ave,Madison,WI,53704,425000,5,2.5,Clyde A Gallagher's,2070,9583,1947,79,205,,Active,,,https://www.redfin.com/WI/Madison/1954-Schlimgen-Ave-53704/home/89922471,SCWMLS,1980059,N,Y,43.1189363,-89.3574768
MLS Listing,,Single Family Residential,117 Richland Ln,Madison,WI,53705,490000,3,1.5,Madison,1250,10454,1957,82,392,,Active,,,https://www.redfin.com/WI/Madison/117-Richland-Ln-53705/home/89905778,SCWMLS,1977529,N,Y,43.0660369,-89.4552719
MLS Listing,,Single Family Residential,3382 Kuehling Dr,Mcfarland,WI,53558,385000,3,1.5,April Hill,1995,14810,1977,82,193,,Active,,,https://www.redfin.com/WI/McFarland/3382-Kuehling-Dr-53558/home/89958807,SCWMLS,1979601,N,Y,43.030852,-89.277113
MLS Listing,,Condo/Co-op,123 W Washington Ave #603,Madison,WI,53703,419900,1,2.0,Madison,942,,2004,83,446,563,Active,,,https://www.redfin.com/WI/Madison/123-W-Washington-Ave-53703/unit-603/home/57833002,SCWMLS,1980279,N,Y,43.0733112,-89.3857718
MLS Listing,,Condo/Co-op,211 S Henry St #403,Madison,WI,53703,785000,2,2.0,Madison,1420,,2019,84,553,550,Active,September-21-2024 01:00 PM,September-21-2024 03:00 PM,https://www.redfin.com/WI/Madison/211-S-Henry-St-53703/unit-403/home/148027994,SCWMLS,1980238,N,Y,43.0709572,-89.3847599
MLS Listing,,Vacant Land,2202 E Springs Dr,Madison,WI,53704,390000,,,Madison East Towne,,43124,,89,,,Active,,,https://www.redfin.com/WI/Madison/2202-E-Springs-Dr-53704/home/191295966,SCWMLS,1979941,N,Y,43.1289159,-89.29456
MLS Listing,,Single Family Residential,1014 Colby St,Madison,WI,53715,494000,4,3.0,Lakeside Add,1704,4791,1929,89,290,,Active,,,https://www.redfin.com/WI/Madison/1014-Colby-St-53715/home/89908674,SCWMLS,1979367,N,Y,43.0554354,-89.3841902
MLS Listing,,Condo/Co-op,5343 Garden View Ct,Madison,WI,53713,189900,2,1.0,Madison,665,,1965,90,286,280,Active,,,https://www.redfin.com/WI/Madison/5343-Garden-View-Ct-53713/home/185098322,SCWMLS,1979876,N,Y,43.0476667,-89.3454095
MLS Listing,,Single Family Residential,1321 Red Tail Dr,Madison,WI,53593,875000,5,4.5,Hawks Landing,4295,25264,2004,91,204,14,Active,,,https://www.redfin.com/WI/Verona/1321-Red-Tail-Dr-53593/home/89901482,SCWMLS,1979731,N,Y,43.0381227,-89.5488917
MLS Listing,,Single Family Residential,4809 Kay St,Madison,WI,53716,349900,5,2.0,Glendale,2128,10454,1973,92,164,,Active,,,https://www.redfin.com/WI/Madison/4809-Kay-St-53716/home/57603593,SCWMLS,1978774,N,Y,43.0680589,-89.3134226
MLS Listing,,Single Family Residential,928 Emerald St,Madison,WI,53715,414000,3,1.5,Greenbush,1531,4356,1904,93,270,,Active,,,https://www.redfin.com/WI/Madison/928-Emerald-St-53715/home/89907471,SCWMLS,1979255,N,Y,43.0612029,-89.4020432
MLS Listing,,Condo/Co-op,917 Harbor House Dr #3,Madison,WI,53719,243900,2,1.0,Madison,987,,1991,97,247,203,Active,,,https://www.redfin.com/WI/Madison/917-Harbor-House-Dr-53719/unit-3/home/62385986,SCWMLS,1979410,N,Y,43.0480193,-89.508029
MLS Listing,,Single Family Residential,2263 Fox Ave,Madison,WI,53711,800000,4,3.5,Westlawn/wingra,2048,5227,1925,98,391,,Pre On-Market,,,https://www.redfin.com/WI/Madison/2263-Fox-Ave-53711/home/57622816,SCWMLS,1979320,N,Y,43.0624687,-89.425568
MLS Listing,,Townhouse,7437 Cedar Creek Trl,Madison,WI,53717,540000,3,3.5,Madison,3771,,1986,103,143,506,Active,,,https://www.redfin.com/WI/Madison/7437-Cedar-Creek-Trl-53717/home/57855716,SCWMLS,1978954,N,Y,43.064453,-89.511819
MLS Listing,,Single Family Residential,5705 Kathy Thomas Cir,Monona,WI,53716,1200000,3,2.0,Squaw Bay Cove,2416,16988,1972,103,497,,Active,,,https://www.redfin.com/WI/Monona/5705-Squaw-Cir-53716/home/89881030,SCWMLS,1978769,N,Y,43.0579623,-89.3394549
MLS Listing,,Single Family Residential,5139 Merwood Ln #139,Madison,WI,53718,349900,3,3.5,Liberty Place,1552,,2010,104,225,,Active,,,https://www.redfin.com/WI/Madison/5139-Merwood-Ln-53718/unit-139/home/190673436,SCWMLS,1978838,N,Y,43.0264931,-89.292066
MLS Listing,,Single Family Residential,8117 Broadmoor St,Madison,WI,53719,449900,3,2.0,Mid Town Commons,2438,4356,2002,105,185,,Active,,,https://www.redfin.com/WI/Madison/8117-Broadmoor-St-53719/home/57633904,SCWMLS,1978471,N,Y,43.0358908,-89.5247852
MLS Listing,,Condo/Co-op,125 N Hamilton St #1106,Madison,WI,53703,1000000,2,2.0,Madison,2146,,2002,105,466,887,Active,,,https://www.redfin.com/WI/Madison/125-N-Hamilton-St-53703/unit-1106/home/89925541,SCWMLS,1975978,N,Y,43.0770881,-89.3838025
MLS Listing,,Vacant Land,302 East Hill Pkwy,Madison,WI,53718,690000,,,Reston Heights,,95832,,107,,,Active,,,https://www.redfin.com/WI/Madison/302-E-Hill-Pkwy-53718/home/182596747,SCWMLS,1978570,N,Y,43.0952318,-89.2609384
MLS Listing,,Single Family Residential,4610 Commercial Ave,Madison,WI,53714,569900,5,4.0,Madison,4774,44866,2014,110,119,,Active,,,https://www.redfin.com/WI/Madison/4610-Commercial-Ave-53714/home/57764313,SCWMLS,1967818,N,Y,43.1069416,-89.3014237
MLS Listing,,Single Family Residential,1435 Rutledge St,Madison,WI,53703,535000,3,2.0,Madison,1622,3920,1914,110,330,,Active,,,https://www.redfin.com/WI/Madison/1435-Rutledge-St-53703/home/89914801,SCWMLS,1978378,N,Y,43.0844654,-89.3569083
MLS Listing,,Single Family Residential,23 Walworth Ct,Madison,WI,53705,601250,3,3.0,Hill Farms,2198,11761,1956,111,274,,Active,,,https://www.redfin.com/WI/Madison/23-Walworth-Ct-53705/home/57572307,SCWMLS,1975839,N,Y,43.0627168,-89.4616245
MLS Listing,,Single Family Residential,5525 Marsha Dr,Madison,WI,53705,359900,4,1.5,Mohawk Park,1331,6969,1952,111,270,,Active,,,https://www.redfin.com/WI/Madison/5525-Marsha-Dr-53705/home/57582571,SCWMLS,1976313,N,Y,43.0809239,-89.4762874
MLS Listing,,Single Family Residential,2610 Van Hise Ave,Madison,WI,53705,580000,3,1.0,Highland Park/regent Neighborhood,1428,5227,1929,118,406,,Active,,,https://www.redfin.com/WI/Madison/2610-Van-Hise-Ave-53705/home/89964945,SCWMLS,1975944,N,Y,43.0700005,-89.4319477
MLS Listing,,Single Family Residential,18 Bel Aire Dr,Madison,WI,53713,105000,3,2.0,Madison,1000,,2017,120,105,,Active,,,https://www.redfin.com/WI/Madison/18-Bel-Aire-Dr-53713/home/190874093,SCWMLS,1977699,N,Y,43.0311398,-89.3566838
MLS Listing,,Townhouse,360 W Washington Ave #1413,Madison,WI,53703,1299000,2,2.0,Madison,2088,,2003,120,622,625,Active,,,https://www.redfin.com/WI/Madison/360-W-Washington-Ave-53703/unit-1413/home/89926308,SCWMLS,1975382,N,Y,43.0720125,-89.3884346
MLS Listing,,Townhouse,155 E Wilson St #701,Madison,WI,53703,2450000,3,4.5,Madison,5462,,2000,121,449,2053,Active,,,https://www.redfin.com/WI/Madison/155-E-Wilson-St-53703/unit-701/home/89907854,SCWMLS,1977612,N,Y,43.0743965,-89.3781086
MLS Listing,,Townhouse,9134 Waterside St,Middleton,WI,53562,550000,4,3.5,Madison,3060,,2000,123,180,200,Active,,,https://www.redfin.com/WI/Madison/9134-Waterside-St-53717/home/146336806,SCWMLS,1977515,N,Y,43.076268,-89.54395
MLS Listing,,Multi-Family (2-4 Unit),6926/6930 Chester Dr,Madison,WI,53719,599900,5,3.0,3rd Add. To The Downs Of West Meadowood,,10890,1986,124,,,Active,,,https://www.redfin.com/WI/Madison/6926-Chester-Dr-53719/home/89896632,SCWMLS,1977417,N,Y,43.0170653,-89.5025826
MLS Listing,,Multi-Family (2-4 Unit),2302-2304 Mckenna Blvd,Madison,WI,53711,620000,6,3.0,Hillside Add. To Meadowood,,11761,1991,124,,,Active,,,https://www.redfin.com/WI/Madison/2302-McKenna-Blvd-53711/home/89896312,SCWMLS,1977418,N,Y,43.0284551,-89.4971166
MLS Listing,,Multi-Family (5+ Unit),450 W Doty St,Madison,WI,53703,729900,,,Original Plat Of City Of Madison,,2178,1899,128,,,Active,,,https://www.redfin.com/WI/Madison/450-W-Doty-St-53703/home/89933814,SCWMLS,1977002,N,Y,43.0689055,-89.3886359
MLS Listing,,Single Family Residential,9924 Shining Willow St,Middleton,WI,53562,749900,3,2.0,The Willows,1890,10018,2024,134,397,,Active,,,https://www.redfin.com/WI/Middleton/9924-Shining-Willow-St-53562/home/145060155,SCWMLS,1976608,N,Y,43.070372,-89.558777
MLS Listing,,Single Family Residential,5808 Winnequah Trl,Monona,WI,53716,1650000,4,3.0,Monona,3500,16988,1941,134,471,,Active,,,https://www.redfin.com/WI/Monona/5808-Winnequah-Trl-53716/home/89881304,SCWMLS,1976051,N,Y,43.0565346,-89.3491823
MLS Listing,,Single Family Residential,633 South Shore Dr,Madison,WI,53715,825000,2,2.0,Bay Creek,1754,6969,1939,136,470,,Active,,,https://www.redfin.com/WI/Madison/633-S-Shore-Dr-53715/home/89965573,SCWMLS,1976393,N,Y,43.0567444,-89.3934171
MLS Listing,,Single Family Residential,9433 Cobalt St,Madison,WI,53562,699900,4,3.0,Woodstone,2061,8276,2024,144,340,,Active,,,https://www.redfin.com/WI/Middleton/9433-Cobalt-St-53562/home/107036013,SCWMLS,1975877,N,Y,43.064588,-89.551142
MLS Listing,,Single Family Residential,1235 Jenifer St,Madison,WI,53703,594900,4,2.0,Madison,1946,4356,1894,150,306,,Active,,,https://www.redfin.com/WI/Madison/1235-Jenifer-St-53703/home/89915005,SCWMLS,1975377,N,Y,43.0832453,-89.3621737
MLS Listing,,Single Family Residential,9809 Trappers Trl,Middleton,WI,53562,4750000,7,8.0,Blackhawk,11292,60983,2017,153,421,13,Active,,,https://www.redfin.com/WI/Middleton/9809-Trappers-Trl-53562/home/89937631,SCWMLS,1974648,N,Y,43.0781751,-89.5569717
MLS Listing,,Condo/Co-op,6302 Mineral Point Rd #221,Madison,WI,53705,205000,3,2.0,Madison,1500,,1974,154,137,675,Active,,,https://www.redfin.com/WI/Madison/6302-Mineral-Point-Rd-53705/unit-221/home/89901132,SCWMLS,1975101,N,Y,43.0613136,-89.4899981
MLS Listing,,Single Family Residential,9 Cornucopia Ct,Madison,WI,53719,725000,5,4.5,High Point Estates,3564,16552,1994,154,203,23,Active,September-22-2024 01:00 PM,September-22-2024 03:00 PM,https://www.redfin.com/WI/Madison/9-Cornucopia-Ct-53719/home/89940638,SCWMLS,1975064,N,Y,43.0423429,-89.5070229
MLS Listing,,Single Family Residential,215 Schley Pass,Madison,WI,53703,590000,5,2.0,Madison,2114,3920,1900,160,279,,Active,,,https://www.redfin.com/WI/Madison/215-Schley-Pass-53703/home/89915190,SCWMLS,1974336,N,Y,43.0859372,-89.3630027
MLS Listing,,Single Family Residential,701 Woodward Dr,Madison,WI,53704,1850000,3,4.0,Woodward Grove,4085,13503,1963,160,453,,Active,,,https://www.redfin.com/WI/Madison/701-Woodward-Dr-53704/home/89969264,SCWMLS,1973368,N,Y,43.1298829,-89.3860719
MLS Listing,,Condo/Co-op,625 N Segoe Rd #404,Madison,WI,53705,525000,1,2.0,Madison,1462,,2006,163,359,594,Active,,,https://www.redfin.com/WI/Madison/625-N-Segoe-Rd-53705/unit-404/home/89927607,SCWMLS,1972948,N,Y,43.0739654,-89.4561215
MLS Listing,,Vacant Land,2240 Pennsylvania Ave,Madison,WI,53704,499000,,,Madison,,47916,,170,,,Active,,,https://www.redfin.com/WI/Madison/2240-Pennsylvania-Ave-53704/home/190356291,SCWMLS,1973995,N,Y,43.1013947,-89.3599922
MLS Listing,,Vacant Land,4302 E Broadway Ave,Madison,WI,53716,340000,,,Madison,,30491,,170,,,Active,,,https://www.redfin.com/WI/Madison/4302-E-Broadway-53716/home/190350233,SCWMLS,1973936,N,Y,43.049217,-89.307017
MLS Listing,,Vacant Land,3229 Ridgeway Ave,Madison,WI,53704,135800,,,Clyde A Gallager,,10018,,173,,,Active,,,https://www.redfin.com/WI/Madison/3229-Ridgeway-Ave-53704/home/89922946,SCWMLS,1973854,N,Y,43.110573,-89.3353
