SALE TYPE,SOLD DATE,PROPERTY TYPE,ADDRESS,CITY,STATE OR PROVINCE,ZIP OR POSTAL CODE,PRICE,BEDS,BATHS,LOCATION,SQUARE FEET,LOT SIZE,YEAR BUILT,DAYS ON MARKET,$/SQUARE FEET,HOA/MONTH,STATUS,NEXT OPEN HOUSE START TIME,NEXT OPEN HOUSE END TIME,URL (SEE https://www.redfin.com/buy-a-home/comparative-market-analysis FOR INFO ON PRICING),SOURCE,MLS#,FAVORITE,INTERESTED,LATITUDE,LONGITUDE
MLS Listing,,Single Family Residential,4153 Pleasant Ave,Minneapolis,MN,55409,650000,5,3.0,King Field,2432,5227,1921,1,267,,Active,,,https://www.redfin.com/MN/Minneapolis/4153-Pleasant-Ave-55409/home/49913064,NORTHSTARMLS as Distributed by MLS Grid,6592011,N,Y,44.9270137,-93.2827984
MLS Listing,,Single Family Residential,8825 Telford Xing,Brooklyn Park,MN,55443,549900,5,4.0,Brooklyn Park,3038,11325,1993,1,181,10,Pre On-Market,September-21-2024 01:00 PM,September-21-2024 03:00 PM,https://www.redfin.com/MN/Minneapolis/8825-Telford-Xing-55443/home/50095074,NORTHSTARMLS as Distributed by MLS Grid,6601381,N,Y,45.115891,-93.3158147
MLS Listing,,Condo/Co-op,8430 Pennsylvania Rd #209,Bloomington,MN,55438,449900,2,2.0,Bloomington,1834,343252,1980,5,245,967,Active,,,https://www.redfin.com/MN/Minneapolis/8430-Pennsylvania-Rd-55438/unit-209/home/51404354,NORTHSTARMLS as Distributed by MLS Grid,6595103,N,Y,44.849505,-93.379816
MLS Listing,,Single Family Residential,5537 14th Ave S,Minneapolis,MN,55417,489900,3,2.0,Diamond Lake,2016,6534,1932,5,243,,Active,,,https://www.redfin.com/MN/Minneapolis/5537-14th-Ave-S-55417/home/51438937,NORTHSTARMLS as Distributed by MLS Grid,6584858,N,Y,44.9020698,-93.2547735
MLS Listing,,Single Family Residential,6933 Blaisdell Ave,Richfield,MN,55423,347900,3,2.0,Richfield,1558,8712,1956,5,223,,Active,,,https://www.redfin.com/MN/Minneapolis/6933-Blaisdell-Ave-55423/home/51462635,NORTHSTARMLS as Distributed by MLS Grid,6602336,N,Y,44.876903,-93.279084
MLS Listing,,Single Family Residential,2717 Hampshire Ave S,Saint Louis Park,MN,55426,419900,3,2.0,Saint Louis Park,1846,5227,1948,6,227,,Active,,,https://www.redfin.com/MN/Minneapolis/2717-Hampshire-Ave-S-55426/home/50069847,NORTHSTARMLS as Distributed by MLS Grid,6589043,N,Y,44.9543792,-93.3654875
MLS Listing,,Single Family Residential,4941 Madison St NE,Columbia Heights,MN,55421,325000,5,3.0,Columbia Heights,2318,6534,1958,6,140,,Active,,,https://www.redfin.com/MN/Minneapolis/4941-Madison-St-NE-55421/home/49968070,NORTHSTARMLS as Distributed by MLS Grid,6601869,N,Y,45.0584211,-93.2535763
MLS Listing,,Condo/Co-op,929 Portland Ave #2003,Minneapolis,MN,55404,264900,2,2.0,Elliot Park,952,44256,2006,12,278,728,Active,,,https://www.redfin.com/MN/Minneapolis/929-Portland-Ave-55404/unit-2003/home/49996946,NORTHSTARMLS as Distributed by MLS Grid,6595955,N,Y,44.9707004,-93.2660631
MLS Listing,,Condo/Co-op,8151 33rd Ave S #601,Bloomington,MN,55425,274900,1,1.0,Bloomington,878,126149,2005,13,313,576,Active,,,https://www.redfin.com/MN/Minneapolis/8151-33rd-Ave-S-55425/unit-601/home/49924534,NORTHSTARMLS as Distributed by MLS Grid,6597259,N,Y,44.8560032,-93.2239312
MLS Listing,,Single Family Residential,5436 Nevada Ave N,Crystal,MN,55428,330000,4,2.0,Crystal,2311,10018,1954,20,143,,Active,,,https://www.redfin.com/MN/Minneapolis/5436-Nevada-Ave-N-55428/home/51304618,NORTHSTARMLS as Distributed by MLS Grid,6588876,N,Y,45.052473,-93.3725181
MLS Listing,,Condo/Co-op,929 Portland Ave #1804,Minneapolis,MN,55404,255000,2,2.0,Elliot Park,927,44256,2006,30,275,724,Active,,,https://www.redfin.com/MN/Minneapolis/929-Portland-Ave-55404/unit-1804/home/51272072,NORTHSTARMLS as Distributed by MLS Grid,6574179,N,Y,44.9707004,-93.2660631
MLS Listing,,Single Family Residential,4134 Wooddale Ave S,Saint Louis Park,MN,55416,550000,3,2.0,Saint Louis Park,1998,6534,1946,54,275,,Active,,,https://www.redfin.com/MN/Minneapolis/4134-Wooddale-Ave-S-55416/home/51317522,NORTHSTARMLS as Distributed by MLS Grid,6572559,N,Y,44.9265817,-93.344736
MLS Listing,,Single Family Residential,5521 10th Ave S,Minneapolis,MN,55417,545000,3,3.0,Diamond Lake,2353,6098,1936,64,232,,Active,,,https://www.redfin.com/MN/Minneapolis/5521-10th-Ave-S-55417/home/49906320,NORTHSTARMLS as Distributed by MLS Grid,6570168,N,Y,44.9026004,-93.2597967
MLS Listing,,Single Family Residential,9300 Wyoming Ave S,Bloomington,MN,55438,765000,4,4.0,Bloomington,4008,15246,1983,82,191,,Active,,,https://www.redfin.com/MN/Minneapolis/9300-Wyoming-Ave-S-55438/home/51413615,NORTHSTARMLS as Distributed by MLS Grid,6557139,N,Y,44.8349218,-93.3868317
MLS Listing,,Condo/Co-op,1200 Nicollet Mall #206,Minneapolis,MN,55403,149900,2,1.0,Loring Park,1005,,1977,220,149,924,Active,,,https://www.redfin.com/MN/Minneapolis/1200-Nicollet-Mall-55403/unit-206/home/49956454,NORTHSTARMLS as Distributed by MLS Grid,6485474,N,Y,44.9720603,-93.2772201
MLS Listing,,Single Family Residential,4008 10th Ave S,Minneapolis,MN,55407,330000,4,2.0,Bancroft,2318,4791,1930,1,142,,Active,,,https://www.redfin.com/MN/Minneapolis/4008-10th-Ave-S-55407/home/51347793,NORTHSTARMLS as Distributed by MLS Grid,6590520,N,Y,44.9301839,-93.2603074
MLS Listing,,Single Family Residential,5052 Belmont Ave S,Minneapolis,MN,55419,779000,4,3.0,Tangletown,2476,7405,1924,1,315,,Active,September-21-2024 12:00 PM,September-21-2024 02:00 PM,https://www.redfin.com/MN/Minneapolis/5052-Belmont-Ave-S-55419/home/51376719,NORTHSTARMLS as Distributed by MLS Grid,6600350,N,Y,44.9108204,-93.2814773
MLS Listing,,Condo/Co-op,2540 38th Ave NE #106,Saint Anthony,MN,55421,275000,1,2.0,Saint Anthony,1152,,2006,1,239,481,Active,September-18-2024 04:00 PM,September-18-2024 05:00 PM,https://www.redfin.com/MN/Minneapolis/2540-38th-Ave-NE-55421/unit-106/home/49950498,NORTHSTARMLS as Distributed by MLS Grid,6572413,N,Y,45.037719,-93.2244823
MLS Listing,,Single Family Residential,3651 Russell Ave N,Minneapolis,MN,55412,190000,2,1.0,Cleveland,720,5227,1916,1,264,,Active,September-20-2024 04:00 PM,September-20-2024 06:00 PM,https://www.redfin.com/MN/Minneapolis/3651-Russell-Ave-N-55412/home/50059453,NORTHSTARMLS as Distributed by MLS Grid,6595404,N,Y,45.0220392,-93.3111254
MLS Listing,,Single Family Residential,2011 Kenwood Pkwy,Minneapolis,MN,55405,1249900,6,5.0,Kenwood,3546,7405,1911,1,352,,Active,,,https://www.redfin.com/MN/Minneapolis/2011-Kenwood-Pkwy-55405/home/51501358,NORTHSTARMLS as Distributed by MLS Grid,6602596,N,Y,44.9623784,-93.310998
MLS Listing,,Single Family Residential,4928 Oakland Ave,Minneapolis,MN,55417,338000,4,1.0,Field,1570,5227,1929,1,215,,Active,September-18-2024 11:00 AM,September-18-2024 01:00 PM,https://www.redfin.com/MN/Minneapolis/4928-Oakland-Ave-55417/home/51368368,NORTHSTARMLS as Distributed by MLS Grid,6603376,N,Y,44.9133397,-93.2668438
MLS Listing,,Townhouse,8404 W 97th St,Bloomington,MN,55438,250000,2,2.0,Bloomington,1372,6098,1979,1,182,256,Active,,,https://www.redfin.com/MN/Minneapolis/8404-W-97th-St-55438/home/51485329,NORTHSTARMLS as Distributed by MLS Grid,6597975,N,Y,44.8289302,-93.3944375
MLS Listing,,Single Family Residential,7516 59th Pl N,Crystal,MN,55428,280000,2,2.0,Crystal,891,13503,1951,1,314,,Active,September-19-2024 05:00 PM,September-19-2024 06:30 PM,https://www.redfin.com/MN/Minneapolis/7516-59th-Pl-N-55428/home/50140661,NORTHSTARMLS as Distributed by MLS Grid,6600420,N,Y,45.061658,-93.3747223
MLS Listing,,Single Family Residential,4231 20th Ave S,Minneapolis,MN,55407,329900,3,1.0,Standish,942,4791,1923,1,350,,Active,,,https://www.redfin.com/MN/Minneapolis/4231-20th-Ave-S-55407/home/51355542,NORTHSTARMLS as Distributed by MLS Grid,6600684,N,Y,44.9259337,-93.2432717
MLS Listing,,Single Family Residential,2718 Colfax Ave N,Minneapolis,MN,55411,169000,4,2.0,Hawthorne,1172,5227,1900,1,144,,Active,,,https://www.redfin.com/MN/Minneapolis/2718-Colfax-Ave-N-55411/home/49906751,NORTHSTARMLS as Distributed by MLS Grid,6602730,N,Y,45.0083644,-93.2915808
MLS Listing,,Multi-Family (2-4 Unit),1715 Adams St NE,Minneapolis,MN,55413,379900,4,2.0,Logan Park,2736,5227,1960,1,139,,Pre On-Market,September-22-2024 10:00 AM,September-22-2024 11:30 AM,https://www.redfin.com/MN/Minneapolis/1715-Adams-St-NE-55413/home/51370143,NORTHSTARMLS as Distributed by MLS Grid,6604334,N,Y,45.0057306,-93.256033
MLS Listing,,Single Family Residential,6229 Blaisdell Ave,Richfield,MN,55423,425000,5,2.0,Richfield,2253,10454,1953,1,189,,Pre On-Market,September-20-2024 04:30 PM,September-20-2024 06:00 PM,https://www.redfin.com/MN/Minneapolis/6229-Blaisdell-Ave-55423/home/50065126,NORTHSTARMLS as Distributed by MLS Grid,6597364,N,Y,44.889277,-93.279015
MLS Listing,,Single Family Residential,4031 Beard Ave N,Robbinsdale,MN,55422,349900,3,2.0,Robbinsdale,2100,6098,1940,1,167,,Active,,,https://www.redfin.com/MN/Minneapolis/4031-Beard-Ave-N-55422/home/51299965,NORTHSTARMLS as Distributed by MLS Grid,6604370,N,Y,45.0284366,-93.3221395
MLS Listing,,Single Family Residential,5729 14th Ave S,Minneapolis,MN,55417,475000,4,2.0,Diamond Lake,1791,6098,1946,1,265,,Pre On-Market,,,https://www.redfin.com/MN/Minneapolis/5729-14th-Ave-S-55417/home/51439525,NORTHSTARMLS as Distributed by MLS Grid,6576927,N,Y,44.8986318,-93.254891
MLS Listing,,Single Family Residential,2215 W 56th St,Minneapolis,MN,55419,425000,3,2.0,Armatage,1575,9147,1946,1,270,,Pre On-Market,September-21-2024 01:00 PM,September-21-2024 03:00 PM,https://www.redfin.com/MN/Minneapolis/2215-W-56th-St-55419/home/49984829,NORTHSTARMLS as Distributed by MLS Grid,6592906,N,Y,44.9013586,-93.3077385
MLS Listing,,Condo/Co-op,1120 S 2nd St #911,Minneapolis,MN,55415,1050000,2,2.0,Downtown East,2062,,2013,1,509,1268,Active,,,https://www.redfin.com/MN/Minneapolis/1120-S-2nd-St-55415/unit-911/home/113776605,NORTHSTARMLS as Distributed by MLS Grid,6604041,N,Y,44.9764405,-93.2513345
MLS Listing,,Single Family Residential,4028 Fremont Ave N,Minneapolis,MN,55412,239000,3,1.0,Webber - Camden,913,5227,1916,1,262,,Pre On-Market,,,https://www.redfin.com/MN/Minneapolis/4028-Fremont-Ave-N-55412/home/49936895,NORTHSTARMLS as Distributed by MLS Grid,6599657,N,Y,45.028708,-93.2954934
MLS Listing,,Condo/Co-op,3600 17th Ave S #102,Minneapolis,MN,55407,218000,2,1.0,Powderhorn Park,1180,6054,1914,1,185,350,Pre On-Market,September-19-2024 04:00 PM,September-19-2024 07:00 PM,https://www.redfin.com/MN/Minneapolis/3600-17th-Ave-S-55407/unit-102/home/51259803,NORTHSTARMLS as Distributed by MLS Grid,6601018,N,Y,44.9375226,-93.2502835
MLS Listing,,Single Family Residential,3505 Admiral Ln N,Brooklyn Center,MN,55429,325000,3,2.0,Brooklyn Center,1878,11325,1955,1,173,,Active,September-18-2024 08:00 AM,September-18-2024 07:00 PM,https://www.redfin.com/MN/Minneapolis/3505-Admiral-Ln-N-55429/home/50067450,NORTHSTARMLS as Distributed by MLS Grid,6604178,N,Y,45.0586822,-93.3269542
MLS Listing,,Condo/Co-op,3150 Excelsior Blvd #108,Minneapolis,MN,55416,135000,1,1.0,West Maka Ska,730,32626,1966,1,185,607,Active,,,https://www.redfin.com/MN/Minneapolis/3150-Excelsior-Blvd-55416/unit-108/home/51536339,NORTHSTARMLS as Distributed by MLS Grid,6604316,N,Y,44.945437,-93.3235464
MLS Listing,,Condo/Co-op,2885 Knox Ave S #505,Minneapolis,MN,55408,340000,2,2.0,East Isles,1295,,1975,1,263,985,Active,,,https://www.redfin.com/MN/Minneapolis/2885-Knox-Ave-S-55408/unit-505/home/51509688,NORTHSTARMLS as Distributed by MLS Grid,6600305,N,Y,44.9497759,-93.3044829
MLS Listing,,Single Family Residential,8110 Northern Dr,Crystal,MN,55427,325000,5,2.0,Crystal,1815,8712,1959,1,179,,Pre On-Market,,,https://www.redfin.com/MN/Minneapolis/8110-Northern-Dr-55427/home/51416176,NORTHSTARMLS as Distributed by MLS Grid,6604295,N,Y,45.0140611,-93.3830982
MLS Listing,,Condo/Co-op,801 Washington Ave N #212,Minneapolis,MN,55401,639000,2,2.0,North Loop,1551,60548,1913,1,412,593,Active,,,https://www.redfin.com/MN/Minneapolis/801-Washington-Ave-N-55401/unit-212/home/51536078,NORTHSTARMLS as Distributed by MLS Grid,6603531,N,Y,44.9888257,-93.2793373
MLS Listing,,Single Family Residential,5116 W 29th St,Saint Louis Park,MN,55416,550000,4,2.0,Saint Louis Park,2293,8276,1945,1,240,,Active,September-19-2024 04:30 PM,September-19-2024 06:30 PM,https://www.redfin.com/MN/Minneapolis/5116-W-29th-St-55416/home/49939166,NORTHSTARMLS as Distributed by MLS Grid,6604304,N,Y,44.9504847,-93.344736
MLS Listing,,Vacant Land,1008 29th Ave NE,Minneapolis,MN,55418,169900,,,Audubon Park,,8712,,1,,,Active,,,https://www.redfin.com/MN/Minneapolis/1008-29th-Ave-NE-55418/home/50198581,NORTHSTARMLS as Distributed by MLS Grid,6603289,N,Y,45.0202129,-93.2449571
MLS Listing,,Other,5144 Balmoral Ln,Bloomington,MN,55437,224900,2,2.0,Bloomington,1312,49614,1981,1,171,561,Active,,,https://www.redfin.com/MN/Minneapolis/5144-Balmoral-Ln-55437/home/51409782,NORTHSTARMLS as Distributed by MLS Grid,6535526,N,Y,44.8087025,-93.3476739
MLS Listing,,Single Family Residential,1530 Adams St NE,Minneapolis,MN,55413,337500,3,1.0,Logan Park,1376,3920,1914,1,245,,Pre On-Market,,,https://www.redfin.com/MN/Minneapolis/1530-Adams-St-NE-55413/home/49979875,NORTHSTARMLS as Distributed by MLS Grid,6586285,N,Y,45.0040166,-93.2565812
MLS Listing,,Single Family Residential,4057 Elliot Ave,Minneapolis,MN,55407,189000,1,1.0,Bancroft,720,4356,1900,1,263,,Active,,,https://www.redfin.com/MN/Minneapolis/4057-Elliot-Ave-55407/home/51347758,NORTHSTARMLS as Distributed by MLS Grid,6601003,N,Y,44.9288719,-93.2609221
MLS Listing,,Single Family Residential,7301 W 106th St,Bloomington,MN,55438,600000,3,2.0,Bloomington,2914,43124,2011,1,206,,Active,,,https://www.redfin.com/MN/Minneapolis/7301-W-106th-St-55438/home/50073445,NORTHSTARMLS as Distributed by MLS Grid,6603162,N,Y,44.8113313,-93.3791663
MLS Listing,,Single Family Residential,9219 Telford Bay,Brooklyn Park,MN,55443,585000,5,4.0,Brooklyn Park,3550,14374,1997,1,165,4,Pre On-Market,September-22-2024 11:00 AM,September-22-2024 01:00 PM,https://www.redfin.com/MN/Minneapolis/9219-Telford-Bay-55443/home/51373440,NORTHSTARMLS as Distributed by MLS Grid,6603902,N,Y,45.1203642,-93.3159433
MLS Listing,,Single Family Residential,4015 Girard Ave N,Minneapolis,MN,55412,179900,2,1.0,Webber - Camden,1000,6534,1900,1,180,,Active,,,https://www.redfin.com/MN/Minneapolis/4015-Girard-Ave-N-55412/home/51293358,NORTHSTARMLS as Distributed by MLS Grid,6604111,N,Y,45.0282387,-93.2973266
MLS Listing,,Single Family Residential,2516 35th Ave NE,Saint Anthony,MN,55418,415000,3,2.0,Saint Anthony,2210,9147,1964,1,188,,Pre On-Market,,,https://www.redfin.com/MN/Minneapolis/2516-35th-Ave-NE-55418/home/49962785,NORTHSTARMLS as Distributed by MLS Grid,6592149,N,Y,45.031151,-93.2245551
MLS Listing,,Single Family Residential,6125 4th Ave S,Minneapolis,MN,55419,420000,3,2.0,Diamond Lake,1902,7405,1950,1,221,,Pre On-Market,,,https://www.redfin.com/MN/Minneapolis/6125-4th-Ave-S-55419/home/50063945,NORTHSTARMLS as Distributed by MLS Grid,6604072,N,Y,44.8916933,-93.2700916
MLS Listing,,Multi-Family (2-4 Unit),1332 Circle Terrace Blvd NE,Columbia Heights,MN,55421,500000,4,2.0,Columbia Heights,3589,8276,1962,1,139,,Pre On-Market,September-20-2024 12:30 PM,September-20-2024 02:00 PM,https://www.redfin.com/MN/Minneapolis/1332-Circle-Terrace-Blvd-NE-55421/home/50203685,NORTHSTARMLS as Distributed by MLS Grid,6604081,N,Y,45.0434216,-93.2400433
MLS Listing,,Single Family Residential,5217 W 91st St,Bloomington,MN,55437,329000,3,2.0,Bloomington,1498,16117,1962,1,220,,Pre On-Market,,,https://www.redfin.com/MN/Minneapolis/5217-W-91st-St-55437/home/51314638,NORTHSTARMLS as Distributed by MLS Grid,6594166,N,Y,44.8401448,-93.3472849
MLS Listing,,Multi-Family (2-4 Unit),616 Monroe St NE,Minneapolis,MN,55413,389900,5,2.0,St. Anthony East,2151,5227,1900,1,181,,Pre On-Market,,,https://www.redfin.com/MN/Minneapolis/616-Monroe-St-NE-55413/home/50201389,NORTHSTARMLS as Distributed by MLS Grid,6603865,N,Y,44.995687,-93.2527261
MLS Listing,,Condo/Co-op,3540 Hennepin Ave #207,Minneapolis,MN,55408,169900,1,1.0,ECCO,701,36459,1972,1,242,300,Active,,,https://www.redfin.com/MN/Minneapolis/3540-Hennepin-Ave-55408/unit-207/home/49894660,NORTHSTARMLS as Distributed by MLS Grid,6602001,N,Y,44.9382635,-93.2989239
MLS Listing,,Single Family Residential,1901 Gunflint Trl,Brooklyn Park,MN,55444,349900,4,2.0,Brooklyn Park,1906,13503,1977,1,184,,Active,,,https://www.redfin.com/MN/Minneapolis/1901-Gunflint-Trl-55444/home/49916059,NORTHSTARMLS as Distributed by MLS Grid,6600112,N,Y,45.1000799,-93.3058394
MLS Listing,,Single Family Residential,1104 14th Ave SE,Minneapolis,MN,55414,269900,3,1.0,Como,1087,5227,1905,1,248,,Active,,,https://www.redfin.com/MN/Minneapolis/1104-14th-Ave-SE-55414/home/51446241,NORTHSTARMLS as Distributed by MLS Grid,6603985,N,Y,44.9909959,-93.2318082
MLS Listing,,Single Family Residential,3020 Queen Ave N,Minneapolis,MN,55411,149900,2,1.0,Jordan,956,5227,1900,1,157,,Active,,,https://www.redfin.com/MN/Minneapolis/3020-Queen-Ave-N-55411/home/49919422,NORTHSTARMLS as Distributed by MLS Grid,6604036,N,Y,45.0121573,-93.3092577
MLS Listing,,Multi-Family (2-4 Unit),1127 6th St NE,Minneapolis,MN,55413,425000,6,2.0,Sheridan,2680,5662,1900,1,159,,Pre On-Market,September-21-2024 12:00 PM,September-21-2024 02:00 PM,https://www.redfin.com/MN/Minneapolis/1127-6th-St-NE-55413/home/51370563,NORTHSTARMLS as Distributed by MLS Grid,6603668,N,Y,44.9995483,-93.2586317
MLS Listing,,Single Family Residential,10209 France Ave S,Minneapolis,MN,55431,400000,4,3.0,Minneapolis,2202,10018,1967,1,182,,Pre On-Market,September-21-2024 11:00 AM,September-21-2024 02:00 PM,https://www.redfin.com/MN/Minneapolis/10209-France-Ave-S-55431/home/51418611,NORTHSTARMLS as Distributed by MLS Grid,6600403,N,Y,44.8187233,-93.3291192
MLS Listing,,Condo/Co-op,3990 Wooddale Ave S #201,Saint Louis Park,MN,55416,1000000,2,3.0,Saint Louis Park,3644,39421,2015,1,274,1344,Pre On-Market,September-22-2024 01:30 PM,September-22-2024 03:30 PM,https://www.redfin.com/MN/Minneapolis/3990-Wooddale-Ave-S-55416/unit-201/home/113777415,NORTHSTARMLS as Distributed by MLS Grid,6603386,N,Y,44.929293,-93.347715
MLS Listing,,Single Family Residential,10933 Irwin Ave S,Bloomington,MN,55437,369900,3,2.0,Bloomington,1927,10890,1959,1,192,,Pre On-Market,,,https://www.redfin.com/MN/Minneapolis/10933-Irwin-Ave-S-55437/home/50154877,NORTHSTARMLS as Distributed by MLS Grid,6585649,N,Y,44.8053216,-93.333089
MLS Listing,,Condo/Co-op,343 E 19th St Unit 1B,Minneapolis,MN,55404,104900,1,1.0,Steven's Square - Loring Heights,920,,1906,1,114,441,Active,,,https://www.redfin.com/MN/Minneapolis/343-E-19th-St-55404/unit-1B/home/51263357,NORTHSTARMLS as Distributed by MLS Grid,6603766,N,Y,44.9638496,-93.2705539
MLS Listing,,Single Family Residential,2015 E 34th St,Minneapolis,MN,55407,289999,3,1.0,Corcoran,1205,3484,1913,1,241,,Pre On-Market,,,https://www.redfin.com/MN/Minneapolis/2015-E-34th-St-55407/home/51275175,NORTHSTARMLS as Distributed by MLS Grid,6603853,N,Y,44.9411479,-93.2428769
MLS Listing,,Townhouse,9613 Scott Cir N,Brooklyn Park,MN,55443,299900,2,3.0,Brooklyn Park,1797,27007,2008,1,167,293,Active,,,https://www.redfin.com/MN/Minneapolis/9613-Scott-Cir-N-55443/home/50182764,NORTHSTARMLS as Distributed by MLS Grid,6603786,N,Y,45.1298544,-93.3464998
MLS Listing,,Condo/Co-op,645 N 1st St #121,Minneapolis,MN,55401,329000,1,2.0,North Loop,1012,315897,1999,1,325,675,Active,,,https://www.redfin.com/MN/Minneapolis/645-N-1st-St-55401/unit-121/home/50085294,NORTHSTARMLS as Distributed by MLS Grid,6603673,N,Y,44.9884773,-93.2745804
MLS Listing,,Single Family Residential,4100 Edmund Blvd,Minneapolis,MN,55406,750000,3,2.0,Hiawatha,2774,9583,1961,1,270,,Active,,,https://www.redfin.com/MN/Minneapolis/4100-Edmund-Blvd-55406/home/49990838,NORTHSTARMLS as Distributed by MLS Grid,6603809,N,Y,44.9296167,-93.2035066
MLS Listing,,Single Family Residential,5636 23rd Ave S,Minneapolis,MN,55417,149000,1,1.0,Wenonah,570,4960,1925,1,261,,Active,,,https://www.redfin.com/MN/Minneapolis/5636-23rd-Ave-S-55417/home/51446513,NORTHSTARMLS as Distributed by MLS Grid,6603511,N,Y,44.9005338,-93.2390052
MLS Listing,,Multi-Family (2-4 Unit),1431 W 27th St,Minneapolis,MN,55408,600000,4,3.0,East Isles,3359,3484,1913,1,179,,Active,,,https://www.redfin.com/MN/Minneapolis/1431-W-27th-St-55408/home/51509638,NORTHSTARMLS as Distributed by MLS Grid,6602018,N,Y,44.9535586,-93.2990683
MLS Listing,,Single Family Residential,3640 Bryant Ave S,Minneapolis,MN,55409,495000,4,2.0,East Harriet,2227,5227,1905,1,222,,Pre On-Market,,,https://www.redfin.com/MN/Minneapolis/3640-Bryant-Ave-S-55409/home/51293109,NORTHSTARMLS as Distributed by MLS Grid,6551452,N,Y,44.9363862,-93.2910989
MLS Listing,,Condo/Co-op,8151 33rd Ave S #604,Bloomington,MN,55425,250000,1,1.0,Bloomington,739,,2005,1,338,500,Pre On-Market,,,https://www.redfin.com/MN/Minneapolis/8151-33rd-Ave-S-55425/unit-604/home/51264973,NORTHSTARMLS as Distributed by MLS Grid,6595989,N,Y,44.8560032,-93.2239312
MLS Listing,,Single Family Residential,7329 Ridgeway Rd,Golden Valley,MN,55427,895000,5,4.0,Golden Valley,3508,24393,1960,1,255,,Active,,,https://www.redfin.com/MN/Minneapolis/7329-Ridgeway-Rd-55427/home/51505060,NORTHSTARMLS as Distributed by MLS Grid,6603740,N,Y,44.9802869,-93.3730466
MLS Listing,,Single Family Residential,5314 Penn Ave S,Minneapolis,MN,55419,589000,3,2.0,Fulton,2087,9147,1920,1,282,,Pre On-Market,September-21-2024 11:00 AM,September-21-2024 01:00 PM,https://www.redfin.com/MN/Minneapolis/5314-Penn-Ave-S-55419/home/51391897,NORTHSTARMLS as Distributed by MLS Grid,6596136,N,Y,44.9063841,-93.3090317
MLS Listing,,Single Family Residential,6412 Orchard Ave N,Brooklyn Center,MN,55429,325000,3,3.0,Brooklyn Center,1856,10890,1958,1,175,,Active,,,https://www.redfin.com/MN/Minneapolis/6412-Orchard-Ave-N-55429/home/51513695,NORTHSTARMLS as Distributed by MLS Grid,6603575,N,Y,45.0715935,-93.3408493
MLS Listing,,Single Family Residential,2816 Edgewood Ave S,Saint Louis Park,MN,55426,450000,4,2.0,Saint Louis Park,1747,5227,1947,1,258,,Pre On-Market,September-21-2024 11:30 AM,September-21-2024 01:00 PM,https://www.redfin.com/MN/Minneapolis/2816-Edgewood-Ave-S-55426/home/51330624,NORTHSTARMLS as Distributed by MLS Grid,6603095,N,Y,44.952611,-93.362218
MLS Listing,,Single Family Residential,6655 14th Ave S,Richfield,MN,55423,325000,3,1.0,Richfield,1697,6969,1941,1,192,,Pre On-Market,,,https://www.redfin.com/MN/Minneapolis/6655-14th-Ave-S-55423/home/51458042,NORTHSTARMLS as Distributed by MLS Grid,6597816,N,Y,44.8818856,-93.2551803
MLS Listing,,Single Family Residential,3401 Pillsbury Ave S,Minneapolis,MN,55408,300000,4,1.0,Lyndale,1920,3920,1900,1,156,,Pre On-Market,,,https://www.redfin.com/MN/Minneapolis/3401-Pillsbury-Ave-S-55408/home/50095836,NORTHSTARMLS as Distributed by MLS Grid,6603595,N,Y,44.9411668,-93.2810395
MLS Listing,,Condo/Co-op,7412 W 22nd St #204,Saint Louis Park,MN,55426,149990,2,1.0,Saint Louis Park,985,584662,1970,2,152,510,Active,,,https://www.redfin.com/MN/Minneapolis/7412-W-22nd-St-55426/unit-204/home/50070279,NORTHSTARMLS as Distributed by MLS Grid,6603594,N,Y,44.9626404,-93.3740776
MLS Listing,,Single Family Residential,4330 5th Ave S,Minneapolis,MN,55409,275000,8,6.0,Regina,2724,5227,1925,2,101,,Active,,,https://www.redfin.com/MN/Minneapolis/4330-5th-Ave-S-55409/home/51341524,NORTHSTARMLS as Distributed by MLS Grid,6601372,N,Y,44.9241409,-93.2692256
MLS Listing,,Multi-Family (2-4 Unit),141 14th Ave NE,Minneapolis,MN,55413,380000,4,2.0,Sheridan,1584,3484,1900,2,240,,Active,,,https://www.redfin.com/MN/Minneapolis/141-14th-Ave-NE-55413/home/49917877,NORTHSTARMLS as Distributed by MLS Grid,6602575,N,Y,45.0022018,-93.2683643
MLS Listing,,Single Family Residential,3228 Colfax Ave S,Minneapolis,MN,55408,650000,3,3.0,South Uptown,2310,5662,1902,2,281,,Active,,,https://www.redfin.com/MN/Minneapolis/3228-Colfax-Ave-S-55408/home/51292251,NORTHSTARMLS as Distributed by MLS Grid,6597313,N,Y,44.9437726,-93.2922607
MLS Listing,,Single Family Residential,4029 E 45th St,Minneapolis,MN,55406,410000,3,2.0,Hiawatha,1810,4791,1923,2,227,,Active,,,https://www.redfin.com/MN/Minneapolis/4029-E-45th-St-55406/home/51316785,NORTHSTARMLS as Distributed by MLS Grid,6601379,N,Y,44.9213551,-93.2142472
MLS Listing,,Multi-Family (2-4 Unit),3549 Irving Ave S,Minneapolis,MN,55408,625000,4,2.0,ECCO,3932,6534,1933,2,159,,Active,,,https://www.redfin.com/MN/Minneapolis/3549-Irving-Ave-S-55408/home/50204381,NORTHSTARMLS as Distributed by MLS Grid,6590569,N,Y,44.9380285,-93.3018529
MLS Listing,,Single Family Residential,1500 22nd Ave N,Minneapolis,MN,55411,199900,3,2.0,Jordan,1632,2613,1911,2,122,,Active,,,https://www.redfin.com/MN/Minneapolis/1500-22nd-Ave-N-55411/home/51384230,NORTHSTARMLS as Distributed by MLS Grid,6602473,N,Y,45.00183,-93.2994175
MLS Listing,,Single Family Residential,7712 W 84th Street Cir,Bloomington,MN,55438,579000,3,3.0,Bloomington,2884,12632,1984,2,201,,Pre On-Market,,,https://www.redfin.com/MN/Minneapolis/7712-W-84th-Street-Cir-55438/home/51403899,NORTHSTARMLS as Distributed by MLS Grid,6602545,N,Y,44.852124,-93.3842553
MLS Listing,,Multi-Family (2-4 Unit),500 University Ave NE,Minneapolis,MN,55413,514900,6,2.0,St. Anthony West,3380,10890,1900,2,152,,Pre On-Market,September-19-2024 05:00 PM,September-19-2024 07:00 PM,https://www.redfin.com/MN/Minneapolis/500-University-Ave-NE-55413/home/51370667,NORTHSTARMLS as Distributed by MLS Grid,6602923,N,Y,44.9936475,-93.2606382
MLS Listing,,Single Family Residential,8116 Scott Ave N,Brooklyn Park,MN,55443,340000,4,2.0,Brooklyn Park,1994,10890,1968,2,171,,Pre On-Market,,,https://www.redfin.com/MN/Minneapolis/8116-Scott-Ave-N-55443/home/51432596,NORTHSTARMLS as Distributed by MLS Grid,6520215,N,Y,45.1028281,-93.347307
MLS Listing,,Single Family Residential,5617 26th Ave S,Minneapolis,MN,55417,330000,3,1.0,Wenonah,1396,5227,1946,2,236,,Pre On-Market,,,https://www.redfin.com/MN/Minneapolis/5617-26th-Ave-S-55417/home/49884833,NORTHSTARMLS as Distributed by MLS Grid,6575841,N,Y,44.901112,-93.2346378
MLS Listing,,Single Family Residential,1012 25th Ave SE,Minneapolis,MN,55414,330000,5,3.0,Como,1915,4791,1924,2,172,,Active,,,https://www.redfin.com/MN/Minneapolis/1012-25th-Ave-SE-55414/home/51412310,NORTHSTARMLS as Distributed by MLS Grid,6603472,N,Y,44.9884114,-93.217438
MLS Listing,,Single Family Residential,4920 Thomas Ave S,Minneapolis,MN,55410,499000,3,2.0,Fulton,1738,5227,1922,2,287,,Pre On-Market,,,https://www.redfin.com/MN/Minneapolis/4920-Thomas-Ave-S-55410/home/51390421,NORTHSTARMLS as Distributed by MLS Grid,6603465,N,Y,44.9135518,-93.3140607
MLS Listing,,Condo/Co-op,618 Washington Ave N #406,Minneapolis,MN,55401,499900,2,2.0,North Loop,1256,,1916,2,398,775,Pre On-Market,,,https://www.redfin.com/MN/Minneapolis/618-Washington-Ave-N-55401/unit-406/home/51271261,NORTHSTARMLS as Distributed by MLS Grid,6603321,N,Y,44.9876142,-93.2762042
MLS Listing,,Single Family Residential,4414 Impatiens Ave N,Brooklyn Park,MN,55443,489900,5,4.0,Brooklyn Park,2369,10018,2000,2,207,,Active,,,https://www.redfin.com/MN/Minneapolis/4414-Impatiens-Ave-N-55443/home/51344687,NORTHSTARMLS as Distributed by MLS Grid,6603399,N,Y,45.1320182,-93.3384896
MLS Listing,,Condo/Co-op,500 N 2nd St #106,Minneapolis,MN,55401,449900,2,3.0,North Loop,1409,315897,2003,2,319,857,Active,,,https://www.redfin.com/MN/Minneapolis/500-N-2nd-St-55401/unit-106/home/50147090,NORTHSTARMLS as Distributed by MLS Grid,6603408,N,Y,44.9872218,-93.2733567
MLS Listing,,Single Family Residential,5845 Fremont Ave S,Minneapolis,MN,55419,340000,2,1.0,Kenny,1164,5227,1955,2,292,,Pre On-Market,September-21-2024 11:00 AM,September-21-2024 01:00 PM,https://www.redfin.com/MN/Minneapolis/5845-Fremont-Ave-S-55419/home/50021888,NORTHSTARMLS as Distributed by MLS Grid,6584538,N,Y,44.8965132,-93.2956569
MLS Listing,,Condo/Co-op,3220 W Bde Maka Ska Pkwy #401,Minneapolis,MN,55416,799900,2,2.0,West Maka Ska,1779,15594,1980,2,450,1536,Active,,,https://www.redfin.com/MN/Minneapolis/3220-E-Lake-Calhoun-Pkwy-55408/unit-401/home/102347155,NORTHSTARMLS as Distributed by MLS Grid,6603368,N,Y,44.9463886,-93.3054022
MLS Listing,,Single Family Residential,4029 Vera Cruz Ave N,Robbinsdale,MN,55422,320000,3,2.0,Robbinsdale,1755,6969,1952,2,182,,Pre On-Market,September-22-2024 10:00 AM,September-22-2024 12:00 PM,https://www.redfin.com/MN/Minneapolis/4029-Vera-Cruz-Ave-N-55422/home/51386942,NORTHSTARMLS as Distributed by MLS Grid,6603331,N,Y,45.0285966,-93.3498255
MLS Listing,,Multi-Family (2-4 Unit),840 23rd Ave SE,Minneapolis,MN,55414,300000,2,2.0,Como,1364,6534,1948,2,220,,Pre On-Market,,,https://www.redfin.com/MN/Minneapolis/840-23rd-Ave-SE-55414/home/50205798,NORTHSTARMLS as Distributed by MLS Grid,6603308,N,Y,44.9848828,-93.2199581
MLS Listing,,Multi-Family (2-4 Unit),100 E 22nd St,Minneapolis,MN,55404,2800000,12,3.0,Whittier,4392,18295,1912,2,638,,Active,,,https://www.redfin.com/MN/Minneapolis/100-E-22nd-St-55404/home/192578444,NORTHSTARMLS as Distributed by MLS Grid,6603295,N,Y,44.9611804,-93.2761556
MLS Listing,,Townhouse,3777 Towndale Dr,Bloomington,MN,55431,339900,3,3.0,Bloomington,2497,,1969,2,136,390,Pre On-Market,,,https://www.redfin.com/MN/Minneapolis/3777-Towndale-Dr-55431/home/51298079,NORTHSTARMLS as Distributed by MLS Grid,6603312,N,Y,44.8542592,-93.3280331
MLS Listing,,Single Family Residential,3305 Edward St NE,Saint Anthony,MN,55418,475000,3,3.0,Saint Anthony,2524,8276,1990,2,188,21,Active,,,https://www.redfin.com/MN/Minneapolis/3305-Edward-St-NE-55418/home/51308854,NORTHSTARMLS as Distributed by MLS Grid,6603283,N,Y,45.0281801,-93.2233398
MLS Listing,,Single Family Residential,9581 Morris Cir,Bloomington,MN,55437,650000,5,3.0,Bloomington,3100,,1978,2,210,,Pre On-Market,,,https://www.redfin.com/MN/Minneapolis/9581-Morris-Cir-55437/home/51398901,NORTHSTARMLS as Distributed by MLS Grid,6603245,N,Y,44.829709,-93.3373693
MLS Listing,,Condo/Co-op,201 S 11th St #1530,Minneapolis,MN,55403,635000,2,2.0,Downtown West,1930,20211,2008,2,329,1995,Active,,,https://www.redfin.com/MN/Minneapolis/201-S-11th-St-55403/unit-1530/home/49975362,NORTHSTARMLS as Distributed by MLS Grid,6603229,N,Y,44.9715414,-93.2726468
MLS Listing,,Single Family Residential,1013 Rhode Island Ave N,Golden Valley,MN,55427,349900,3,2.0,Golden Valley,1807,8712,1955,2,194,,Active,,,https://www.redfin.com/MN/Minneapolis/1013-Rhode-Island-Ave-N-55427/home/51504899,NORTHSTARMLS as Distributed by MLS Grid,6603220,N,Y,44.99011,-93.3781917
MLS Listing,,Multi-Family (2-4 Unit),2301 Emerson Ave N,Minneapolis,MN,55411,329000,6,2.0,Jordan,2758,7840,1919,2,119,,Pre On-Market,,,https://www.redfin.com/MN/Minneapolis/2301-Emerson-Ave-N-55411/home/51384103,NORTHSTARMLS as Distributed by MLS Grid,6595075,N,Y,45.0027661,-93.2944953
MLS Listing,,Single Family Residential,6333 Stevens Ave,Richfield,MN,55423,530000,5,3.0,Richfield,1951,10018,1950,2,272,,Active,,,https://www.redfin.com/MN/Minneapolis/6333-Stevens-Ave-55423/home/51462419,NORTHSTARMLS as Distributed by MLS Grid,6603501,N,Y,44.8878265,-93.2752006
MLS Listing,,Single Family Residential,2820 Garfield Ave,Minneapolis,MN,55408,305000,3,3.0,Whittier,1687,4791,1884,2,181,,Pre On-Market,,,https://www.redfin.com/MN/Minneapolis/2820-Garfield-Ave-55408/home/51517157,NORTHSTARMLS as Distributed by MLS Grid,6599419,N,Y,44.9512423,-93.2871499
MLS Listing,,Single Family Residential,8001 Vincent Ave S,Bloomington,MN,55431,379900,5,2.0,Bloomington,2158,12196,1959,2,176,,Active,,,https://www.redfin.com/MN/Minneapolis/8001-Vincent-Ave-S-55431/home/51297616,NORTHSTARMLS as Distributed by MLS Grid,6603153,N,Y,44.8585616,-93.316494
MLS Listing,,Single Family Residential,3332 Gettysburg Ave N,New Hope,MN,55427,350000,3,2.0,New Hope,1932,10018,1967,2,181,,Active,,,https://www.redfin.com/MN/Minneapolis/3332-Gettysburg-Ave-N-55427/home/51415914,NORTHSTARMLS as Distributed by MLS Grid,6602276,N,Y,45.0179275,-93.3970732
MLS Listing,,Single Family Residential,4515 4th Ave S,Minneapolis,MN,55419,365000,4,2.0,Regina,1626,5227,1919,2,224,,Pre On-Market,September-20-2024 05:00 PM,September-20-2024 07:00 PM,https://www.redfin.com/MN/Minneapolis/4515-4th-Ave-S-55419/home/49997130,NORTHSTARMLS as Distributed by MLS Grid,6600024,N,Y,44.9210601,-93.2699728
MLS Listing,,Single Family Residential,2511 Fillmore St NE,Minneapolis,MN,55418,275000,4,2.0,Audubon Park,1850,4791,1910,2,149,,Active,September-21-2024 11:00 AM,September-21-2024 01:00 PM,https://www.redfin.com/MN/Minneapolis/2511-Fillmore-St-NE-55418/home/51357070,NORTHSTARMLS as Distributed by MLS Grid,6601151,N,Y,45.0136421,-93.2419724
MLS Listing,,Condo/Co-op,210 W Grant St #719,Minneapolis,MN,55403,399900,2,2.0,Loring Park,1970,,1979,2,203,1386,Active,,,https://www.redfin.com/MN/Minneapolis/210-W-Grant-St-55403/unit-719/home/51463976,NORTHSTARMLS as Distributed by MLS Grid,6592671,N,Y,44.9703916,-93.2815389
MLS Listing,,Single Family Residential,3905 37th Ave S,Minneapolis,MN,55406,175000,2,3.0,Howe,1652,4791,1903,2,106,,Active,,,https://www.redfin.com/MN/Minneapolis/3905-37th-Ave-S-55406/home/51315740,NORTHSTARMLS as Distributed by MLS Grid,6584768,N,Y,44.9321885,-93.2188583
MLS Listing,,Single Family Residential,6133 11th Ave S,Minneapolis,MN,55417,415000,3,2.0,Diamond Lake,1739,6098,1952,2,239,,Active,,,https://www.redfin.com/MN/Minneapolis/6133-11th-Ave-S-55417/home/51440115,NORTHSTARMLS as Distributed by MLS Grid,6599959,N,Y,44.8912091,-93.2589323
MLS Listing,,Condo/Co-op,4207 Lakeside Ave N #338,Brooklyn Center,MN,55429,98900,2,2.0,Brooklyn Center,1030,222940,1971,2,96,574,Active,,,https://www.redfin.com/MN/Minneapolis/4207-Lakeside-Ave-N-55429/unit-338/home/51343914,NORTHSTARMLS as Distributed by MLS Grid,6602991,N,Y,45.0412085,-93.3362813
MLS Listing,,Single Family Residential,4721 Ewing Ave S,Minneapolis,MN,55410,875000,3,3.0,Fulton,2636,5662,1927,2,332,,Active,,,https://www.redfin.com/MN/Minneapolis/4721-Ewing-Ave-S-55410/home/51391075,NORTHSTARMLS as Distributed by MLS Grid,6602980,N,Y,44.9172082,-93.3274967
MLS Listing,,Single Family Residential,3242 Vincent Ave N,Minneapolis,MN,55412,210000,2,1.0,Cleveland,856,5227,1924,2,245,,Pre On-Market,,,https://www.redfin.com/MN/Minneapolis/3242-Vincent-Ave-N-55412/home/49901106,NORTHSTARMLS as Distributed by MLS Grid,6602967,N,Y,45.0145219,-93.3156106
MLS Listing,,Single Family Residential,9650 Elliot Ave S,Bloomington,MN,55420,385000,5,2.0,Bloomington,2493,16988,1953,2,154,,Pre On-Market,,,https://www.redfin.com/MN/Minneapolis/9650-Elliot-Ave-S-55420/home/51367432,NORTHSTARMLS as Distributed by MLS Grid,6602256,N,Y,44.8283294,-93.2620543
MLS Listing,,Single Family Residential,3528 46th Ave S,Minneapolis,MN,55406,475000,4,2.0,Howe,1979,5662,1926,2,240,,Active,,,https://www.redfin.com/MN/Minneapolis/3528-46th-Ave-S-55406/home/51307527,NORTHSTARMLS as Distributed by MLS Grid,6551858,N,Y,44.9387759,-93.2079546
MLS Listing,,Single Family Residential,7220 Knox Ave S,Richfield,MN,55423,360000,3,1.0,Richfield,2247,10018,1950,2,160,,Active,September-20-2024 03:00 PM,September-20-2024 05:00 PM,https://www.redfin.com/MN/Minneapolis/7220-Knox-Ave-S-55423/home/51508268,NORTHSTARMLS as Distributed by MLS Grid,6599716,N,Y,44.8719111,-93.3026157
MLS Listing,,Single Family Residential,6931 Oliver Ave N,Brooklyn Center,MN,55430,389900,4,2.0,Brooklyn Center,2440,17728,1962,2,160,,Active,September-18-2024 04:00 PM,September-18-2024 06:00 PM,https://www.redfin.com/MN/Minneapolis/6931-Oliver-Ave-N-55430/home/51461535,NORTHSTARMLS as Distributed by MLS Grid,6601389,N,Y,45.0814394,-93.3099688
MLS Listing,,Single Family Residential,10915 Little Ave S,Bloomington,MN,55437,385000,4,2.0,Bloomington,1935,21780,1961,2,199,,Pre On-Market,,,https://www.redfin.com/MN/Minneapolis/10915-Little-Ave-S-55437/home/51409893,NORTHSTARMLS as Distributed by MLS Grid,6599971,N,Y,44.806309,-93.336504
MLS Listing,,Single Family Residential,5741 Maryland Ave N,Crystal,MN,55428,350000,3,2.0,Crystal,2023,9583,1954,2,173,,Pre On-Market,September-20-2024 04:30 PM,September-20-2024 06:00 PM,https://www.redfin.com/MN/Minneapolis/5741-Maryland-Ave-N-55428/home/51304260,NORTHSTARMLS as Distributed by MLS Grid,6595880,N,Y,45.0576333,-93.3712599
MLS Listing,,Single Family Residential,8000 Ridgeway Rd,Golden Valley,MN,55426,479900,3,2.0,Golden Valley,2156,11761,1956,2,223,,Pre On-Market,September-21-2024 11:00 AM,September-21-2024 01:00 PM,https://www.redfin.com/MN/Minneapolis/8000-Ridgeway-Rd-55426/home/51312289,NORTHSTARMLS as Distributed by MLS Grid,6602789,N,Y,44.9760947,-93.382133
MLS Listing,,Condo/Co-op,2600 University Ave SE #101,Minneapolis,MN,55414,249995,2,2.0,Prospect Park - East River Road,907,40902,2006,3,276,516,Active,,,https://www.redfin.com/MN/Minneapolis/2600-University-Ave-SE-55414/unit-101/home/51268706,NORTHSTARMLS as Distributed by MLS Grid,6599679,N,Y,44.9723311,-93.2200817
MLS Listing,,Single Family Residential,3806 52nd Ave N,Brooklyn Center,MN,55429,324900,5,2.0,Brooklyn Center,2800,11695,1955,3,116,,Active,September-21-2024 11:00 AM,September-21-2024 01:00 PM,https://www.redfin.com/MN/Minneapolis/3806-52nd-Ave-N-55429/home/51343413,NORTHSTARMLS as Distributed by MLS Grid,6601830,N,Y,45.0498519,-93.3302636
MLS Listing,,Single Family Residential,4630 Russell Ave N,Minneapolis,MN,55412,225000,3,2.0,Victory,1590,5052,1965,3,142,,Active,,,https://www.redfin.com/MN/Minneapolis/4630-Russell-Ave-N-55412/home/51351422,NORTHSTARMLS as Distributed by MLS Grid,6602749,N,Y,45.0393813,-93.3114133
MLS Listing,,Single Family Residential,10314 Toledo Cir,Bloomington,MN,55437,490000,4,3.0,Bloomington,2316,13068,1971,3,212,,Pre On-Market,,,https://www.redfin.com/MN/Minneapolis/10314-Toledo-Cir-55437/home/51409489,NORTHSTARMLS as Distributed by MLS Grid,6602857,N,Y,44.8144278,-93.3494611
MLS Listing,,Single Family Residential,7731 Countryside Dr,Bloomington,MN,55438,499999,4,3.0,Bloomington,2130,10018,1978,4,235,,Active,,,https://www.redfin.com/MN/Minneapolis/7731-Countryside-Dr-55438/home/51492500,NORTHSTARMLS as Distributed by MLS Grid,6598356,N,Y,44.8129674,-93.3865311
MLS Listing,,Single Family Residential,2613 3rd Ave S,Minneapolis,MN,55408,649900,7,5.0,Whittier,3100,6098,1900,4,210,,Active,,,https://www.redfin.com/MN/Minneapolis/2613-3rd-Ave-S-55408/home/49893518,NORTHSTARMLS as Distributed by MLS Grid,6602703,N,Y,44.9549697,-93.2724597
MLS Listing,,Single Family Residential,7106 Grimes Ave N,Brooklyn Center,MN,55429,285000,3,2.0,Brooklyn Center,1800,10018,1958,4,158,,Pre On-Market,,,https://www.redfin.com/MN/Minneapolis/7106-Grimes-Ave-N-55429/home/51466833,NORTHSTARMLS as Distributed by MLS Grid,6601206,N,Y,45.084112,-93.3317689
MLS Listing,,Single Family Residential,1309 86th Ave N,Brooklyn Park,MN,55444,399900,4,3.0,Brooklyn Park,2180,13503,1988,4,183,,Pre On-Market,,,https://www.redfin.com/MN/Minneapolis/1309-86th-Ave-N-55444/home/51366549,NORTHSTARMLS as Distributed by MLS Grid,6601275,N,Y,45.1099904,-93.2985374
MLS Listing,,Single Family Residential,115 W 88th St,Bloomington,MN,55420,279900,2,2.0,Bloomington,1912,16117,1953,4,146,,Active,,,https://www.redfin.com/MN/Minneapolis/115-W-88th-St-55420/home/51339465,NORTHSTARMLS as Distributed by MLS Grid,6592694,N,Y,44.8442561,-93.2800743
MLS Listing,,Single Family Residential,2930 Salem Ave S,Saint Louis Park,MN,55416,299900,2,2.0,Saint Louis Park,1296,7840,1931,4,231,,Active,,,https://www.redfin.com/MN/Minneapolis/2930-Salem-Ave-55416/home/51491835,NORTHSTARMLS as Distributed by MLS Grid,6602624,N,Y,44.9493608,-93.3457986
MLS Listing,,Single Family Residential,4440 30th Ave S,Minneapolis,MN,55406,427000,3,2.0,Ericsson,2079,5227,1947,4,205,,Active,,,https://www.redfin.com/MN/Minneapolis/4440-30th-Ave-S-55406/home/51355733,NORTHSTARMLS as Distributed by MLS Grid,6602633,N,Y,44.9220519,-93.2299428
MLS Listing,,Single Family Residential,7365 Autumn Chace Cir,Bloomington,MN,55438,480000,4,3.0,Bloomington,2798,11325,1978,4,172,,Pre On-Market,,,https://www.redfin.com/MN/Minneapolis/7365-Autumn-Chace-Cir-55438/home/51403964,NORTHSTARMLS as Distributed by MLS Grid,6602644,N,Y,44.8534162,-93.3809582
MLS Listing,,Condo/Co-op,2801 Flag Ave N #323,New Hope,MN,55427,176500,2,2.0,New Hope,988,,1970,4,179,475,Active,,,https://www.redfin.com/MN/Minneapolis/2801-Flag-Ave-N-55427/unit-323/home/50040535,NORTHSTARMLS as Distributed by MLS Grid,6602618,N,Y,45.0087544,-93.3961178
MLS Listing,,Townhouse,10252 Upton Pl,Bloomington,MN,55431,374900,2,3.0,Bloomington,2074,3049,1998,4,181,429,Active,,,https://www.redfin.com/MN/Minneapolis/10252-Upton-Pl-55431/home/51418376,NORTHSTARMLS as Distributed by MLS Grid,6587898,N,Y,44.8176048,-93.3163005
MLS Listing,,Single Family Residential,5220 W 113th Street Cir,Bloomington,MN,55437,479900,4,3.0,Bloomington,2224,13503,1979,5,216,,Active,,,https://www.redfin.com/MN/Minneapolis/5220-W-113th-Street-Cir-55437/home/50061716,NORTHSTARMLS as Distributed by MLS Grid,6599676,N,Y,44.8001011,-93.3478676
MLS Listing,,Single Family Residential,6617 76th Ave N,Brooklyn Park,MN,55428,296000,4,2.0,Brooklyn Park,1924,10890,1970,5,154,,Active,,,https://www.redfin.com/MN/Minneapolis/6617-76th-Ave-N-55428/home/49935613,NORTHSTARMLS as Distributed by MLS Grid,6594044,N,Y,45.0924582,-93.3658573
MLS Listing,,Single Family Residential,6408 74th Ave N,Brooklyn Park,MN,55428,380000,3,2.0,Brooklyn Park,2506,10890,1975,5,152,,Active,,,https://www.redfin.com/MN/Minneapolis/6408-74th-Ave-N-55428/home/51480473,NORTHSTARMLS as Distributed by MLS Grid,6580920,N,Y,45.0892854,-93.3632985
MLS Listing,,Single Family Residential,3701 Yates Ave N,Crystal,MN,55422,440000,4,2.0,Crystal,2806,16552,1949,5,157,,Active,,,https://www.redfin.com/MN/Minneapolis/3701-Yates-Ave-N-55422/home/51387246,NORTHSTARMLS as Distributed by MLS Grid,6596803,N,Y,45.023146,-93.3541385
MLS Listing,,Condo/Co-op,2130 Ridge Dr #11,Saint Louis Park,MN,55416,165000,1,1.0,Saint Louis Park,603,,1985,5,274,268,Active,,,https://www.redfin.com/MN/Minneapolis/2130-Ridge-Dr-55416/unit-11/home/51335995,NORTHSTARMLS as Distributed by MLS Grid,6601441,N,Y,44.961907,-93.3541695
MLS Listing,,Multi-Family (2-4 Unit),4812-4814 Idaho Ave N,Crystal,MN,55428,480000,5,3.0,Crystal,2104,9583,1953,5,228,,Active,,,https://www.redfin.com/MN/Minneapolis/4812-Idaho-Ave-N-55428/home/50198610,NORTHSTARMLS as Distributed by MLS Grid,6601688,N,Y,45.0423681,-93.3661837
MLS Listing,,Single Family Residential,2664 Inglewood Ave S,Saint Louis Park,MN,55416,685000,4,3.0,Saint Louis Park,1880,5227,1938,5,364,,Active,,,https://www.redfin.com/MN/Minneapolis/2664-Inglewood-Ave-S-55416/home/49974205,NORTHSTARMLS as Distributed by MLS Grid,6574281,N,Y,44.9539185,-93.3329557
MLS Listing,,Single Family Residential,5311 39th Ave S,Minneapolis,MN,55417,299900,2,1.0,Minnehaha,1081,5227,1926,5,277,,Active,,,https://www.redfin.com/MN/Minneapolis/5311-39th-Ave-S-55417/home/50172412,NORTHSTARMLS as Distributed by MLS Grid,6600940,N,Y,44.906847,-93.2162162
MLS Listing,,Single Family Residential,3345 Glenhurst Ave S,Saint Louis Park,MN,55416,425000,2,1.0,Saint Louis Park,1224,6098,1947,5,347,,Active,,,https://www.redfin.com/MN/Minneapolis/3345-Glenhurst-Ave-55416/home/51308144,NORTHSTARMLS as Distributed by MLS Grid,6594445,N,Y,44.9417055,-93.3300034
MLS Listing,,Single Family Residential,4329 Beard Ave N,Robbinsdale,MN,55422,340000,3,2.0,Robbinsdale,1407,6534,1949,5,242,,Active,,,https://www.redfin.com/MN/Minneapolis/4329-Beard-Ave-N-55422/home/50129020,NORTHSTARMLS as Distributed by MLS Grid,6591262,N,Y,45.0346452,-93.3241702
MLS Listing,,Single Family Residential,4814 Bryant Ave N,Minneapolis,MN,55430,210000,2,1.0,Lind - Bohanon,864,5227,1922,5,243,,Active,September-21-2024 01:00 PM,September-21-2024 03:00 PM,https://www.redfin.com/MN/Minneapolis/4814-Bryant-Ave-N-55430/home/50045977,NORTHSTARMLS as Distributed by MLS Grid,6555637,N,Y,45.0425866,-93.2911869
MLS Listing,,Single Family Residential,2116 Xerxes Ave N,Minneapolis,MN,55411,399900,4,3.0,Willard - Hay,2558,6098,1934,5,156,,Active,,,https://www.redfin.com/MN/Minneapolis/2116-Xerxes-Ave-N-55411/home/49979473,NORTHSTARMLS as Distributed by MLS Grid,6594799,N,Y,45.0011106,-93.3178143
MLS Listing,,Condo/Co-op,4001 Heritage Hills Dr #302,Bloomington,MN,55437,173900,2,2.0,Bloomington,1050,,1974,5,166,384,Active,,,https://www.redfin.com/MN/Minneapolis/4001-Heritage-Hills-Dr-55437/unit-302/home/51409047,NORTHSTARMLS as Distributed by MLS Grid,6600720,N,Y,44.8134783,-93.3329991
MLS Listing,,Townhouse,2404 Hillsboro Ave N,Golden Valley,MN,55427,359000,4,3.0,Golden Valley,1911,1470,1975,5,188,200,Active,,,https://www.redfin.com/MN/Minneapolis/2404-Hillsboro-Ave-N-55427/home/51487704,NORTHSTARMLS as Distributed by MLS Grid,6598690,N,Y,45.0058015,-93.3983951
MLS Listing,,Single Family Residential,602 19th Ave S,Minneapolis,MN,55454,335000,4,3.0,Cedar Riverside,2014,4791,1994,5,166,,Active,,,https://www.redfin.com/MN/Minneapolis/602-19th-Ave-S-55454/home/50026345,NORTHSTARMLS as Distributed by MLS Grid,6600763,N,Y,44.9675744,-93.2459316
MLS Listing,,Single Family Residential,6325 Bethia Ln,Brooklyn Park,MN,55428,324900,3,1.0,Brooklyn Park,2250,17859,1958,5,144,,Pre On-Market,,,https://www.redfin.com/MN/Minneapolis/6325-Bethia-Ln-55428/home/49889898,NORTHSTARMLS as Distributed by MLS Grid,6601252,N,Y,45.0798743,-93.362498
MLS Listing,,Single Family Residential,2614 Aquila Ave S,Saint Louis Park,MN,55426,439000,3,3.0,Saint Louis Park,2017,,1956,5,218,,Pre On-Market,September-21-2024 01:00 PM,September-21-2024 03:00 PM,https://www.redfin.com/MN/Minneapolis/2614-Aquila-Ave-S-55426/home/51321618,NORTHSTARMLS as Distributed by MLS Grid,6599298,N,Y,44.9542368,-93.3891402
MLS Listing,,Single Family Residential,4316 Upton Ave N,Minneapolis,MN,55412,200000,1,1.0,Victory,840,5227,1924,5,238,,Active,,,https://www.redfin.com/MN/Minneapolis/4316-Upton-Ave-N-55412/home/50054324,NORTHSTARMLS as Distributed by MLS Grid,6601326,N,Y,45.0339776,-93.3146769
MLS Listing,,Single Family Residential,3452 34th Ave S,Minneapolis,MN,55406,308000,3,2.0,Howe,1030,5227,1900,5,299,,Active,,,https://www.redfin.com/MN/Minneapolis/3452-34th-Ave-S-55406/home/51307036,NORTHSTARMLS as Distributed by MLS Grid,6601394,N,Y,44.9399646,-93.2234574
MLS Listing,,Single Family Residential,4543 Snelling Ave,Minneapolis,MN,55406,295000,2,1.0,Hiawatha,1060,6098,1920,5,278,,Pre On-Market,,,https://www.redfin.com/MN/Minneapolis/4543-Snelling-Ave-55406/home/49960689,NORTHSTARMLS as Distributed by MLS Grid,6595878,N,Y,44.9203359,-93.2164994
MLS Listing,,Townhouse,5605 100th Ln N,Brooklyn Park,MN,55443,289000,3,3.0,Brooklyn Park,1546,1306,2004,5,187,240,Active,,,https://www.redfin.com/MN/Minneapolis/5605-100th-Ln-N-55443/home/49937094,NORTHSTARMLS as Distributed by MLS Grid,6602191,N,Y,45.1366501,-93.3522695
MLS Listing,,Single Family Residential,3006 53rd Ave N,Brooklyn Center,MN,55430,229900,3,1.0,Brooklyn Center,1134,10018,1950,5,203,,Active,,,https://www.redfin.com/MN/Minneapolis/3006-53rd-Ave-N-55430/home/51290449,NORTHSTARMLS as Distributed by MLS Grid,6602320,N,Y,45.051479,-93.3198786
MLS Listing,,Condo/Co-op,521 S 7th St #508,Minneapolis,MN,55415,275000,2,1.0,Elliot Park,1029,27225,1926,5,267,538,Active,September-20-2024 04:30 PM,September-20-2024 06:00 PM,https://www.redfin.com/MN/Minneapolis/521-S-7th-St-55415/unit-508/home/50134998,NORTHSTARMLS as Distributed by MLS Grid,6602072,N,Y,44.9733674,-93.2646718
MLS Listing,,Single Family Residential,4812 Elliot Ave,Minneapolis,MN,55417,600000,3,3.0,Northrop,1867,6098,1928,5,321,,Pre On-Market,,,https://www.redfin.com/MN/Minneapolis/4812-Elliot-Ave-55417/home/51368379,NORTHSTARMLS as Distributed by MLS Grid,6571182,N,Y,44.9155639,-93.2616826
MLS Listing,,Single Family Residential,5837 Irving Ave S,Minneapolis,MN,55419,750000,4,4.0,Kenny,2972,6534,1951,5,252,,Active,,,https://www.redfin.com/MN/Minneapolis/5837-Irving-Ave-S-55419/home/51428042,NORTHSTARMLS as Distributed by MLS Grid,6602354,N,Y,44.8966351,-93.3005934
MLS Listing,,Single Family Residential,5117 89th Cres N,Brooklyn Park,MN,55443,380000,4,2.0,Brooklyn Park,2043,13503,1995,5,186,,Pre On-Market,,,https://www.redfin.com/MN/Minneapolis/5117-89th-Cres-N-55443/home/50128629,NORTHSTARMLS as Distributed by MLS Grid,6601861,N,Y,45.1154403,-93.3466635
MLS Listing,,Single Family Residential,9837 Xerxes Curv S,Bloomington,MN,55431,424900,4,2.0,Bloomington,2248,15681,1968,5,189,,Active,,,https://www.redfin.com/MN/Minneapolis/9837-Xerxes-Curv-S-55431/home/51389840,NORTHSTARMLS as Distributed by MLS Grid,6600231,N,Y,44.8260388,-93.3169754
MLS Listing,,Condo/Co-op,3800 85th Ave N #316,Brooklyn Park,MN,55443,325000,2,2.0,Brooklyn Park,1538,176940,2005,5,211,631,Active,,,https://www.redfin.com/MN/Minneapolis/3800-85th-Ave-N-55443/unit-316/home/49973840,NORTHSTARMLS as Distributed by MLS Grid,6594972,N,Y,45.1098416,-93.3304061
MLS Listing,,Single Family Residential,3807 Queen Ave N,Minneapolis,MN,55412,260000,4,2.0,Victory,1885,4791,1929,5,138,,Active,September-21-2024 11:00 AM,September-21-2024 01:00 PM,https://www.redfin.com/MN/Minneapolis/3807-Queen-Ave-N-55412/home/51300267,NORTHSTARMLS as Distributed by MLS Grid,6600555,N,Y,45.0243358,-93.3099277
MLS Listing,,Single Family Residential,2733 11th Ave S,Minneapolis,MN,55407,259900,4,2.0,Midtown Phillips,1656,5227,1900,5,157,,Pre On-Market,,,https://www.redfin.com/MN/Minneapolis/2733-11th-Ave-S-55407/home/51522209,NORTHSTARMLS as Distributed by MLS Grid,6602274,N,Y,44.9526947,-93.2585847
MLS Listing,,Single Family Residential,2200 73rd Ct N,Brooklyn Park,MN,55444,379900,4,2.0,Brooklyn Park,1832,10890,1975,5,207,,Active,,,https://www.redfin.com/MN/Minneapolis/2200-73rd-Ct-N-55444/home/51461022,NORTHSTARMLS as Distributed by MLS Grid,6602197,N,Y,45.0884396,-93.3096426
MLS Listing,,Condo/Co-op,111 4th Ave N #309,Minneapolis,MN,55401,899900,2,2.0,North Loop,2390,,2002,5,377,1299,Active,,,https://www.redfin.com/MN/Minneapolis/111-4th-Ave-N-55401/unit-309/home/49996140,NORTHSTARMLS as Distributed by MLS Grid,6601963,N,Y,44.9865337,-93.2714261
MLS Listing,,Single Family Residential,417 36th Ave N,Minneapolis,MN,55412,165000,2,1.0,McKinley,920,4356,1922,5,179,,Active,,,https://www.redfin.com/MN/Minneapolis/417-36th-Ave-N-55412/home/51342201,NORTHSTARMLS as Distributed by MLS Grid,6579809,N,Y,45.0201036,-93.2858742
MLS Listing,,Condo/Co-op,3104 W Lake St #106,Minneapolis,MN,55416,349900,2,2.0,Cedar - Isles - Dean,1271,98445,2007,5,275,845,Active,,,https://www.redfin.com/MN/Minneapolis/3104-W-Lake-St-55416/unit-106/home/49926886,NORTHSTARMLS as Distributed by MLS Grid,6599648,N,Y,44.9487167,-93.3188572
MLS Listing,,Single Family Residential,3428 Halifax Ave N,Robbinsdale,MN,55422,225000,2,1.0,Robbinsdale,756,5227,1923,5,298,,Active,,,https://www.redfin.com/MN/Minneapolis/3428-Halifax-Ave-N-55422/home/51318945,NORTHSTARMLS as Distributed by MLS Grid,6602154,N,Y,45.0178018,-93.3308189
MLS Listing,,Single Family Residential,5724 James Ave S,Minneapolis,MN,55419,424900,3,2.0,Kenny,1773,5227,1952,5,240,,Active,,,https://www.redfin.com/MN/Minneapolis/5724-James-Ave-S-55419/home/49943840,NORTHSTARMLS as Distributed by MLS Grid,6600522,N,Y,44.8989161,-93.3013681
MLS Listing,,Condo/Co-op,4017 14th Ave S Unit 11E,Minneapolis,MN,55407,109000,1,1.0,Bancroft,696,159516,1965,5,157,401,Active,,,https://www.redfin.com/MN/Minneapolis/4017-14th-Ave-S-55407/unit-11E/home/51346966,NORTHSTARMLS as Distributed by MLS Grid,6601868,N,Y,44.9298579,-93.2546279
MLS Listing,,Single Family Residential,1937 Ewing Ave S,Minneapolis,MN,55416,750000,3,3.0,Bryn - Mawr,2401,8712,1978,5,312,,Pre On-Market,September-20-2024 05:00 PM,September-20-2024 06:30 PM,https://www.redfin.com/MN/Minneapolis/1937-Ewing-Ave-S-55416/home/51476788,NORTHSTARMLS as Distributed by MLS Grid,6596034,N,Y,44.9637266,-93.3268385
MLS Listing,,Single Family Residential,4041 Brunswick Ave N,Crystal,MN,55422,385000,4,2.0,Crystal,1936,10890,1977,5,199,,Active,,,https://www.redfin.com/MN/Minneapolis/4041-Brunswick-Ave-N-55422/home/51386777,NORTHSTARMLS as Distributed by MLS Grid,6602156,N,Y,45.0291123,-93.3578372
MLS Listing,,Single Family Residential,6252 Century Blvd,Brooklyn Park,MN,55429,400000,3,3.0,Brooklyn Park,2070,11325,1978,5,193,,Active,,,https://www.redfin.com/MN/Minneapolis/6252-Century-Blvd-55429/home/51473799,NORTHSTARMLS as Distributed by MLS Grid,6602096,N,Y,45.0847893,-93.3602731
MLS Listing,,Single Family Residential,3027 Newton Ave N,Minneapolis,MN,55411,210000,2,2.0,Jordan,1610,5227,1900,5,130,,Active,,,https://www.redfin.com/MN/Minneapolis/3027-Newton-Ave-N-55411/home/51334610,NORTHSTARMLS as Distributed by MLS Grid,6602098,N,Y,45.0122831,-93.3059962
MLS Listing,,Townhouse,4141 93rd Ave N,Brooklyn Park,MN,55443,335000,2,3.0,Brooklyn Park,2200,2613,1996,5,152,350,Pre On-Market,,,https://www.redfin.com/MN/Minneapolis/4141-93rd-Ave-N-55443/home/51380215,NORTHSTARMLS as Distributed by MLS Grid,6596029,N,Y,45.1211941,-93.333556
MLS Listing,,Single Family Residential,5619 Rhode Island Ave N,Crystal,MN,55428,300000,4,2.0,Crystal,1665,8246,1959,5,180,,Active,,,https://www.redfin.com/MN/Minneapolis/5619-Rhode-Island-Ave-N-55428/home/51304463,NORTHSTARMLS as Distributed by MLS Grid,6592087,N,Y,45.0554087,-93.3775794
MLS Listing,,Single Family Residential,2812 Brunswick Ave S,Saint Louis Park,MN,55416,475000,4,2.0,Saint Louis Park,2157,4791,1952,5,220,,Active,,,https://www.redfin.com/MN/Minneapolis/2812-Brunswick-Ave-S-55416/home/51336530,NORTHSTARMLS as Distributed by MLS Grid,6600398,N,Y,44.9527456,-93.3585785
MLS Listing,,Single Family Residential,4120 France Ave S,Edina,MN,55416,525000,4,2.0,Edina,1680,10018,1958,5,313,,Active,,,https://www.redfin.com/MN/Minneapolis/4120-France-Ave-S-55416/home/51317285,NORTHSTARMLS as Distributed by MLS Grid,6602099,N,Y,44.9275205,-93.3294085
MLS Listing,,Single Family Residential,10106 Dupont Ave S,Bloomington,MN,55431,399900,4,2.0,Bloomington,2406,11325,1958,5,166,,Active,,,https://www.redfin.com/MN/Minneapolis/10106-DuPont-Ave-S-55431/home/50097389,NORTHSTARMLS as Distributed by MLS Grid,6601276,N,Y,44.8206393,-93.294012
MLS Listing,,Condo/Co-op,2120 Ridge Dr #32,Saint Louis Park,MN,55416,152900,1,1.0,Saint Louis Park,560,64251,1984,5,273,270,Active,,,https://www.redfin.com/MN/Minneapolis/2120-Ridge-Dr-55416/unit-32/home/51335998,NORTHSTARMLS as Distributed by MLS Grid,6602051,N,Y,44.962195,-93.3543788
MLS Listing,,Single Family Residential,1001 25th Ave N,Minneapolis,MN,55411,274900,4,2.0,Hawthorne,1762,6969,1976,5,156,,Active,,,https://www.redfin.com/MN/Minneapolis/1001-25th-Ave-N-55411/home/51384052,NORTHSTARMLS as Distributed by MLS Grid,6598292,N,Y,45.0046688,-93.2928939
MLS Listing,,Multi-Family (2-4 Unit),2633 7th St NE,Minneapolis,MN,55418,300000,2,2.0,Holland,1449,5227,1905,5,207,,Active,,,https://www.redfin.com/MN/Minneapolis/2633-7th-St-NE-55418/home/50205022,NORTHSTARMLS as Distributed by MLS Grid,6602020,N,Y,45.0161683,-93.2577129
MLS Listing,,Single Family Residential,2716 Zenith Ave N,Robbinsdale,MN,55422,274900,4,2.0,Robbinsdale,2397,5662,1936,5,115,,Active,,,https://www.redfin.com/MN/Minneapolis/2716-Zenith-Ave-N-55422/home/51327110,NORTHSTARMLS as Distributed by MLS Grid,6602043,N,Y,45.0083854,-93.3207059
MLS Listing,,Condo/Co-op,201 S 11th St #930,Minneapolis,MN,55403,465000,2,2.0,Downtown West,1441,20211,2007,5,323,1153,Active,,,https://www.redfin.com/MN/Minneapolis/201-S-11th-St-55403/unit-930/home/49982258,NORTHSTARMLS as Distributed by MLS Grid,6600753,N,Y,44.9715414,-93.2726468
MLS Listing,,Single Family Residential,5925 Columbus Ave,Minneapolis,MN,55417,459900,4,2.0,Diamond Lake,2090,6534,1942,5,220,,Active,,,https://www.redfin.com/MN/Minneapolis/5925-Columbus-Ave-55417/home/51440276,NORTHSTARMLS as Distributed by MLS Grid,6602005,N,Y,44.8951005,-93.2637465
MLS Listing,,Single Family Residential,3323 Bryant Ave N,Minneapolis,MN,55412,249900,3,1.0,McKinley,1789,5227,1923,5,140,,Active,,,https://www.redfin.com/MN/Minneapolis/3323-Bryant-Ave-N-55412/home/51334259,NORTHSTARMLS as Distributed by MLS Grid,6600991,N,Y,45.015716,-93.290828
MLS Listing,,Single Family Residential,2721 Edgewood Ave S,Saint Louis Park,MN,55426,369900,3,1.0,Saint Louis Park,1560,5227,1950,5,237,,Active,,,https://www.redfin.com/MN/Minneapolis/2721-Edgewood-Ave-S-55426/home/51330219,NORTHSTARMLS as Distributed by MLS Grid,6599130,N,Y,44.9542877,-93.3616539
MLS Listing,,Single Family Residential,3040 Elliot Ave,Minneapolis,MN,55407,374999,4,3.0,Powderhorn Park,2750,5227,1909,5,136,,Active,,,https://www.redfin.com/MN/Minneapolis/3040-Elliot-Ave-55407/home/49949148,NORTHSTARMLS as Distributed by MLS Grid,6601771,N,Y,44.9470658,-93.2616886
MLS Listing,,Single Family Residential,2814 Penn Ave N,Minneapolis,MN,55411,125000,2,2.0,Jordan,1016,5227,1924,5,123,,Active,,,https://www.redfin.com/MN/Minneapolis/2814-Penn-Ave-N-55411/home/51334558,NORTHSTARMLS as Distributed by MLS Grid,6601974,N,Y,45.0091678,-93.3079507
MLS Listing,,Single Family Residential,4119 Pebblebrook Cir,Bloomington,MN,55437,435000,5,3.0,Bloomington,2475,15681,1981,6,176,,Active,,,https://www.redfin.com/MN/Minneapolis/4119-Pebblebrook-Cir-55437/home/50169135,NORTHSTARMLS as Distributed by MLS Grid,6592832,N,Y,44.8246479,-93.3343073
MLS Listing,,Single Family Residential,1270 46th Ave NE,Columbia Heights,MN,55421,315000,2,2.0,Columbia Heights,1533,7840,1923,6,205,,Active,September-22-2024 11:00 AM,September-22-2024 01:00 PM,https://www.redfin.com/MN/Minneapolis/1270-46th-Ave-NE-55421/home/49902664,NORTHSTARMLS as Distributed by MLS Grid,6599678,N,Y,45.0514529,-93.241084
MLS Listing,,Single Family Residential,2920 W 42nd St,Minneapolis,MN,55410,737500,6,3.0,Linden Hills,3383,7840,1958,6,218,,Active,,,https://www.redfin.com/MN/Minneapolis/2920-W-42nd-St-55410/home/51324672,NORTHSTARMLS as Distributed by MLS Grid,6599456,N,Y,44.9270448,-93.3171298
MLS Listing,,Single Family Residential,4008 5th St NE,Columbia Heights,MN,55421,219900,1,1.0,Columbia Heights,663,5532,1921,6,332,,Active,,,https://www.redfin.com/MN/Minneapolis/4008-5th-St-NE-55421/home/50992374,NORTHSTARMLS as Distributed by MLS Grid,6591466,N,Y,45.04134,-93.2604665
MLS Listing,,Single Family Residential,3317 W 87th St,Bloomington,MN,55431,450000,4,2.0,Bloomington,1856,10890,1965,6,242,,Active,,,https://www.redfin.com/MN/Minneapolis/3317-W-87th-St-55431/home/51323626,NORTHSTARMLS as Distributed by MLS Grid,6601265,N,Y,44.8455996,-93.3224379
MLS Listing,,Single Family Residential,4234 Portland Ave,Minneapolis,MN,55407,329900,3,1.0,Regina,1540,4791,1925,6,214,,Active,,,https://www.redfin.com/MN/Minneapolis/4234-Portland-Ave-55407/home/50062662,NORTHSTARMLS as Distributed by MLS Grid,6599335,N,Y,44.9258187,-93.267932
MLS Listing,,Single Family Residential,627 Russell Ave N,Minneapolis,MN,55411,212500,3,1.0,Willard - Hay,1292,5662,1900,6,164,,Active,,,https://www.redfin.com/MN/Minneapolis/627-Russell-Ave-N-55411/home/50024883,NORTHSTARMLS as Distributed by MLS Grid,6577241,N,Y,44.9852501,-93.3113376
MLS Listing,,Single Family Residential,8900 Newton Ave S,Bloomington,MN,55431,375000,3,2.0,Bloomington,1660,9583,1956,6,226,,Active,,,https://www.redfin.com/MN/Minneapolis/8900-Newton-Ave-S-55431/home/51332930,NORTHSTARMLS as Distributed by MLS Grid,6599160,N,Y,44.8424059,-93.307163
MLS Listing,,Single Family Residential,5553 24th Ave S,Minneapolis,MN,55417,425000,3,2.0,Wenonah,1976,5227,1948,6,215,,Active,September-21-2024 12:00 PM,September-21-2024 01:30 PM,https://www.redfin.com/MN/Minneapolis/5553-24th-Ave-S-55417/home/50152057,NORTHSTARMLS as Distributed by MLS Grid,6599344,N,Y,44.9019162,-93.2371375
MLS Listing,,Single Family Residential,5008 Beard Ave S,Minneapolis,MN,55410,520000,3,2.0,Fulton,1706,5662,1952,6,305,,Active,,,https://www.redfin.com/MN/Minneapolis/5008-Beard-Ave-S-55410/home/50172026,NORTHSTARMLS as Distributed by MLS Grid,6599574,N,Y,44.9120873,-93.3242348
MLS Listing,,Single Family Residential,214 W 74th St,Richfield,MN,55423,380000,4,2.0,Richfield,1965,10454,1954,6,193,,Active,,,https://www.redfin.com/MN/Minneapolis/214-W-74th-St-55423/home/51515399,NORTHSTARMLS as Distributed by MLS Grid,6599791,N,Y,44.869326,-93.2829045
MLS Listing,,Single Family Residential,5048 Upton Ave S,Minneapolis,MN,55410,1150000,5,4.0,Fulton,3584,5227,2011,6,321,,Active,,,https://www.redfin.com/MN/Minneapolis/5048-Upton-Ave-S-55410/home/50062629,NORTHSTARMLS as Distributed by MLS Grid,6562416,N,Y,44.9109636,-93.3153389
MLS Listing,,Townhouse,1122 Kenwood Pkwy,Minneapolis,MN,55403,1300000,4,5.0,Lowry Hill,4509,15681,1994,6,288,733,Active,September-19-2024 11:00 AM,September-19-2024 12:30 PM,https://www.redfin.com/MN/Minneapolis/1122-Kenwood-Pkwy-55403/home/51469984,NORTHSTARMLS as Distributed by MLS Grid,6554795,N,Y,44.9688424,-93.3044829
MLS Listing,,Single Family Residential,9300 Briar Ln,Bloomington,MN,55437,1575000,5,5.0,Bloomington,5768,71003,2012,6,273,,Active,,,https://www.redfin.com/MN/Minneapolis/9300-Briar-Ln-55437/home/51429758,NORTHSTARMLS as Distributed by MLS Grid,6601119,N,Y,44.8352072,-93.3527657
MLS Listing,,Single Family Residential,7240 Glenwood Ave,Golden Valley,MN,55427,369000,4,2.0,Golden Valley,1883,13503,1957,6,196,,Active,,,https://www.redfin.com/MN/Minneapolis/7240-Glenwood-Ave-55427/home/51504657,NORTHSTARMLS as Distributed by MLS Grid,6596256,N,Y,44.9848387,-93.3720285
MLS Listing,,Single Family Residential,9608 Vincent Ave N,Brooklyn Park,MN,55444,369900,4,2.0,Brooklyn Park,1930,10890,1986,6,192,,Active,,,https://www.redfin.com/MN/Minneapolis/9608-Vincent-Ave-N-55444/home/51352849,NORTHSTARMLS as Distributed by MLS Grid,6599756,N,Y,45.1290746,-93.318214
MLS Listing,,Single Family Residential,5216 Xerxes Ave S,Minneapolis,MN,55410,545000,3,2.0,Fulton,1789,5227,1922,6,305,,Active,September-21-2024 11:30 AM,September-21-2024 01:00 PM,https://www.redfin.com/MN/Minneapolis/5216-Xerxes-Ave-S-55410/home/49903636,NORTHSTARMLS as Distributed by MLS Grid,6554766,N,Y,44.9082811,-93.319143
MLS Listing,,Single Family Residential,5512 Regent Ave N,Crystal,MN,55429,314900,3,2.0,Crystal,1775,8276,1960,6,177,,Active,,,https://www.redfin.com/MN/Minneapolis/5512-Regent-Ave-N-55429/home/49902765,NORTHSTARMLS as Distributed by MLS Grid,6600419,N,Y,45.0525479,-93.344663
MLS Listing,,Condo/Co-op,400 N 1st St #309,Minneapolis,MN,55401,325000,1,1.0,North Loop,933,18861,1900,6,348,679,Active,,,https://www.redfin.com/MN/Minneapolis/400-N-1st-St-55401/unit-309/home/50026926,NORTHSTARMLS as Distributed by MLS Grid,6600836,N,Y,44.9873286,-93.2712237
MLS Listing,,Condo/Co-op,6615 Lake Shore Dr S #601,Richfield,MN,55423,229000,2,2.0,Richfield,1130,164439,1983,6,203,723,Active,,,https://www.redfin.com/MN/Minneapolis/6615-Lake-Shore-Dr-S-55423/unit-601/home/49902935,NORTHSTARMLS as Distributed by MLS Grid,6577500,N,Y,44.8826608,-93.2894799
MLS Listing,,Single Family Residential,5433 Elliot Ave,Minneapolis,MN,55417,499000,4,2.0,Hale,1780,6534,1937,6,280,,Active,,,https://www.redfin.com/MN/Minneapolis/5433-Elliot-Ave-55417/home/51439331,NORTHSTARMLS as Distributed by MLS Grid,6598139,N,Y,44.9041326,-93.2610683
MLS Listing,,Condo/Co-op,500 E Grant St #401,Minneapolis,MN,55404,485000,2,2.0,Elliot Park,1759,,2003,6,276,1070,Active,,,https://www.redfin.com/MN/Minneapolis/500-E-Grant-St-55404/unit-401/home/51255020,NORTHSTARMLS as Distributed by MLS Grid,6596215,N,Y,44.970184,-93.268217
MLS Listing,,Single Family Residential,728 36th Ave NE,Minneapolis,MN,55418,325000,2,2.0,Columbia Park,1348,27442,1924,6,241,,Active,,,https://www.redfin.com/MN/Minneapolis/728-36th-Ave-NE-55418/home/49989978,NORTHSTARMLS as Distributed by MLS Grid,6600483,N,Y,45.0337505,-93.2523598
MLS Listing,,Single Family Residential,4831 Sheridan Ave S,Minneapolis,MN,55410,1800000,3,3.0,Fulton,5720,12196,1927,6,315,,Active,,,https://www.redfin.com/MN/Minneapolis/4831-Sheridan-Ave-S-55410/home/50084058,NORTHSTARMLS as Distributed by MLS Grid,6596967,N,Y,44.915006,-93.3122175
MLS Listing,,Single Family Residential,3716 29th Ave S,Minneapolis,MN,55406,750000,4,4.0,Standish,2952,5227,1912,6,254,,Active,,,https://www.redfin.com/MN/Minneapolis/3716-29th-Ave-S-55406/home/51275832,NORTHSTARMLS as Distributed by MLS Grid,6587512,N,Y,44.9353727,-93.2311453
MLS Listing,,Other,11109 Oregon Cir,Bloomington,MN,55438,220000,2,2.0,Bloomington,1151,14374,1990,6,191,419,Active,,,https://www.redfin.com/MN/Bloomington/11109-Oregon-Cir-55438/home/192511562,NORTHSTARMLS as Distributed by MLS Grid,6575172,N,Y,44.8024092,-93.377207
MLS Listing,,Single Family Residential,4721 Wingard Ln,Brooklyn Center,MN,55429,300000,3,2.0,Brooklyn Center,2278,10454,1960,6,132,,Active,,,https://www.redfin.com/MN/Minneapolis/4721-Wingard-Ln-55429/home/51474309,NORTHSTARMLS as Distributed by MLS Grid,6598218,N,Y,45.0859795,-93.3420851
MLS Listing,,Single Family Residential,5615 Newton Ave S,Minneapolis,MN,55419,442500,3,2.0,Armatage,1750,5227,1949,6,253,,Active,,,https://www.redfin.com/MN/Minneapolis/5615-Newton-Ave-S-55419/home/50046271,NORTHSTARMLS as Distributed by MLS Grid,6599751,N,Y,44.9010695,-93.3058089
MLS Listing,,Single Family Residential,1811 Arthur St NE,Minneapolis,MN,55418,285000,3,1.0,Windom Park,1357,6534,1950,6,210,,Active,,,https://www.redfin.com/MN/Minneapolis/1811-Arthur-St-NE-55418/home/51357953,NORTHSTARMLS as Distributed by MLS Grid,6593542,N,Y,45.0063801,-93.2317451
MLS Listing,,Condo/Co-op,100 3rd Ave S #505,Minneapolis,MN,55401,530000,2,2.0,Downtown West,1178,,2006,6,450,1096,Active,,,https://www.redfin.com/MN/Minneapolis/100-3rd-Ave-S-55401/unit-505/home/50188519,NORTHSTARMLS as Distributed by MLS Grid,6598310,N,Y,44.9818144,-93.2631138
MLS Listing,,Single Family Residential,3208 Georgia Ave S,Saint Louis Park,MN,55426,380000,2,1.0,Saint Louis Park,1530,6534,1942,6,248,,Active,,,https://www.redfin.com/MN/Minneapolis/3208-Georgia-Ave-S-55426/home/51394411,NORTHSTARMLS as Distributed by MLS Grid,6596671,N,Y,44.9455752,-93.364623
MLS Listing,,Single Family Residential,4221 Bassett Creek Dr,Golden Valley,MN,55422,585000,4,3.0,Golden Valley,2391,13503,1964,6,245,,Active,September-19-2024 05:00 PM,September-19-2024 07:00 PM,https://www.redfin.com/MN/Minneapolis/4221-Bassett-Creek-Dr-55422/home/50074950,NORTHSTARMLS as Distributed by MLS Grid,6597800,N,Y,45.0026928,-93.3329953
MLS Listing,,Single Family Residential,8298 Taylor St NE,Spring Lake Park,MN,55432,315000,4,2.0,Spring Lake Park,2593,10890,1945,6,121,,Active,,,https://www.redfin.com/MN/Minneapolis/8298-Taylor-St-NE-55432/home/50166846,NORTHSTARMLS as Distributed by MLS Grid,6590277,N,Y,45.1183893,-93.2448597
MLS Listing,,Single Family Residential,8115 Taylor St NE,Spring Lake Park,MN,55432,349900,4,2.0,Spring Lake Park,1800,10890,1984,6,194,,Active,,,https://www.redfin.com/MN/Minneapolis/8115-Taylor-St-NE-55432/home/50927177,NORTHSTARMLS as Distributed by MLS Grid,6601210,N,Y,45.1155026,-93.2441734
MLS Listing,,Townhouse,1511 E 28th St,Minneapolis,MN,55407,249900,2,2.0,Midtown Phillips,1520,15594,2004,6,164,322,Active,,,https://www.redfin.com/MN/Minneapolis/1511-E-28th-St-55407/home/49986671,NORTHSTARMLS as Distributed by MLS Grid,6601904,N,Y,44.9518178,-93.2530065
MLS Listing,,Townhouse,10559 Decatur Ave S,Bloomington,MN,55438,270000,3,2.0,Bloomington,1407,4791,1977,6,192,240,Active,,,https://www.redfin.com/MN/Minneapolis/10559-Decatur-Ave-S-55438/home/50142173,NORTHSTARMLS as Distributed by MLS Grid,6601831,N,Y,44.8119672,-93.3957789
MLS Listing,,Townhouse,1058 Cedar View Dr,Minneapolis,MN,55405,580000,2,3.0,Bryn - Mawr,2219,2178,1975,6,261,600,Active,,,https://www.redfin.com/MN/Minneapolis/1058-Cedar-View-Dr-55405/home/49989576,NORTHSTARMLS as Distributed by MLS Grid,6568685,N,Y,44.9681728,-93.3135085
MLS Listing,,Single Family Residential,4640 Vincent Ave S,Minneapolis,MN,55410,1395000,4,4.0,Linden Hills,3907,5662,2013,6,357,,Pre On-Market,,,https://www.redfin.com/MN/Minneapolis/4640-Vincent-Ave-S-55410/home/50164411,NORTHSTARMLS as Distributed by MLS Grid,6601808,N,Y,44.9183931,-93.3167003
MLS Listing,,Single Family Residential,4248 Grimes Ave N,Robbinsdale,MN,55422,350000,4,3.0,Robbinsdale,2060,7187,1965,6,170,,Pre On-Market,,,https://www.redfin.com/MN/Minneapolis/4248-Grimes-Ave-N-55422/home/51309604,NORTHSTARMLS as Distributed by MLS Grid,6600504,N,Y,45.0326879,-93.3299396
MLS Listing,,Condo/Co-op,4418 W Lake Harriet Pkwy #105,Minneapolis,MN,55410,179900,0,1.0,Linden Hills,509,19950,1922,6,353,299,Active,,,https://www.redfin.com/MN/Minneapolis/4418-W-Lake-Harriet-Pkwy-55410/unit-105/home/51326049,NORTHSTARMLS as Distributed by MLS Grid,6597074,N,Y,44.9226101,-93.312513
MLS Listing,,Townhouse,3403 Douglas Dr N,Crystal,MN,55422,399900,3,3.0,Basset Creek Estates,1864,,2024,6,215,200,Active,,,https://www.redfin.com/MN/Crystal/3403-Douglas-Dr-N-55422/home/192524868,NORTHSTARMLS as Distributed by MLS Grid,6601285,N,Y,45.018567,-93.3606684
MLS Listing,,Single Family Residential,1551 E River Ter,Minneapolis,MN,55414,679900,4,4.0,Prospect Park - East River Road,3075,7840,1928,6,221,,Pre On-Market,September-21-2024 11:00 AM,September-21-2024 01:00 PM,https://www.redfin.com/MN/Minneapolis/1551-E-River-Ter-55414/home/50007869,NORTHSTARMLS as Distributed by MLS Grid,6583932,N,Y,44.9632278,-93.2155666
MLS Listing,,Single Family Residential,6725 Xerxes Ave S,Richfield,MN,55423,380000,4,2.0,Richfield,1744,6534,1952,6,218,,Active,,,https://www.redfin.com/MN/Minneapolis/6725-Xerxes-Ave-S-55423/home/50663885,NORTHSTARMLS as Distributed by MLS Grid,6571210,N,Y,44.8808271,-93.3184641
MLS Listing,,Townhouse,7076 Unity Ave N,Brooklyn Center,MN,55429,248000,3,2.0,Brooklyn Center,1623,3484,1979,6,153,411,Active,,,https://www.redfin.com/MN/Minneapolis/7076-Unity-Ave-N-55429/home/49893467,NORTHSTARMLS as Distributed by MLS Grid,6601746,N,Y,45.0829802,-93.3500123
MLS Listing,,Single Family Residential,3459 Alabama Ave S,Saint Louis Park,MN,55416,299900,3,1.0,Saint Louis Park,1110,5227,1888,6,270,,Active,,,https://www.redfin.com/MN/Minneapolis/3459-Alabama-Ave-S-55416/home/51386048,NORTHSTARMLS as Distributed by MLS Grid,6598571,N,Y,44.9406638,-93.3557065
MLS Listing,,Multi-Family (2-4 Unit),4222 Nokomis Ave,Minneapolis,MN,55406,475000,4,2.0,Ericsson,1784,10018,1910,6,266,,Active,,,https://www.redfin.com/MN/Minneapolis/4222-Nokomis-Ave-55406/home/51355863,NORTHSTARMLS as Distributed by MLS Grid,6598784,N,Y,44.926141,-93.2285757
MLS Listing,,Single Family Residential,5209 Abbott Ave S,Minneapolis,MN,55410,1350000,4,4.0,Fulton,3200,5227,1925,6,422,,Active,,,https://www.redfin.com/MN/Minneapolis/5209-Abbott-Ave-S-55410/home/51391603,NORTHSTARMLS as Distributed by MLS Grid,6587559,N,Y,44.908525,-93.3222909
MLS Listing,,Single Family Residential,1301 21st Ave N,Minneapolis,MN,55411,259900,4,2.0,Jordan,1313,3049,1900,6,198,,Active,,,https://www.redfin.com/MN/Minneapolis/1301-21st-Ave-N-55411/home/51384139,NORTHSTARMLS as Distributed by MLS Grid,6599783,N,Y,45.0001214,-93.2974083
MLS Listing,,Multi-Family (2-4 Unit),2418 Fillmore St NE,Minneapolis,MN,55418,385000,5,2.0,Windom Park,2200,,1901,6,175,,Active,,,https://www.redfin.com/MN/Minneapolis/2418-Fillmore-St-NE-55418/home/50198819,NORTHSTARMLS as Distributed by MLS Grid,6601551,N,Y,45.0128148,-93.2425412
MLS Listing,,Condo/Co-op,1240 S 2nd St #524,Minneapolis,MN,55415,660000,2,2.0,Downtown East,1524,185914,2018,6,433,903,Active,,,https://www.redfin.com/MN/Minneapolis/1240-S-2nd-St-55415/unit-524/home/163363534,NORTHSTARMLS as Distributed by MLS Grid,6601173,N,Y,44.9762649,-93.249816
MLS Listing,,Multi-Family (2-4 Unit),1954 Hayes St NE,Minneapolis,MN,55418,350000,5,2.0,Windom Park,3100,5227,1900,6,113,,Active,,,https://www.redfin.com/MN/Minneapolis/1954-Hayes-St-NE-55418/home/102365123,NORTHSTARMLS as Distributed by MLS Grid,6596133,N,Y,45.0094564,-93.2348282
MLS Listing,,Townhouse,5920 Oxford St #12,Saint Louis Park,MN,55416,379900,2,3.0,Saint Louis Park,1580,,2006,6,240,385,Active,,,https://www.redfin.com/MN/Minneapolis/5920-Oxford-St-55416/unit-12/home/51266986,NORTHSTARMLS as Distributed by MLS Grid,6601446,N,Y,44.9359152,-93.3555539
MLS Listing,,Single Family Residential,7221 Russell Ave S,Richfield,MN,55423,400000,3,3.0,Richfield,1926,10018,1951,6,208,,Active,,,https://www.redfin.com/MN/Minneapolis/7221-Russell-Ave-S-55423/home/51498681,NORTHSTARMLS as Distributed by MLS Grid,6601393,N,Y,44.8719161,-93.3108641
MLS Listing,,Townhouse,2302 19th Ave NE,Minneapolis,MN,55418,309900,2,2.0,Windom Park,1670,156206,1999,6,186,595,Active,,,https://www.redfin.com/MN/Minneapolis/2302-19th-Ave-NE-55418/home/51530739,NORTHSTARMLS as Distributed by MLS Grid,6600083,N,Y,45.007437,-93.227841
MLS Listing,,Single Family Residential,7401 Humboldt Ave S,Richfield,MN,55423,375000,3,2.0,Richfield,2161,13503,1950,6,174,,Active,,,https://www.redfin.com/MN/Minneapolis/7401-Humboldt-Ave-S-55423/home/49885199,NORTHSTARMLS as Distributed by MLS Grid,6601570,N,Y,44.8689075,-93.2980994
MLS Listing,,Multi-Family (2-4 Unit),3208 19th Ave S,Minneapolis,MN,55407,260000,4,2.0,Corcoran,1608,,1900,6,162,,Active,,,https://www.redfin.com/MN/Minneapolis/3208-19th-Ave-S-55407/home/51274910,NORTHSTARMLS as Distributed by MLS Grid,6600396,N,Y,44.94428,-93.245105
MLS Listing,,Single Family Residential,3124 Flag Ave N,New Hope,MN,55427,374900,3,2.0,New Hope,1650,10890,1972,6,227,,Pre On-Market,,,https://www.redfin.com/MN/Minneapolis/3124-Flag-Ave-N-55427/home/51415783,NORTHSTARMLS as Distributed by MLS Grid,6601007,N,Y,45.0134056,-93.3953799
MLS Listing,,Single Family Residential,6944 5th Ave S,Richfield,MN,55423,349000,4,2.0,Richfield,1788,9365,1946,6,195,,Active,,,https://www.redfin.com/MN/Minneapolis/6944-5th-Ave-S-55423/home/50282137,NORTHSTARMLS as Distributed by MLS Grid,6600751,N,Y,44.8765123,-93.2695465
MLS Listing,,Single Family Residential,7900 29th Ave N,New Hope,MN,55427,383900,4,3.0,New Hope,2845,10454,1963,6,135,,Active,,,https://www.redfin.com/MN/Minneapolis/7900-29th-Ave-N-55427/home/51416680,NORTHSTARMLS as Distributed by MLS Grid,6601023,N,Y,45.0107963,-93.3806331
MLS Listing,,Condo/Co-op,748 N 3rd St #507,Minneapolis,MN,55401,274900,1,1.0,North Loop,727,,1915,6,378,643,Active,,,https://www.redfin.com/MN/Minneapolis/748-3rd-St-N-55401/unit-507/home/51271270,NORTHSTARMLS as Distributed by MLS Grid,6601398,N,Y,44.9879708,-93.2790507
MLS Listing,,Single Family Residential,2305 Chalet Dr NE,Columbia Heights,MN,55421,435000,3,3.0,Columbia Heights,2622,11325,1969,6,166,,Pre On-Market,September-20-2024 04:00 PM,September-20-2024 06:00 PM,https://www.redfin.com/MN/Minneapolis/2305-Chalet-Dr-NE-55421/home/50056618,NORTHSTARMLS as Distributed by MLS Grid,6598484,N,Y,45.0605317,-93.2282112
MLS Listing,,Single Family Residential,5009 Upton Ave S,Minneapolis,MN,55410,379900,3,1.0,Fulton,1150,5227,1919,6,330,,Active,,,https://www.redfin.com/MN/Minneapolis/5009-Upton-Ave-S-55410/home/51391508,NORTHSTARMLS as Distributed by MLS Grid,6601374,N,Y,44.9120704,-93.3147468
MLS Listing,,Single Family Residential,2004 E 42nd St,Minneapolis,MN,55407,339000,4,2.0,Standish,1551,3920,1941,6,219,,Active,,,https://www.redfin.com/MN/Minneapolis/2004-E-42nd-St-55407/home/51355009,NORTHSTARMLS as Distributed by MLS Grid,6599091,N,Y,44.9271317,-93.2432978
MLS Listing,,Single Family Residential,5232 Kings Cir N,Brooklyn Park,MN,55443,499000,5,4.0,Brooklyn Park,2600,10018,1997,6,192,,Active,,,https://www.redfin.com/MN/Minneapolis/5232-Kings-Cir-N-55443/home/49958595,NORTHSTARMLS as Distributed by MLS Grid,6600796,N,Y,45.1131638,-93.3492202
MLS Listing,,Single Family Residential,1220 22nd Ave N,Minneapolis,MN,55411,239900,4,2.0,Jordan,2160,4791,1906,6,111,,Active,,,https://www.redfin.com/MN/Minneapolis/1220-22nd-Ave-N-55411/home/49979206,NORTHSTARMLS as Distributed by MLS Grid,6601327,N,Y,45.0016996,-93.2967593
MLS Listing,,Single Family Residential,2933 34th Ave S,Minneapolis,MN,55406,324900,2,1.0,Longfellow,1098,5227,1922,6,296,,Active,,,https://www.redfin.com/MN/Minneapolis/2933-34th-Ave-S-55406/home/51490911,NORTHSTARMLS as Distributed by MLS Grid,6599804,N,Y,44.9491548,-93.2226374
MLS Listing,,Single Family Residential,6432 Florida Ave N,Brooklyn Park,MN,55428,275000,3,2.0,Brooklyn Park,1715,13939,1968,6,160,,Active,,,https://www.redfin.com/MN/Minneapolis/6432-Florida-Ave-N-55428/home/51506243,NORTHSTARMLS as Distributed by MLS Grid,6597909,N,Y,45.0723664,-93.3628392
MLS Listing,,Single Family Residential,1903 Girard Ave S,Minneapolis,MN,55403,1995000,6,7.0,Lowry Hill,10155,13939,1911,7,196,,Active,,,https://www.redfin.com/MN/Minneapolis/1903-Girard-Ave-S-55403/home/50064549,NORTHSTARMLS as Distributed by MLS Grid,6574685,N,Y,44.963959,-93.2965775
MLS Listing,,Multi-Family (2-4 Unit),2639 13th Ave S,Minneapolis,MN,55407,450000,6,3.0,Midtown Phillips,2986,5662,1900,7,151,,Active,,,https://www.redfin.com/MN/Minneapolis/2639-13th-Ave-S-55407/home/51522430,NORTHSTARMLS as Distributed by MLS Grid,6599205,N,Y,44.9541991,-93.2559834
MLS Listing,,Single Family Residential,4136 Beard Ave N,Robbinsdale,MN,55422,300000,4,1.0,Robbinsdale,1660,6534,1941,7,181,,Active,,,https://www.redfin.com/MN/Minneapolis/4136-Beard-Ave-N-55422/home/51299923,NORTHSTARMLS as Distributed by MLS Grid,6584751,N,Y,45.0306764,-93.3235075
MLS Listing,,Single Family Residential,3700 Overlook Dr,Bloomington,MN,55431,675000,6,3.0,Bloomington,3821,15246,1965,7,177,,Active,September-21-2024 11:00 AM,September-21-2024 01:00 PM,https://www.redfin.com/MN/Minneapolis/3700-Overlook-Dr-55431/home/49925941,NORTHSTARMLS as Distributed by MLS Grid,6596583,N,Y,44.7977464,-93.3272424
MLS Listing,,Townhouse,2403 Unity Ave N,Golden Valley,MN,55422,230000,2,3.0,Golden Valley,1126,1306,1973,7,204,500,Active,,,https://www.redfin.com/MN/Minneapolis/2403-Unity-Ave-N-55422/home/50118775,NORTHSTARMLS as Distributed by MLS Grid,6597312,N,Y,45.003897,-93.347753
MLS Listing,,Condo/Co-op,680 N 2nd St #112,Minneapolis,MN,55401,449900,2,3.0,North Loop,1402,,1998,7,321,852,Active,,,https://www.redfin.com/MN/Minneapolis/680-N-2nd-St-55401/unit-112/home/50025228,NORTHSTARMLS as Distributed by MLS Grid,6596418,N,Y,44.9887035,-93.2754624
MLS Listing,,Single Family Residential,3127 33rd Ave S,Minneapolis,MN,55406,494000,3,2.0,Longfellow,1578,6534,1912,7,313,,Active,,,https://www.redfin.com/MN/Minneapolis/3127-33rd-Ave-S-55406/home/51306406,NORTHSTARMLS as Distributed by MLS Grid,6593589,N,Y,44.9458815,-93.2241041
MLS Listing,,Townhouse,4232 93rd Ave N,Brooklyn Park,MN,55443,355900,3,3.0,Brooklyn Park,1899,2614,1997,7,187,350,Active,,,https://www.redfin.com/MN/Minneapolis/4232-93rd-Ave-N-55443/home/50012423,NORTHSTARMLS as Distributed by MLS Grid,6587643,N,Y,45.1213323,-93.3346243
MLS Listing,,Single Family Residential,2500 Garfield St NE,Minneapolis,MN,55418,425000,3,2.0,Audubon Park,1352,3049,1925,7,314,,Active,,,https://www.redfin.com/MN/Minneapolis/2500-Garfield-St-NE-55418/home/51356553,NORTHSTARMLS as Distributed by MLS Grid,6598261,N,Y,45.0133073,-93.2333853
MLS Listing,,Multi-Family (2-4 Unit),2214 10th Ave S,Minneapolis,MN,55404,179900,5,2.0,Ventura Village,1824,3484,1900,7,99,,Active,,,https://www.redfin.com/MN/Minneapolis/2214-10th-Ave-S-55404/home/51521992,NORTHSTARMLS as Distributed by MLS Grid,6596820,N,Y,44.9603256,-93.2599704
MLS Listing,,Single Family Residential,5012 Wentworth Ave,Minneapolis,MN,55419,875000,5,3.0,Tangletown,3074,5662,1926,7,285,,Active,,,https://www.redfin.com/MN/Minneapolis/5012-Wentworth-Ave-55419/home/51376819,NORTHSTARMLS as Distributed by MLS Grid,6599763,N,Y,44.9121544,-93.2826346
MLS Listing,,Single Family Residential,926 W 61st St,Minneapolis,MN,55419,385000,4,2.0,Windom,1752,7405,1961,7,220,,Active,,,https://www.redfin.com/MN/Minneapolis/926-W-61st-St-55419/home/50173803,NORTHSTARMLS as Distributed by MLS Grid,6599238,N,Y,44.8926316,-93.2920208
MLS Listing,,Multi-Family (2-4 Unit),1121 Kenwood Pkwy,Minneapolis,MN,55403,750000,6,4.0,Lowry Hill,2510,9583,1927,7,299,,Active,,,https://www.redfin.com/MN/Minneapolis/1121-Kenwood-Pkwy-55403/home/50201922,NORTHSTARMLS as Distributed by MLS Grid,6595561,N,Y,44.9687415,-93.3029123
MLS Listing,,Single Family Residential,4308 Boone Ave N,New Hope,MN,55428,315000,3,2.0,New Hope,1736,10454,1965,7,181,,Active,,,https://www.redfin.com/MN/Minneapolis/4308-Boone-Ave-N-55428/home/51406254,NORTHSTARMLS as Distributed by MLS Grid,6590586,N,Y,45.0350857,-93.3900127
MLS Listing,,Single Family Residential,4000 Sunset Blvd,Saint Louis Park,MN,55416,1199000,4,3.0,Saint Louis Park,3118,10454,1938,7,385,,Active,,,https://www.redfin.com/MN/Minneapolis/4000-Sunset-Blvd-55416/home/51492442,NORTHSTARMLS as Distributed by MLS Grid,6599764,N,Y,44.9500824,-93.3303952
MLS Listing,,Single Family Residential,1536 E River Ter,Minneapolis,MN,55414,500000,3,3.0,Prospect Park - East River Road,1620,7405,1940,7,309,,Active,,,https://www.redfin.com/MN/Minneapolis/1536-E-River-Ter-55414/home/51483669,NORTHSTARMLS as Distributed by MLS Grid,6598642,N,Y,44.9631657,-93.2165585
MLS Listing,,Single Family Residential,9609 Washburn Ave S,Bloomington,MN,55431,539900,4,4.0,Bloomington,2797,13503,1969,7,193,,Active,,,https://www.redfin.com/MN/Minneapolis/9609-Washburn-Ave-S-55431/home/51389230,NORTHSTARMLS as Distributed by MLS Grid,6599920,N,Y,44.8308394,-93.3154717
MLS Listing,,Single Family Residential,4209 Nokomis Ave,Minneapolis,MN,55406,299900,3,1.0,Ericsson,1148,5040,1907,7,261,,Active,September-20-2024 11:00 AM,September-20-2024 01:00 PM,https://www.redfin.com/MN/Minneapolis/4209-Nokomis-Ave-55406/home/51355848,NORTHSTARMLS as Distributed by MLS Grid,6594530,N,Y,44.9265418,-93.2280609
MLS Listing,,Single Family Residential,4107 Overlook Cir,Bloomington,MN,55437,375000,2,2.0,Bloomington,1822,19602,1942,7,206,,Active,,,https://www.redfin.com/MN/Minneapolis/4107-Overlook-Cir-55437/home/51482675,NORTHSTARMLS as Distributed by MLS Grid,6581569,N,Y,44.795759,-93.3320746
MLS Listing,,Single Family Residential,3815 Lyndale Ave N,Minneapolis,MN,55412,295000,5,2.0,Webber - Camden,2496,4791,2002,7,118,,Active,,,https://www.redfin.com/MN/Minneapolis/3815-Lyndale-Ave-N-55412/home/49904416,NORTHSTARMLS as Distributed by MLS Grid,6600026,N,Y,45.0244107,-93.2884151
MLS Listing,,Single Family Residential,3959 Queen Ave N,Minneapolis,MN,55412,274999,4,2.0,Victory,1760,4356,1951,7,156,,Active,,,https://www.redfin.com/MN/Minneapolis/3959-Queen-Ave-N-55412/home/51300001,NORTHSTARMLS as Distributed by MLS Grid,6599400,N,Y,45.0275755,-93.3099682
MLS Listing,,Multi-Family (2-4 Unit),2755 Grand St NE,Minneapolis,MN,55418,299900,3,2.0,Marshall Terrace,2067,4791,1915,7,145,,Active,,,https://www.redfin.com/MN/Minneapolis/2755-Grand-St-NE-55418/home/51341974,NORTHSTARMLS as Distributed by MLS Grid,6592215,N,Y,45.0183788,-93.2698574
MLS Listing,,Single Family Residential,2512 27th Ave NE,Saint Anthony,MN,55418,349000,2,2.0,Saint Anthony,1791,11325,1953,7,195,,Active,,,https://www.redfin.com/MN/Minneapolis/2512-27th-Ave-NE-55418/home/51318847,NORTHSTARMLS as Distributed by MLS Grid,6600312,N,Y,45.016658,-93.2240455
MLS Listing,,Other,4111 3rd St NE #104,Columbia Heights,MN,55421,189880,2,1.0,Columbia Heights,1040,1001,1986,7,183,454,Pre On-Market,,,https://www.redfin.com/MN/Columbia-Heights/4111-3rd-St-NE-55421/unit-104/home/190438670,NORTHSTARMLS as Distributed by MLS Grid,6588247,N,Y,45.0430519,-93.2639119
MLS Listing,,Single Family Residential,1720 3rd Ave N,Minneapolis,MN,55405,275000,3,2.0,Harrison,1568,8276,1900,7,175,,Active,,,https://www.redfin.com/MN/Minneapolis/1720-3rd-Ave-N-55405/home/51429450,NORTHSTARMLS as Distributed by MLS Grid,6600868,N,Y,44.9800659,-93.3028795
MLS Listing,,Single Family Residential,1718 3rd Ave N,Minneapolis,MN,55405,280000,3,1.0,Harrison,1440,5662,1970,7,194,,Active,,,https://www.redfin.com/MN/Minneapolis/1718-3rd-Ave-N-55405/home/51429547,NORTHSTARMLS as Distributed by MLS Grid,6600832,N,Y,44.9800662,-93.3027232
MLS Listing,,Single Family Residential,6224 Brooklyn Dr,Brooklyn Center,MN,55430,340000,3,2.0,Brooklyn Center,1892,13939,1957,7,180,,Active,,,https://www.redfin.com/MN/Minneapolis/6224-Brooklyn-Dr-55430/home/51525073,NORTHSTARMLS as Distributed by MLS Grid,6599413,N,Y,45.0667684,-93.3168993
MLS Listing,,Single Family Residential,4650 W Broadway Ave,Robbinsdale,MN,55422,375000,4,2.0,Robbinsdale,1876,8276,1927,7,200,,Active,,,https://www.redfin.com/MN/Minneapolis/4650-W-Broadway-Ave-55422/home/51338266,NORTHSTARMLS as Distributed by MLS Grid,6600997,N,Y,45.0395291,-93.347688
MLS Listing,,Single Family Residential,7464 Colfax Ave N,Brooklyn Park,MN,55444,378000,4,2.0,Brooklyn Park,2071,10890,1984,7,183,,Active,September-21-2024 11:00 AM,September-21-2024 01:00 PM,https://www.redfin.com/MN/Minneapolis/7464-Colfax-Ave-N-55444/home/49964783,NORTHSTARMLS as Distributed by MLS Grid,6601224,N,Y,45.0912607,-93.2944984
MLS Listing,,Single Family Residential,1242 Angelo Dr,Golden Valley,MN,55422,2750000,3,4.0,Golden Valley,4645,44866,2010,7,592,,Active,,,https://www.redfin.com/MN/Minneapolis/1242-Angelo-Dr-55422/home/50086211,NORTHSTARMLS as Distributed by MLS Grid,6600640,N,Y,44.9915624,-93.3434297
MLS Listing,,Condo/Co-op,3232 Fremont Ave N #309,Minneapolis,MN,55412,75000,2,1.0,Folwell,1044,,1985,7,72,531,Active,,,https://www.redfin.com/MN/Minneapolis/3232-Fremont-Ave-N-55412/unit-309/home/51334274,NORTHSTARMLS as Distributed by MLS Grid,6601130,N,Y,45.0143645,-93.2949371
MLS Listing,,Single Family Residential,434 Madison St NE,Minneapolis,MN,55413,180000,3,1.0,St. Anthony East,1142,2613,1900,7,158,,Pre On-Market,September-19-2024 06:00 PM,September-19-2024 07:30 PM,https://www.redfin.com/MN/Minneapolis/434-Madison-St-NE-55413/home/51370945,NORTHSTARMLS as Distributed by MLS Grid,6564698,N,Y,44.9943158,-93.2539597
MLS Listing,,Single Family Residential,10780 Regent Ave N,Brooklyn Park,MN,55443,675000,4,3.0,Brooklyn Park,3689,13068,2005,7,183,11,Active,,,https://www.redfin.com/MN/Minneapolis/10780-Regent-Ave-N-55443/home/51255992,NORTHSTARMLS as Distributed by MLS Grid,6600613,N,Y,45.1501219,-93.3446688
MLS Listing,,Condo/Co-op,2739 Girard Ave S #105,Minneapolis,MN,55408,110000,1,1.0,Lowry Hill East,612,10280,1923,7,180,290,Active,,,https://www.redfin.com/MN/Minneapolis/2739-Girard-Ave-S-55408/unit-105/home/51510475,NORTHSTARMLS as Distributed by MLS Grid,6601011,N,Y,44.9525357,-93.2966501
MLS Listing,,Condo/Co-op,618 Washington Ave N #602,Minneapolis,MN,55401,399900,1,1.0,North Loop,751,20647,1916,7,532,625,Active,,,https://www.redfin.com/MN/Minneapolis/618-Washington-Ave-N-55401/unit-602/home/49917161,NORTHSTARMLS as Distributed by MLS Grid,6600773,N,Y,44.9876142,-93.2762042
MLS Listing,,Single Family Residential,33 W 36th St,Minneapolis,MN,55408,435000,5,3.0,King Field,1768,3920,1905,7,246,,Pre On-Market,,,https://www.redfin.com/MN/Minneapolis/33-W-36th-St-55408/home/50111053,NORTHSTARMLS as Distributed by MLS Grid,6599827,N,Y,44.9375245,-93.2795516
MLS Listing,,Single Family Residential,4537 Cedar Ave S,Minneapolis,MN,55407,109000,1,1.0,Ericsson,480,4791,1925,7,227,,Active,,,https://www.redfin.com/MN/Minneapolis/4537-Cedar-Ave-S-55407/home/51355650,NORTHSTARMLS as Distributed by MLS Grid,6601010,N,Y,44.920402,-93.246918
MLS Listing,,Single Family Residential,3218 Hayes St NE,Minneapolis,MN,55418,390000,4,2.0,Waite Park,1956,5227,1952,7,199,,Active,,,https://www.redfin.com/MN/Minneapolis/3218-Hayes-St-NE-55418/home/51277505,NORTHSTARMLS as Distributed by MLS Grid,6599908,N,Y,45.026451,-93.2348964
MLS Listing,,Single Family Residential,5110 Alfred Rd,Golden Valley,MN,55422,1295000,4,4.0,Golden Valley,5774,17424,1978,7,224,,Active,,,https://www.redfin.com/MN/Minneapolis/5110-Alfred-Rd-55422/home/51403021,NORTHSTARMLS as Distributed by MLS Grid,6589804,N,Y,44.9918368,-93.3447421
MLS Listing,,Condo/Co-op,4618 Cedar Lake Rd S #6,Saint Louis Park,MN,55416,219900,2,2.0,Saint Louis Park,1008,688335,1973,7,218,449,Active,,,https://www.redfin.com/MN/Minneapolis/4618-Cedar-Lake-Rd-S-55416/unit-6/home/51485054,NORTHSTARMLS as Distributed by MLS Grid,6600904,N,Y,44.965462,-93.336962
MLS Listing,,Single Family Residential,2608 W 45th St,Minneapolis,MN,55410,575000,3,1.0,Linden Hills,1248,4356,1904,7,461,,Active,,,https://www.redfin.com/MN/Minneapolis/2608-W-45th-St-55410/home/51326031,NORTHSTARMLS as Distributed by MLS Grid,6598539,N,Y,44.9217515,-93.3132218
MLS Listing,,Single Family Residential,8614 2nd Ave S,Bloomington,MN,55420,383000,4,3.0,Bloomington,2076,16988,1960,7,184,,Active,September-18-2024 08:00 AM,September-18-2024 07:00 PM,https://www.redfin.com/MN/Minneapolis/8614-2nd-Ave-S-55420/home/51339297,NORTHSTARMLS as Distributed by MLS Grid,6600847,N,Y,44.8473312,-93.2749524
MLS Listing,,Condo/Co-op,500 E Grant St #2506,Minneapolis,MN,55404,275000,1,1.0,Elliot Park,1009,,2004,7,273,822,Active,,,https://www.redfin.com/MN/Minneapolis/500-E-Grant-St-55404/unit-2506/home/51254964,NORTHSTARMLS as Distributed by MLS Grid,6598673,N,Y,44.970184,-93.268217
MLS Listing,,Condo/Co-op,215 10th Ave S #224,Minneapolis,MN,55415,760000,2,2.0,Downtown East,2085,,2006,7,365,1433,Active,,,https://www.redfin.com/MN/Minneapolis/215-10th-Ave-S-55415/unit-224/home/49944208,NORTHSTARMLS as Distributed by MLS Grid,6574355,N,Y,44.9764618,-93.2531512
MLS Listing,,Other,7466 72nd Ln N,Brooklyn Park,MN,55428,99900,2,1.0,Brooklyn Park,900,,1974,7,111,540,Active,,,https://www.redfin.com/MN/Minneapolis/7466-72nd-Ln-N-55428/home/50154843,NORTHSTARMLS as Distributed by MLS Grid,6586414,N,Y,45.08557,-93.37407
MLS Listing,,Single Family Residential,4335 4th Ave S,Minneapolis,MN,55409,379000,5,2.0,Regina,2180,5227,1953,7,174,,Active,,,https://www.redfin.com/MN/Minneapolis/4335-4th-Ave-S-55409/home/51341533,NORTHSTARMLS as Distributed by MLS Grid,6600735,N,Y,44.9240188,-93.269944
MLS Listing,,Single Family Residential,2565 Zane Ave N,Golden Valley,MN,55422,475000,3,3.0,Golden Valley,2287,15246,1963,7,208,,Active,,,https://www.redfin.com/MN/Minneapolis/2565-Zane-Ave-N-55422/home/51472301,NORTHSTARMLS as Distributed by MLS Grid,6596156,N,Y,45.0070551,-93.3553539
MLS Listing,,Condo/Co-op,121 Washington Ave S #1714,Minneapolis,MN,55401,299900,2,1.0,Downtown West,1209,,1981,7,248,700,Active,,,https://www.redfin.com/MN/Minneapolis/121-Washington-Ave-S-55401/unit-1714/home/49903665,NORTHSTARMLS as Distributed by MLS Grid,6600705,N,Y,44.9802548,-93.2663515
MLS Listing,,Vacant Land,4634 Nicollet Ave,Minneapolis,MN,55419,499000,,,Tangletown,,5662,,7,,,Active,,,https://www.redfin.com/MN/Minneapolis/4634-Nicollet-Ave-55419/home/51376571,NORTHSTARMLS as Distributed by MLS Grid,6600535,N,Y,44.9183442,-93.2782565
MLS Listing,,Townhouse,2207 2nd Ave N,Minneapolis,MN,55405,270000,3,2.0,Harrison,1560,,1982,7,173,150,Active,,,https://www.redfin.com/MN/Minneapolis/2207-2nd-Ave-N-55405/home/51421783,NORTHSTARMLS as Distributed by MLS Grid,6594770,N,Y,44.9787394,-93.3087867
MLS Listing,,Single Family Residential,4365 43rd Ave N,Robbinsdale,MN,55422,320000,4,2.0,Robbinsdale,1430,6098,1939,7,224,,Active,,,https://www.redfin.com/MN/Minneapolis/4365-43rd-Ave-N-55422/home/49890196,NORTHSTARMLS as Distributed by MLS Grid,6600223,N,Y,45.032523,-93.3347234
MLS Listing,,Single Family Residential,454 Buchanan St NE,Minneapolis,MN,55413,430000,4,2.0,Beltrami,1947,5227,1920,7,221,,Active,,,https://www.redfin.com/MN/Minneapolis/454-Buchanan-St-NE-55413/home/51363541,NORTHSTARMLS as Distributed by MLS Grid,6600674,N,Y,44.9948394,-93.240004
MLS Listing,,Condo/Co-op,6600 Lyndale Ave S #706,Richfield,MN,55423,425000,2,2.0,Richfield,1700,,2004,7,250,1145,Active,,,https://www.redfin.com/MN/Minneapolis/6600-Lyndale-Ave-S-55423/unit-706/home/51263128,NORTHSTARMLS as Distributed by MLS Grid,6583392,N,Y,44.8830812,-93.2870431
MLS Listing,,Single Family Residential,5120 Queen Ave S,Minneapolis,MN,55410,749900,4,3.0,Fulton,3094,5227,1927,8,242,,Active,,,https://www.redfin.com/MN/Minneapolis/5120-Queen-Ave-S-55410/home/51391462,NORTHSTARMLS as Distributed by MLS Grid,6597770,N,Y,44.9098766,-93.3102634
MLS Listing,,Single Family Residential,6817 Dutton Ave N,Brooklyn Park,MN,55428,269000,3,1.0,Brooklyn Park,1092,13503,1956,8,246,,Active,,,https://www.redfin.com/MN/Minneapolis/6817-Dutton-Ave-55428/home/50153808,NORTHSTARMLS as Distributed by MLS Grid,6599262,N,Y,45.0736395,-93.3680079
MLS Listing,,Multi-Family (2-4 Unit),2937 & 2939 France Ave N,Robbinsdale,MN,55422,409900,6,2.0,Robbinsdale,2744,8712,1970,8,149,,Active,,,https://www.redfin.com/MN/Minneapolis/2937-France-Ave-N-55422/home/50142811,NORTHSTARMLS as Distributed by MLS Grid,6598431,N,Y,45.0110825,-93.3289105
MLS Listing,,Single Family Residential,5340 Columbus Ave,Minneapolis,MN,55417,425000,3,1.0,Page,1236,4791,1929,8,344,,Active,,,https://www.redfin.com/MN/Minneapolis/5340-Columbus-Ave-55417/home/51369309,NORTHSTARMLS as Distributed by MLS Grid,6590527,N,Y,44.9058427,-93.2642375
MLS Listing,,Condo/Co-op,1829 3rd Ave S #209,Minneapolis,MN,55404,285000,2,2.0,Steven's Square - Loring Heights,1292,25569,2003,8,221,478,Active,September-21-2024 11:00 AM,September-21-2024 01:00 PM,https://www.redfin.com/MN/Minneapolis/1829-3rd-Ave-S-55404/unit-209/home/51263453,NORTHSTARMLS as Distributed by MLS Grid,6600543,N,Y,44.964292,-93.2724452
MLS Listing,,Single Family Residential,4509 Xerxes Ave S,Minneapolis,MN,55410,390000,3,2.0,Linden Hills,1701,5662,1909,8,229,,Active,,,https://www.redfin.com/MN/Minneapolis/4509-Xerxes-Ave-S-55410/home/51326276,NORTHSTARMLS as Distributed by MLS Grid,6599393,N,Y,44.9211457,-93.3186093
MLS Listing,,Single Family Residential,4200 Janet Ln,Brooklyn Center,MN,55429,290000,3,1.0,Brooklyn Center,2160,,1956,8,134,,Active,September-22-2024 02:00 PM,September-22-2024 04:00 PM,https://www.redfin.com/MN/Minneapolis/4200-Janet-Ln-55429/home/51519591,NORTHSTARMLS as Distributed by MLS Grid,6600459,N,Y,45.0667632,-93.333421
MLS Listing,,Single Family Residential,5250 Knox Ave N,Minneapolis,MN,55430,274900,3,1.0,Shingle Creek,1508,3920,1951,8,182,,Active,,,https://www.redfin.com/MN/Minneapolis/5250-Knox-Ave-N-55430/home/51350756,NORTHSTARMLS as Distributed by MLS Grid,6599976,N,Y,45.0509124,-93.3026501
MLS Listing,,Condo/Co-op,4172 Adair Ave N #2,Robbinsdale,MN,55422,50000,1,1.0,Robbinsdale,691,12458,1959,8,72,432,Active,,,https://www.redfin.com/MN/Minneapolis/4172-Adair-Ave-N-55422/unit-2/home/113775246,NORTHSTARMLS as Distributed by MLS Grid,6600407,N,Y,45.0317026,-93.3559087
MLS Listing,,Single Family Residential,7728 W 85th St,Bloomington,MN,55438,620000,4,3.0,Bloomington,3208,13939,1981,8,193,,Active,,,https://www.redfin.com/MN/Minneapolis/7728-W-85th-St-55438/home/51403847,NORTHSTARMLS as Distributed by MLS Grid,6597390,N,Y,44.8498927,-93.3852779
MLS Listing,,Condo/Co-op,901 S 2nd St #509,Minneapolis,MN,55415,399900,1,1.0,Downtown East,906,34325,2008,8,441,653,Active,,,https://www.redfin.com/MN/Minneapolis/901-S-2nd-St-55415/unit-509/home/49996369,NORTHSTARMLS as Distributed by MLS Grid,6587321,N,Y,44.9771587,-93.2549857
MLS Listing,,Single Family Residential,4316 Estate Dr,Brooklyn Park,MN,55443,329000,3,3.0,Brooklyn Park,2242,12196,1962,8,147,,Active,September-21-2024 11:00 AM,September-21-2024 02:00 PM,https://www.redfin.com/MN/Minneapolis/4316-Estate-Dr-55443/home/50152958,NORTHSTARMLS as Distributed by MLS Grid,6600245,N,Y,45.0955094,-93.3373025
MLS Listing,,Townhouse,2828 Aldrich Ave S #7,Minneapolis,MN,55408,279900,1,2.0,Lowry Hill East,1248,,2006,8,224,613,Active,,,https://www.redfin.com/MN/Minneapolis/2828-Aldrich-Ave-S-55408/unit-7/home/62555689,NORTHSTARMLS as Distributed by MLS Grid,6599872,N,Y,44.9509315,-93.2897249
MLS Listing,,Condo/Co-op,460 Ford Rd #203,Saint Louis Park,MN,55426,269000,1,2.0,Saint Louis Park,1159,,2005,8,232,409,Active,,,https://www.redfin.com/MN/Minneapolis/460-Ford-Rd-55426/unit-203/home/49917835,NORTHSTARMLS as Distributed by MLS Grid,6600265,N,Y,44.975495,-93.4066542
MLS Listing,,Multi-Family (2-4 Unit),3200 Bloomington Ave,Minneapolis,MN,55407,699000,13,4.0,Powderhorn Park,5280,4791,1912,8,132,,Active,,,https://www.redfin.com/MN/Minneapolis/3200-Bloomington-Ave-55407/home/50201913,NORTHSTARMLS as Distributed by MLS Grid,6596769,N,Y,44.9445766,-93.2527933
MLS Listing,,Townhouse,433 River St,Minneapolis,MN,55401,1250000,3,4.0,North Loop,3240,4356,1997,8,386,580,Active,,,https://www.redfin.com/MN/Minneapolis/433-River-St-55401/home/49917162,NORTHSTARMLS as Distributed by MLS Grid,6566993,N,Y,44.9886051,-93.2710962
MLS Listing,,Condo/Co-op,2895 James Ave S #2,Minneapolis,MN,55408,260000,2,1.0,East Isles,1004,5793,1915,8,259,350,Active,,,https://www.redfin.com/MN/Minneapolis/2895-James-Ave-S-55408/unit-2/home/51264263,NORTHSTARMLS as Distributed by MLS Grid,6598907,N,Y,44.949416,-93.303031
MLS Listing,,Multi-Family (2-4 Unit),3405 Aldrich Ave S,Minneapolis,MN,55408,600000,8,4.0,South Uptown,4524,5662,1921,8,133,,Active,,,https://www.redfin.com/MN/Minneapolis/3405-Aldrich-Ave-S-55408/home/192200087,NORTHSTARMLS as Distributed by MLS Grid,6582190,N,Y,44.9410199,-93.2891549
MLS Listing,,Single Family Residential,5239 Twin Lake Blvd E,Brooklyn Center,MN,55429,569000,4,3.0,Brooklyn Center,2648,18730,1947,8,215,,Active,,,https://www.redfin.com/MN/Minneapolis/5239-Twin-Lake-Blvd-E-55429/home/51343834,NORTHSTARMLS as Distributed by MLS Grid,6598639,N,Y,45.050822,-93.3329323
MLS Listing,,Townhouse,8454 Toledo Ave N,Brooklyn Park,MN,55443,235000,3,2.0,Brooklyn Park,1295,2178,1980,8,181,240,Active,,,https://www.redfin.com/MN/Minneapolis/8454-Toledo-Ave-N-55443/home/50118344,NORTHSTARMLS as Distributed by MLS Grid,6600094,N,Y,45.1084869,-93.3502271
MLS Listing,,Multi-Family (2-4 Unit),1518 Madison St NE,Minneapolis,MN,55413,449000,5,3.0,Logan Park,2364,5227,1900,8,190,,Pre On-Market,,,https://www.redfin.com/MN/Minneapolis/1518-Madison-St-NE-55413/home/50201375,NORTHSTARMLS as Distributed by MLS Grid,6599970,N,Y,45.0037101,-93.2540509
MLS Listing,,Multi-Family (2-4 Unit),4441 Unity Ave N,Robbinsdale,MN,55422,457900,6,3.0,Robbinsdale,2578,11325,1962,8,178,,Active,,,https://www.redfin.com/MN/Minneapolis/4441-Unity-Ave-N-55422/home/50201850,NORTHSTARMLS as Distributed by MLS Grid,6599222,N,Y,45.0361666,-93.3485479
MLS Listing,,Condo/Co-op,2309 Grand Ave S #1,Minneapolis,MN,55405,130000,1,1.0,Whittier,646,609,1922,8,201,405,Active,,,https://www.redfin.com/MN/Minneapolis/2309-Grand-Ave-S-55405/unit-1/home/51516445,NORTHSTARMLS as Distributed by MLS Grid,6583736,N,Y,44.9596589,-93.2839307
MLS Listing,,Multi-Family (2-4 Unit),3428 Aldrich Ave S,Minneapolis,MN,55408,789000,8,4.0,South Uptown,4338,,1915,8,182,,Active,,,https://www.redfin.com/MN/Minneapolis/3428-Aldrich-Ave-S-55408/home/51292847,NORTHSTARMLS as Distributed by MLS Grid,6599570,N,Y,44.9403417,-93.2897725
MLS Listing,,Condo/Co-op,1400 Dakota Ave S #203,Saint Louis Park,MN,55416,122000,0,1.0,Saint Louis Park,595,,1983,8,205,347,Active,,,https://www.redfin.com/MN/Minneapolis/1400-Dakota-Ave-S-55416/unit-203/home/50169572,NORTHSTARMLS as Distributed by MLS Grid,6599974,N,Y,44.9684158,-93.3611137
MLS Listing,,Single Family Residential,8947 Wentworth Ave S,Bloomington,MN,55420,360000,4,2.0,Bloomington,2204,13503,1948,8,163,,Active,,,https://www.redfin.com/MN/Minneapolis/8947-Wentworth-Ave-S-55420/home/50170542,NORTHSTARMLS as Distributed by MLS Grid,6599250,N,Y,44.841318,-93.2806639
MLS Listing,,Multi-Family (2-4 Unit),1000 24th Ave NE,Minneapolis,MN,55418,599000,10,3.0,Windom Park,3965,,1901,8,151,,Active,,,https://www.redfin.com/MN/Minneapolis/1000-24th-Ave-NE-55418/home/50205555,NORTHSTARMLS as Distributed by MLS Grid,6599193,N,Y,45.0119625,-93.2453377
MLS Listing,,Other,11079 Oregon Cir #78,Bloomington,MN,55438,215000,2,2.0,Bloomington,1209,38550,1984,8,178,496,Active,,,https://www.redfin.com/MN/Minneapolis/11079-Oregon-Cir-55438/unit-78/home/51300754,NORTHSTARMLS as Distributed by MLS Grid,6597674,N,Y,44.8020812,-93.3765224
MLS Listing,,Single Family Residential,4742 Emerson Ave N,Minneapolis,MN,55430,215000,2,1.0,Lind - Bohanon,1165,5227,1926,9,185,,Active,,,https://www.redfin.com/MN/Minneapolis/4742-Emerson-Ave-N-55430/home/51360007,NORTHSTARMLS as Distributed by MLS Grid,6578177,N,Y,45.0415269,-93.2950337
