SALE TYPE,SOLD DATE,PROPERTY TYPE,ADDRESS,CITY,STATE OR PROVINCE,ZIP OR POSTAL CODE,PRICE,BEDS,BATHS,LOCATION,SQUARE FEET,LOT SIZE,YEAR BUILT,DAYS ON MARKET,$/SQUARE FEET,HOA/MONTH,STATUS,NEXT OPEN HOUSE START TIME,NEXT OPEN HOUSE END TIME,URL (SEE https://www.redfin.com/buy-a-home/comparative-market-analysis FOR INFO ON PRICING),SOURCE,MLS#,FAVORITE,INTERESTED,LATITUDE,LONGITUDE
MLS Listing,,Single Family Residential,1534 General Collins Ave,New Orleans,LA,70114,235000,4,2.5,New Orleans,2041,12501,1965,6,115,,Active,,,https://www.redfin.com/LA/New-Orleans/1534-General-Collins-Ave-70114/home/85476711,GSREIN,2467220,N,Y,29.9382309,-90.0141926
MLS Listing,,Single Family Residential,515 Homer St,New Orleans,LA,70114,406000,3,2.5,New Orleans,1682,4094,2019,26,241,,Active,,,https://www.redfin.com/LA/New-Orleans/515-Homer-St-70114/home/85473612,GSREIN,2464541,N,Y,29.9463439,-90.0505574
MLS Listing,,Multi-Family (2-4 Unit),5135-5137 Arts St,New Orleans,LA,70122,239000,4,2.0,New Orleans,1840,5950,1973,37,130,,Active,,,https://www.redfin.com/LA/New-Orleans/5135-Arts-St-70122/home/79384104,GSREIN,2462623,N,Y,30.011447,-90.053475
MLS Listing,,Condo/Co-op,2222 Carondelet St Unit A,New Orleans,LA,70130,249000,1,1.0,New Orleans,716,858,1920,40,348,259,Active,,,https://www.redfin.com/LA/New-Orleans/2222-Carondelet-St-70130/unit-A/home/79178072,GSREIN,2462340,N,Y,29.9344356,-90.0816441
MLS Listing,,Single Family Residential,1720 N Rocheblave St,New Orleans,LA,70119,399000,3,2.0,New Orleans,1872,4734,2024,69,213,,Active,,,https://www.redfin.com/LA/New-Orleans/1720-N-Rocheblave-St-70119/home/85423002,GSREIN,2457377,N,Y,29.979308,-90.070733
MLS Listing,,Single Family Residential,158 E Henfer Ave,River Ridge,LA,70123,319000,3,2.5,River Ridge,2068,6181,1960,77,154,,Active,,,https://www.redfin.com/LA/New-Orleans/158-E-Henfer-Ave-70123/home/85243320,GSREIN,2454119,N,Y,29.9594318,-90.2222803
MLS Listing,,Single Family Residential,3700 Piedmont Dr,New Orleans,LA,70122,235000,3,2.0,New Orleans,1621,5998,1950,77,145,,Active,,,https://www.redfin.com/LA/New-Orleans/3700-Piedmont-Dr-70122/home/85434578,GSREIN,2456653,N,Y,29.9960652,-90.0540146
MLS Listing,,Single Family Residential,13434 Lourdes St,New Orleans,LA,70129,185000,4,3.0,Village De L'Est,2200,6599,1980,89,84,,Active,,,https://www.redfin.com/LA/New-Orleans/13434-Lourdes-St-70129/home/85463908,GSREIN,2454707,N,Y,30.0348599,-89.9262384
MLS Listing,,Multi-Family (2-4 Unit),131 N Rendon St,New Orleans,LA,70119,398000,5,2.0,New Orleans,1790,3598,1921,89,222,,Active,,,https://www.redfin.com/LA/New-Orleans/131-N-Rendon-St-70119/home/85412304,GSREIN,2454735,N,Y,29.9700579,-90.0923694
MLS Listing,,Single Family Residential,23 Idlewood Pl,River Ridge,LA,70123,749000,4,3.0,River Ridge,3037,18891,1962,103,247,,Active,,,https://www.redfin.com/LA/River-Ridge/23-Idlewood-Pl-70123/home/85180491,GSREIN,2452441,N,Y,29.9664884,-90.2114691
MLS Listing,,Vacant Land,141 Horseshoe Bnd,New Orleans,LA,70128,49000,0,,Eastover,,21714,,113,,,Active,,,https://www.redfin.com/LA/New-Orleans/141-Horseshoe-Bnd-70128/home/85447114,GSREIN,2450828,N,Y,30.037744,-89.944631
MLS Listing,,Condo/Co-op,827 Burgundy St Unit E,New Orleans,LA,70116,272999,1,1.0,New Orleans,651,448,1839,131,419,384,Active,,,https://www.redfin.com/LA/New-Orleans/827-Burgundy-St-70116/unit-E/home/85518991,GSREIN,2447262,N,Y,29.9612543,-90.0663409
MLS Listing,,Single Family Residential,2320 2nd St,New Orleans,LA,70113,250800,3,2.0,New Orleans,1330,3223,2014,139,189,,Active,,,https://www.redfin.com/LA/New-Orleans/2320-2nd-St-70113/home/85515090,GSREIN,2446196,N,Y,29.9384155,-90.0882987
MLS Listing,,Single Family Residential,3444 Toledano St,New Orleans,LA,70125,349900,3,2.0,New Orleans,1500,3009,,158,233,,Active,,,https://www.redfin.com/LA/New-Orleans/3444-Toledano-St-70125/home/85491477,GSREIN,2442988,N,Y,29.946774,-90.0991374
MLS Listing,,Vacant Land,1428 Japonica St,New Orleans,LA,70117,50000,0,,New Orleans,,4199,,1,,,Active,,,https://www.redfin.com/LA/New-Orleans/1428-Japonica-St-70117/home/85451650,GSREIN,2468030,N,Y,29.9678737,-90.0284309
MLS Listing,,Vacant Land,2722 Benefit St,New Orleans,LA,70122,30000,0,,New Orleans,,4800,,1,,,Active,,,https://www.redfin.com/LA/New-Orleans/2722-Benefit-St-70122/home/85432775,GSREIN,2468027,N,Y,29.9913205,-90.0464558
MLS Listing,,Vacant Land,1328501 General Meyer Ave,New Orleans,LA,70131,790000,0,,New Orleans,,158122,,1,,,Active,,,https://www.redfin.com/LA/New-Orleans/1328501-General-Meyer-Ave-70131/home/192601694,GSREIN,2467638,N,Y,29.928688,-89.995728
MLS Listing,,Vacant Land,8928001 Hart St,New Orleans,LA,70131,6500,0,,New Orleans,,2500,,1,,,Active,,,https://www.redfin.com/LA/New-Orleans/8928001-Hart-St-70131/home/85507632,GSREIN,2468016,N,Y,29.913055,-89.970966
MLS Listing,,Vacant Land,21104 Chef Menteur Hwy,New Orleans,LA,70129,33000,0,,New Orleans,,,,1,,,Active,,,https://www.redfin.com/LA/New-Orleans/21104-Chef-Menteur-Hwy-70129/home/192601177,GSREIN,2467892,N,Y,30.070203,-89.8020417
MLS Listing,,Single Family Residential,15 Park Island Dr,New Orleans,LA,70122,1800000,5,4.5,New Orleans,2925,10519,1960,1,615,,Active,,,https://www.redfin.com/LA/New-Orleans/15-Park-Island-Dr-70122/home/79291621,GSREIN,2467994,N,Y,30.0006917,-90.0838703
MLS Listing,,Vacant Land,8933001 Edward St,New Orleans,LA,70131,6500,0,,New Orleans,,2500,,1,,,Active,,,https://www.redfin.com/LA/New-Orleans/8933001-Edward-St-70131/home/85471924,GSREIN,2468012,N,Y,29.913081,-89.971281
MLS Listing,,Single Family Residential,6020 Orleans Ave #1,New Orleans,LA,70124,345000,2,2.0,New Orleans,1714,,1990,1,201,,Active,,,https://www.redfin.com/LA/New-Orleans/6020-Orleans-Ave-70124/unit-1/home/192600501,GSREIN,2467990,N,Y,29.9990786,-90.1012697
MLS Listing,,Condo/Co-op,1208 Carondelet St #1208,New Orleans,LA,70130,445000,3,2.0,New Orleans,1830,,1921,1,243,,Active,,,https://www.redfin.com/LA/New-Orleans/1208-Carondelet-St-70130/unit-1208/home/185948805,GSREIN,2461228,N,Y,29.9418223,-90.0751404
MLS Listing,,Single Family Residential,7001 Morrison Rd,New Orleans,LA,70127,218500,3,2.0,Kenilworth,1900,,1983,1,115,,Active,,,https://www.redfin.com/LA/New-Orleans/7001-Morrison-Rd-70126/home/79208653,GSREIN,2467919,N,Y,30.0306755,-90.0107369
MLS Listing,,Single Family Residential,7853 Briarwood Dr,New Orleans,LA,70128,139000,3,2.0,New Orleans,1908,5000,1985,1,73,,Active,,,https://www.redfin.com/LA/New-Orleans/7853-Briarwood-Dr-70128/home/85446479,GSREIN,2466194,N,Y,30.0658255,-89.955443
MLS Listing,,Vacant Land,3928 Erato St,New Orleans,LA,70125,65000,0,,New Orleans,3840,,,1,17,,Active,,,https://www.redfin.com/LA/New-Orleans/3928-Erato-St-70125/home/79173635,GSREIN,2467686,N,Y,29.952725,-90.096738
MLS Listing,,Single Family Residential,5811 Royal St,New Orleans,LA,70117,315000,3,2.5,New Orleans,1715,,2023,1,184,,Active,,,https://www.redfin.com/LA/New-Orleans/5811-Royal-St-70117/home/85513189,GSREIN,2467985,N,Y,29.9566729,-90.0147495
MLS Listing,,Condo/Co-op,220 Decatur St #206,New Orleans,LA,70130,385000,1,1.5,New Orleans,852,,1872,1,452,280,Active,,,https://www.redfin.com/LA/New-Orleans/220-Decatur-St-70130/unit-206/home/144981881,GSREIN,2466858,N,Y,29.9531006,-90.0658632
MLS Listing,,Multi-Family (2-4 Unit),2801 Palmer Ave,New Orleans,LA,70118,750000,4,4.0,New Orleans,2640,,1920,1,284,,Active,,,https://www.redfin.com/LA/New-Orleans/2801-Palmer-Ave-70118/home/85516573,GSREIN,2467984,N,Y,29.943015,-90.1142177
MLS Listing,,Multi-Family (2-4 Unit),3309 A B General Taylor St,New Orleans,LA,70125,375000,8,4.5,New Orleans,4000,,1943,1,94,,Active,,,https://www.redfin.com/LA/New-Orleans/3309-A-B-General-Taylor-St-70125/home/184142441,GSREIN,2464319,N,Y,29.9415968,-90.100182
MLS Listing,,Condo/Co-op,900 Bartholomew St #415,New Orleans,LA,70117,330000,1,1.5,Bywater,839,,2019,1,393,428,Active,,,https://www.redfin.com/LA/New-Orleans/900-Bartholomew-St-70117/unit-415/home/168236943,GSREIN,2467965,N,Y,29.9636282,-90.0361131
MLS Listing,,Single Family Residential,2131 St. Roch Ave,New Orleans,LA,70117,299000,3,3.0,New Orleans,1507,,2024,1,198,,Active,September-24-2024 11:30 AM,September-24-2024 02:00 PM,https://www.redfin.com/LA/New-Orleans/2131-Saint-Roch-Ave-70117/home/85432162,GSREIN,2467465,N,Y,29.979891,-90.0527855
MLS Listing,,Condo/Co-op,900 Bartholomew St #516,New Orleans,LA,70117,450000,2,2.0,Bywater,1129,,2019,1,399,576,Active,,,https://www.redfin.com/LA/New-Orleans/900-Bartholomew-St-70117/unit-516/home/168236977,GSREIN,2467955,N,Y,29.9636282,-90.0361131
MLS Listing,,Multi-Family (2-4 Unit),812 14 Foucher St,New Orleans,LA,70115,535000,6,2.0,New Orleans,2176,,1900,1,246,,Active,,,https://www.redfin.com/LA/New-Orleans/812-Foucher-St-70115/home/85484877,GSREIN,2467953,N,Y,29.9195285,-90.0909669
MLS Listing,,Single Family Residential,3421 Georgia St,New Orleans,LA,70114,450000,3,2.5,New Orleans,2000,8001,2023,1,225,,Active,,,https://www.redfin.com/LA/New-Orleans/3421-Georgia-St-70114/home/79218728,GSREIN,2467326,N,Y,29.9268539,-90.032452
MLS Listing,,Condo/Co-op,900 Bartholomew St #321,New Orleans,LA,70117,335000,1,1.5,Bywater,864,,2019,1,388,441,Active,,,https://www.redfin.com/LA/New-Orleans/900-Bartholomew-St-70117/unit-321/home/140023907,GSREIN,2467952,N,Y,29.9636282,-90.0361131
MLS Listing,,Multi-Family (2-4 Unit),6808 W Coronet Ct,New Orleans,LA,70126,360000,9,6.5,New Orleans,4000,,1967,1,90,,Active,,,https://www.redfin.com/LA/New-Orleans/6808-W-Coronet-Ct-70126/home/85512776,GSREIN,2467937,N,Y,30.025651,-90.0014557
MLS Listing,,Condo/Co-op,900 Bartholomew St #306,New Orleans,LA,70117,390000,2,2.0,Bywater,1120,,2019,1,348,572,Active,,,https://www.redfin.com/LA/New-Orleans/900-Bartholomew-St-70117/unit-306/home/168236918,GSREIN,2467281,N,Y,29.9636282,-90.0361131
MLS Listing,,Multi-Family (2-4 Unit),1523 25 Saint Philip St,New Orleans,LA,70116,539000,5,4.0,New Orleans,2440,,1880,1,221,,Active,,,https://www.redfin.com/LA/New-Orleans/1523-Saint-Philip-St-70116/home/79442719,GSREIN,2466506,N,Y,29.965742,-90.0699494
MLS Listing,,Single Family Residential,13026 Cherbourg St,New Orleans,LA,70129,189000,4,2.5,Village De L'Est,2300,6481,1976,1,82,,Active,,,https://www.redfin.com/LA/New-Orleans/13026-Cherbourg-St-70129/home/79218075,GSREIN,2467744,N,Y,30.0348564,-89.9327061
MLS Listing,,Single Family Residential,6141 Mandeville St,New Orleans,LA,70122,450000,4,3.5,Mandeville N,2589,4830,2024,1,174,,Active,September-22-2024 10:00 AM,September-22-2024 12:00 PM,https://www.redfin.com/LA/New-Orleans/6141-Mandeville-St-70122/home/85511739,GSREIN,2467464,N,Y,30.021957,-90.058391
MLS Listing,,Multi-Family (2-4 Unit),8430-32 Jeannette St,New Orleans,LA,70118,375000,4,2.0,New Orleans,1561,,1940,1,240,,Active,,,https://www.redfin.com/LA/New-Orleans/8430-Jeannette-St-70118/home/85496937,GSREIN,2467100,N,Y,29.9518892,-90.1306974
MLS Listing,,Single Family Residential,693 St George Ave,Jefferson,LA,70121,489500,3,2.0,Jefferson,1672,,2023,1,293,,Active,,,https://www.redfin.com/LA/New-Orleans/693-St-George-Ave-70121/home/179340404,GSREIN,2467857,N,Y,29.9616593,-90.1781554
MLS Listing,,Multi-Family (2-4 Unit),4229 31 Annunciation St,New Orleans,LA,70115,405000,4,2.0,New Orleans,2450,,1900,1,165,,Active,,,https://www.redfin.com/LA/New-Orleans/4229-Annunciation-St-70115/home/85485150,GSREIN,2467844,N,Y,29.9183126,-90.0996483
MLS Listing,,Multi-Family (2-4 Unit),2114-16 Mandeville St,New Orleans,LA,70117,169000,2,2.0,New Orleans,1216,,,1,139,,Active,,,https://www.redfin.com/LA/New-Orleans/2114-Mandeville-St-70117/home/85431254,GSREIN,2467804,N,Y,29.9792102,-90.0553933
MLS Listing,,Single Family Residential,8534 Jeannette St,New Orleans,LA,70118,549000,3,2.5,New Orleans,1870,,1910,1,294,,Active,,,https://www.redfin.com/LA/New-Orleans/8534-Jeannette-St-70118/home/79271957,GSREIN,2467836,N,Y,29.9525479,-90.1316456
MLS Listing,,Multi-Family (2-4 Unit),634 Eighth St,New Orleans,LA,70115,799500,4,5.0,New Orleans,3213,,1900,1,249,,Active,September-21-2024 03:00 PM,September-21-2024 05:00 PM,https://www.redfin.com/LA/New-Orleans/634-8th-St-70115/home/85467420,GSREIN,2467764,N,Y,29.9208623,-90.082897
MLS Listing,,Single Family Residential,8515 Spruce St,New Orleans,LA,70118,445000,3,2.5,New Orleans,1703,,2021,1,261,,Active,,,https://www.redfin.com/LA/New-Orleans/8515-Spruce-St-70118/home/85497166,GSREIN,2467729,N,Y,29.9561646,-90.1273197
MLS Listing,,Multi-Family (2-4 Unit),2228 30 3rd St,New Orleans,LA,70113,435000,6,5.0,New Orleans,2270,2252,1978,1,192,,Active,,,https://www.redfin.com/LA/New-Orleans/2228-3rd-St-70113/home/85470138,GSREIN,2467799,N,Y,29.9373213,-90.088566
MLS Listing,,Single Family Residential,1929 S Rendon St,New Orleans,LA,70125,275000,2,1.5,New Orleans,1377,3149,1958,1,200,,Active,September-21-2024 11:00 AM,September-21-2024 12:30 PM,https://www.redfin.com/LA/New-Orleans/1929-S-Rendon-St-70125/home/85490966,GSREIN,2467815,N,Y,29.951906,-90.1071987
MLS Listing,,Single Family Residential,116 Oak Tree Dr,New Orleans,LA,70124,1145000,4,3.5,New Orleans,3450,,2017,1,332,58,Active,September-22-2024 03:00 PM,September-22-2024 05:00 PM,https://www.redfin.com/LA/New-Orleans/116-Oak-Tree-Dr-70124/home/109879555,GSREIN,2467746,N,Y,29.9924893,-90.1184765
MLS Listing,,Single Family Residential,4651 Lancelot Dr,New Orleans,LA,70127,125000,3,1.5,Castle Manor,1129,,1975,2,111,,Active,,,https://www.redfin.com/LA/New-Orleans/4651-Lancelot-Dr-70127/home/85514314,GSREIN,2467805,N,Y,30.0187899,-89.9848595
MLS Listing,,Single Family Residential,5337 Chartres St,New Orleans,LA,70117,275000,2,2.0,New Orleans,1209,,1938,2,227,,Active,,,https://www.redfin.com/LA/New-Orleans/5337-Chartres-St-70117/home/79225016,GSREIN,2467208,N,Y,29.9569488,-90.0203286
MLS Listing,,Single Family Residential,1417 Moss Ln,River Ridge,LA,70123,579000,5,3.5,Rural Park,3268,,1983,2,177,,Active,,,https://www.redfin.com/LA/New-Orleans/1417-Moss-Ln-70123/home/79257714,GSREIN,2467733,N,Y,29.9568368,-90.204814
MLS Listing,,Condo/Co-op,1325 Sixth St Unit --,New Orleans,LA,70115,325000,2,2.0,New Orleans,908,,1887,2,358,379,Active,,,https://www.redfin.com/LA/New-Orleans/1325-6th-St-70115/home/79399803,GSREIN,2467580,N,Y,29.9277046,-90.0854222
MLS Listing,,Single Family Residential,3420 Willow St,New Orleans,LA,70115,160000,3,1.0,New Orleans,808,,2005,2,198,,Active,,,https://www.redfin.com/LA/New-Orleans/3420-Willow-St-70115/home/85489790,GSREIN,2467740,N,Y,29.9396315,-90.0976864
MLS Listing,,Single Family Residential,1705 Burgundy St,New Orleans,LA,70116,1200000,3,3.5,New Orleans,2638,3001,1848,2,455,,Active,,,https://www.redfin.com/LA/New-Orleans/1705-Burgundy-St-70116/home/79450721,GSREIN,2467727,N,Y,29.9662248,-90.0619407
MLS Listing,,Condo/Co-op,1001 Julia St Unit 11G,New Orleans,LA,70113,575000,1,1.0,New Orleans,947,239,2018,2,607,885,Active,,,https://www.redfin.com/LA/New-Orleans/1001-Julia-St-70113/unit-11G/home/113377121,GSREIN,2467617,N,Y,29.9469103,-90.0756644
MLS Listing,,Single Family Residential,1639 Arts St,New Orleans,LA,70117,195000,2,2.0,New Orleans,1250,,2023,2,156,,Active,,,https://www.redfin.com/LA/New-Orleans/1639-Arts-St-70117/home/85520485,GSREIN,2467257,N,Y,29.9748824,-90.050131
MLS Listing,,Single Family Residential,915 Dauphine St,New Orleans,LA,70116,1650000,4,3.5,New Orleans,3130,,1897,2,527,,Active,,,https://www.redfin.com/LA/New-Orleans/915-Dauphine-St-70116/home/79398794,GSREIN,2467469,N,Y,29.9612425,-90.0648309
MLS Listing,,Single Family Residential,1010 Burgundy St,New Orleans,LA,70116,995500,3,3.5,New Orleans,2436,1951,1835,2,409,,Active,,,https://www.redfin.com/LA/New-Orleans/1010-Burgundy-St-70116/home/79213820,GSREIN,2467705,N,Y,29.9624498,-90.0649559
MLS Listing,,Condo/Co-op,2100 Saint Charles Ave Unit 9E,New Orleans,LA,70130,279000,1,1.0,New Orleans,760,,1965,2,367,770,Active,,,https://www.redfin.com/LA/New-Orleans/2100-Saint-Charles-Ave-70130/unit-9E/home/85468787,GSREIN,2467452,N,Y,29.9341524,-90.0798752
MLS Listing,,Condo/Co-op,1916 Prytania St Unit A,New Orleans,LA,70130,239600,1,1.0,New Orleans,599,,1920,2,400,374,Active,,,https://www.redfin.com/LA/New-Orleans/1916-Prytania-St-70130/unit-A/home/85469243,GSREIN,2466508,N,Y,29.9342792,-90.0774105
MLS Listing,,Multi-Family (2-4 Unit),505 Newton St,New Orleans,LA,70114,95000,4,2.0,Algiers Riverpoint,1284,4094,1977,2,74,,Active,,,https://www.redfin.com/LA/New-Orleans/505-Newton-St-70114/home/85473345,GSREIN,2467646,N,Y,29.9453345,-90.0507433
MLS Listing,,Single Family Residential,4400 Alba Rd,New Orleans,LA,70129,99000,4,2.0,Venetian Isles,1792,12479,1970,2,55,,Active,,,https://www.redfin.com/LA/New-Orleans/4400-Alba-Rd-70129/home/85464646,GSREIN,2467574,N,Y,30.0670112,-89.8134891
MLS Listing,,Single Family Residential,4231 San Trovaso St,New Orleans,LA,70129,325000,3,2.5,Venetian Isles,2541,,1988,2,128,,Active,,,https://www.redfin.com/LA/New-Orleans/4231-San-Trovaso-St-70129/home/85466639,GSREIN,2467476,N,Y,30.066518,-89.8185589
MLS Listing,,Single Family Residential,312 S Lopez St,New Orleans,LA,70119,449000,3,3.5,New Orleans,1885,,1914,2,238,,Active,,,https://www.redfin.com/LA/New-Orleans/312-S-Lopez-St-70119/home/79317210,GSREIN,2467663,N,Y,29.9664547,-90.0935694
MLS Listing,,Multi-Family (2-4 Unit),2260 N Roman St,New Orleans,LA,70117,350000,6,2.0,New Orleans,2284,3070,1944,2,153,,Active,,,https://www.redfin.com/LA/New-Orleans/2260-N-Roman-St-70117/home/85431440,GSREIN,2467602,N,Y,29.9756873,-90.0553816
MLS Listing,,Single Family Residential,6509 Marshall Foch St,New Orleans,LA,70124,699000,4,3.5,New Orleans,2850,,2007,2,245,,Active,,,https://www.redfin.com/LA/New-Orleans/6509-Marshal-Foch-St-70124/home/79453916,GSREIN,2467578,N,Y,30.0085118,-90.103003
MLS Listing,,Single Family Residential,2327 S Derbigny St,New Orleans,LA,70125,194999,3,2.0,New Orleans,946,871,2007,2,206,,Active,,,https://www.redfin.com/LA/New-Orleans/2327-S-Derbigny-St-70125/home/192574935,GSREIN,2467525,N,Y,29.9456993,-90.0915409
MLS Listing,,Multi-Family (2-4 Unit),2351 S Derbigny St,New Orleans,LA,70125,325000,4,4.0,New Orleans,1936,1860,2007,2,168,,Active,,,https://www.redfin.com/LA/New-Orleans/2351-S-Derbigny-St-70125/home/192574846,GSREIN,2467530,N,Y,29.9454537,-90.0919808
MLS Listing,,Single Family Residential,5453 Chartres St,New Orleans,LA,70117,379000,3,2.5,New Orleans,1630,,2024,2,233,,Active,,,https://www.redfin.com/LA/New-Orleans/5453-Chartres-St-70117/home/85522134,GSREIN,2466921,N,Y,29.9565488,-90.0187831
MLS Listing,,Vacant Land,2347 S Derbigny St,New Orleans,LA,70125,20000,0,,New Orleans,1562,17424,,2,13,,Active,,,https://www.redfin.com/LA/New-Orleans/2347-S-Derbigny-St-70125/home/85471258,GSREIN,2467033,N,Y,29.945524,-90.091887
MLS Listing,,Multi-Family (2-4 Unit),725-727 Voisin St,New Orleans,LA,70124,385000,4,2.0,New Orleans,1800,,1967,2,214,,Active,September-18-2024 11:30 AM,September-18-2024 01:00 PM,https://www.redfin.com/LA/New-Orleans/725-Voisin-St-70124/home/79428933,GSREIN,2466004,N,Y,29.988372,-90.108919
MLS Listing,,Condo/Co-op,3000 St Charles Ave #213,New Orleans,LA,70115,239000,1,1.5,New Orleans,902,,1976,2,265,1107,Active,,,https://www.redfin.com/LA/New-Orleans/3000-Saint-Charles-Ave-70115/unit-213/home/79442063,GSREIN,2467529,N,Y,29.9291073,-90.0885056
MLS Listing,,Multi-Family (2-4 Unit),2213 15 General Pershing St,New Orleans,LA,70115,599000,4,2.0,New Orleans,2234,,1908,2,268,,Active,,,https://www.redfin.com/LA/New-Orleans/2213-General-Pershing-St-70115/home/85516162,GSREIN,2464181,N,Y,29.9328604,-90.1011848
MLS Listing,,Single Family Residential,2622 S Carrollton Ave,New Orleans,LA,70118,500000,4,2.0,New Orleans,2227,5401,1940,2,225,,Active,,,https://www.redfin.com/LA/New-Orleans/2622-S-Carrollton-Ave-70118/home/85498001,GSREIN,2466916,N,Y,29.9581566,-90.1186764
MLS Listing,,Condo/Co-op,4845 Chestnut St #4845,New Orleans,LA,70115,348000,1,1.5,New Orleans,834,696,1918,2,417,503,Active,,,https://www.redfin.com/LA/New-Orleans/4845-Chestnut-St-70115/unit-4845/home/178645450,GSREIN,2467566,N,Y,29.9225933,-90.1071832
MLS Listing,,Single Family Residential,1435 Eleonore St,New Orleans,LA,70115,2400000,6,5.5,New Orleans,5097,7200,1900,2,471,,Active,,,https://www.redfin.com/LA/New-Orleans/1435-Eleonore-St-70115/home/85492146,GSREIN,2466674,N,Y,29.9278099,-90.1179703
MLS Listing,,Vacant Land,601 English Turn Dr,New Orleans,LA,70131,88000,0,,New Orleans,,13821,,2,,225,Active,,,https://www.redfin.com/LA/New-Orleans/601-English-Turn-Dr-70131/home/79180478,GSREIN,2467613,N,Y,29.910222,-89.953573
MLS Listing,,Single Family Residential,6 Newcomb Blvd,New Orleans,LA,70118,3650000,6,8.0,New Orleans,8582,,1923,2,425,,Active,,,https://www.redfin.com/LA/New-Orleans/6-Newcomb-Blvd-70118/home/85493795,GSREIN,2463088,N,Y,29.9373481,-90.1252827
MLS Listing,,Vacant Land,1801 Lauradale Dr,New Orleans,LA,70114,25000,0,,New Orleans,,2530,,3,,,Active,,,https://www.redfin.com/LA/New-Orleans/1801-Lauradale-Dr-70114/home/79334035,GSREIN,2467558,N,Y,29.9362606,-90.0330344
MLS Listing,,Vacant Land,1805 Lauradale Dr,New Orleans,LA,70114,25000,0,,New Orleans,,2530,,3,,,Active,,,https://www.redfin.com/LA/New-Orleans/1805-Lauradale-Dr-70114/home/184630457,GSREIN,2467559,N,Y,29.9362495,-90.0329834
MLS Listing,,Single Family Residential,5202 Laurel St,New Orleans,LA,70115,998000,5,3.0,New Orleans,2648,,1920,3,377,,Active,September-18-2024 12:00 PM,September-18-2024 02:00 PM,https://www.redfin.com/LA/New-Orleans/5202-Laurel-St-70115/home/85485468,GSREIN,2467586,N,Y,29.9181283,-90.111259
MLS Listing,,Single Family Residential,6919 Wuerpel St,New Orleans,LA,70124,745000,4,2.5,New Orleans,2517,,2013,3,296,,Active,September-18-2024 11:30 AM,September-18-2024 01:30 PM,https://www.redfin.com/LA/New-Orleans/6919-Wuerpel-St-70124/home/79361895,GSREIN,2466977,N,Y,30.0170827,-90.1118909
MLS Listing,,Multi-Family (2-4 Unit),1459 N Villere St,New Orleans,LA,70116,199900,2,2.0,New Orleans,1440,3937,1960,3,139,,Active,,,https://www.redfin.com/LA/New-Orleans/1459-N-Villere-St-70116/home/79448506,GSREIN,2466660,N,Y,29.9695508,-90.0659886
MLS Listing,,Condo/Co-op,1018 Royal St #1,New Orleans,LA,70116,449000,1,1.0,New Orleans,865,,1835,3,519,564,Active,,,https://www.redfin.com/LA/New-Orleans/1018-Royal-St-70116/unit-1/home/85418678,GSREIN,2467357,N,Y,29.9607318,-90.062157
MLS Listing,,Condo/Co-op,835 Royal St #835,New Orleans,LA,70116,449000,2,2.0,New Orleans,941,,1850,3,477,585,Active,,,https://www.redfin.com/LA/New-Orleans/835-Royal-St-70116/unit-835/home/147623520,GSREIN,2467416,N,Y,29.9595101,-90.0635394
MLS Listing,,Single Family Residential,2138 Music St,New Orleans,LA,70117,215000,3,2.0,New Orleans,1566,3358,2008,3,137,,Active,,,https://www.redfin.com/LA/New-Orleans/2138-Music-St-70117/home/85432172,GSREIN,2467331,N,Y,29.9799186,-90.0520569
MLS Listing,,Single Family Residential,1208 Shirley Dr,New Orleans,LA,70114,225000,4,2.0,New Orleans,1415,8276,1972,3,159,,Active,September-21-2024 10:00 AM,September-21-2024 12:00 PM,https://www.redfin.com/LA/New-Orleans/1208-Shirley-Dr-70114/home/85474781,GBRMLS,2024017367,N,Y,29.9419911,-90.0312467
MLS Listing,,Single Family Residential,5931 St Charles Ave,New Orleans,LA,70115,3450000,5,8.5,New Orleans,8600,,1968,3,401,,Active,,,https://www.redfin.com/LA/New-Orleans/5931-Saint-Charles-Ave-70115/home/79215716,GSREIN,2467563,N,Y,29.9312525,-90.1176698
MLS Listing,,Vacant Land,37841 Marigny St,New Orleans,LA,70122,85000,0,,New Orleans,,6041,,4,,,Active,,,https://www.redfin.com/LA/New-Orleans/37841-Marigny-St-70122/home/79165775,GSREIN,2467398,N,Y,29.988087,-90.057246
MLS Listing,,Vacant Land,107 Jefferson Heights Ave,Jefferson,LA,70121,190000,0,,Jefferson,9000,,,4,21,,Active,,,https://www.redfin.com/LA/Jefferson/107-Jefferson-Heights-Ave-70121/home/192562362,GSREIN,2467537,N,Y,29.9641149,-90.1302477
MLS Listing,,Single Family Residential,220 Topaz St,New Orleans,LA,70124,522000,3,2.0,Lakeshore,1838,5601,1955,4,284,35,Active,September-22-2024 10:00 AM,September-22-2024 12:00 PM,https://www.redfin.com/LA/New-Orleans/220-Topaz-St-70124/home/79451352,GSREIN,2466120,N,Y,30.024091,-90.1120349
MLS Listing,,Single Family Residential,6642 Avenue B Ave,New Orleans,LA,70124,479999,4,2.5,New Orleans,2272,5998,2006,4,211,,Active,,,https://www.redfin.com/LA/New-Orleans/6642-Avenue-B-70124/home/85501483,GSREIN,2466811,N,Y,30.0132823,-90.1173658
MLS Listing,,Vacant Land,1743 St Anthony St,New Orleans,LA,70116,42500,0,,New Orleans,,3301,,4,,,Active,,,https://www.redfin.com/LA/New-Orleans/1743-Saint-Anthony-St-70116/home/173234120,GSREIN,2467526,N,Y,29.975267,-90.061842
MLS Listing,,Condo/Co-op,617 Dauphine St #9,New Orleans,LA,70112,250000,1,1.0,New Orleans,530,483,1921,4,472,509,Active,September-21-2024 01:00 PM,September-21-2024 02:30 PM,https://www.redfin.com/LA/New-Orleans/617-Dauphine-St-70112/unit-9/home/79214308,GSREIN,2467505,N,Y,29.9590138,-90.0673024
MLS Listing,,Vacant Land,3636 Johnny Jackson Jr Blvd,New Orleans,LA,70126,20000,0,,New Orleans,,4560,,4,,,Active,,,https://www.redfin.com/LA/New-Orleans/3636-Johnny-Jackson-Jr-Blvd-70126/home/85458654,GSREIN,2467519,N,Y,29.994638,-90.034968
MLS Listing,,Single Family Residential,13704 N Cavelier St,New Orleans,LA,70129,224900,4,2.5,New Orleans,1975,,2002,4,114,,Active,,,https://www.redfin.com/LA/New-Orleans/13704-N-Cavelier-Dr-70129/home/79196885,GSREIN,2467301,N,Y,30.0605403,-89.9322243
MLS Listing,,Single Family Residential,620 State St,New Orleans,LA,70118,2389000,4,5.5,New Orleans,4788,,1910,5,499,,Active,,,https://www.redfin.com/LA/New-Orleans/620-State-St-70118/home/85492577,GSREIN,2467496,N,Y,29.9209434,-90.1223141
MLS Listing,,Multi-Family (2-4 Unit),915 17 Spain St,New Orleans,LA,70117,540000,3,2.0,New Orleans,1871,,1844,5,289,,Active,September-21-2024 01:00 PM,September-21-2024 03:00 PM,https://www.redfin.com/LA/New-Orleans/915-Spain-St-70117/home/85430603,GSREIN,2467483,N,Y,29.9671321,-90.0529661
MLS Listing,,Single Family Residential,4739 Dauphine St,New Orleans,LA,70117,370000,4,3.0,New Orleans,1521,6952,2011,5,243,,Active,,,https://www.redfin.com/LA/New-Orleans/4739-Dauphine-St-70117/home/85448563,GSREIN,2464858,N,Y,29.9603864,-90.0265217
MLS Listing,,Single Family Residential,7823 Michigan St,New Orleans,LA,70128,124000,3,2.0,New Orleans,1100,,1968,5,113,,Active,,,https://www.redfin.com/LA/New-Orleans/7823-Michigan-St-70128/home/79210066,GSREIN,2465360,N,Y,30.0528432,-89.9724559
MLS Listing,,Single Family Residential,4873 Laurel St,New Orleans,LA,70115,600000,3,2.0,New Orleans,1875,,1922,5,320,,Active,,,https://www.redfin.com/LA/New-Orleans/4873-Laurel-St-70115/home/79389406,GSREIN,2467005,N,Y,29.9184176,-90.1078181
MLS Listing,,Single Family Residential,325 Andrew Higgins Blvd,New Orleans,LA,70130,499000,0,1.0,New Orleans,1241,1258,1904,5,402,,Active,,,https://www.redfin.com/LA/New-Orleans/325-Andrew-Higgins-Dr-70130/home/85509342,GSREIN,2467369,N,Y,29.942142,-90.066489
MLS Listing,,Multi-Family (2-4 Unit),2032-34 Pace Blvd,New Orleans,LA,70114,220000,6,4.0,New Orleans,2400,,1979,5,92,,Active,,,https://www.redfin.com/LA/New-Orleans/2032-Pace-Blvd-70114/home/79232648,GSREIN,2467436,N,Y,29.931508,-90.027281
MLS Listing,,Single Family Residential,819 Fats Domino Ave,New Orleans,LA,70117,365000,4,2.0,New Orleans,2200,,1934,5,166,,Active,,,https://www.redfin.com/LA/New-Orleans/819-Fats-Domino-Ave-70117/home/85448503,GSREIN,2466232,N,Y,29.9583901,-90.0163534
MLS Listing,,Single Family Residential,6310 Pandora St,New Orleans,LA,70126,249900,3,2.0,New Orleans,1442,6969,2024,5,173,,Active,,,https://www.redfin.com/LA/New-Orleans/6310-Pandora-St-70126/home/79242762,GSREIN,2467420,N,Y,30.0258371,-90.0187627
MLS Listing,,Condo/Co-op,3523 Audubon Trce #3523,Jefferson,LA,70121,280000,2,2.5,Jefferson,1630,,1987,5,172,692,Active,,,https://www.redfin.com/LA/New-Orleans/3523-Audubon-Trce-70121/unit-3523/home/79377757,GSREIN,2466958,N,Y,29.9605778,-90.1686291
MLS Listing,,Single Family Residential,404 Lassalle Dr,River Ridge,LA,70123,465000,5,2.5,River Ridge,2674,,1968,5,174,,Active,,,https://www.redfin.com/LA/New-Orleans/404-Lassalle-Dr-70123/home/85179480,GSREIN,2467378,N,Y,29.9453835,-90.2112132
MLS Listing,,Single Family Residential,3922 Delachaise St,New Orleans,LA,70125,345000,3,2.0,New Orleans,1628,,2017,5,212,,Active,,,https://www.redfin.com/LA/New-Orleans/3922-Delachaise-St-70125/home/85491207,GSREIN,2467400,N,Y,29.9492633,-90.1016824
MLS Listing,,Condo/Co-op,1115 Margaret Pl #201,New Orleans,LA,70130,349000,2,2.0,New Orleans,1047,,1917,5,333,830,Active,,,https://www.redfin.com/LA/New-Orleans/1115-Margaret-Pl-70130/unit-201/home/79452984,GSREIN,2465300,N,Y,29.9412016,-90.0722392
MLS Listing,,Vacant Land,161 Oakmont Dr,New Orleans,LA,70128,100000,0,,Eastover,,31798,,5,,,Active,,,https://www.redfin.com/LA/New-Orleans/161-Oakmont-Dr-70128/home/85446738,GSREIN,2467386,N,Y,30.041398,-89.945419
MLS Listing,,Condo/Co-op,4412 Carondelet St #4412,New Orleans,LA,70115,275000,2,1.0,New Orleans,881,,1969,5,312,372,Active,,,https://www.redfin.com/LA/New-Orleans/4412-Carondelet-St-70115/unit-4412/home/192540749,GSREIN,2467332,N,Y,29.9273706,-90.1028357
MLS Listing,,Single Family Residential,3938 Clematis St,New Orleans,LA,70122,179900,3,2.0,New Orleans,1498,3898,1945,5,120,,Active,,,https://www.redfin.com/LA/New-Orleans/3938-Clematis-St-70122/home/79453970,GSREIN,2467130,N,Y,29.9989493,-90.0548083
MLS Listing,,Single Family Residential,21 Yosemite Dr,New Orleans,LA,70131,382000,4,2.5,Park Timbers,2804,6534,1998,5,136,10,Active,September-26-2024 04:00 PM,September-26-2024 07:00 PM,https://www.redfin.com/LA/New-Orleans/21-Yosemite-Dr-70131/home/81576860,GSREIN,2467214,N,Y,29.916461,-90.0108791
MLS Listing,,Condo/Co-op,232 Lake Marina Ave Unit 9D,New Orleans,LA,70124,1275000,2,2.5,New Orleans,2633,,2002,5,484,1711,Active,,,https://www.redfin.com/LA/New-Orleans/232-Lake-Marina-Ave-70124/unit-9D/home/85501779,GSREIN,2467269,N,Y,30.021248,-90.116655
MLS Listing,,Single Family Residential,5030 Mexico St,New Orleans,LA,70126,179900,3,1.0,New Orleans,1063,,1960,5,169,,Active,,,https://www.redfin.com/LA/New-Orleans/5030-Mexico-St-70126/home/85439710,GSREIN,2465064,N,Y,30.0240977,-90.0367436
MLS Listing,,Single Family Residential,617 Fats Domino Ave,New Orleans,LA,70117,440000,4,2.0,New Orleans,2765,13020,1946,5,159,,Active,,,https://www.redfin.com/LA/New-Orleans/617-Fats-Domino-Ave-70117/home/85447168,GSREIN,2467346,N,Y,29.9565141,-90.0170539
MLS Listing,,Vacant Land,3200 Homer St,New Orleans,LA,70114,29000,0,,New Orleans,,11539,,5,,,Active,,,https://www.redfin.com/LA/New-Orleans/3200-Homer-St-70114/home/85476412,GSREIN,2467350,N,Y,29.94606,-90.021973
MLS Listing,,Single Family Residential,11335 Prentiss Ave,New Orleans,LA,70128,269950,3,2.0,New Orleans,1705,6089,2024,5,158,,Active,September-21-2024 12:00 PM,September-21-2024 01:30 PM,https://www.redfin.com/LA/New-Orleans/11335-Prentiss-Ave-70128/home/85463155,GSREIN,2467222,N,Y,30.024053,-89.954153
MLS Listing,,Multi-Family (2-4 Unit),4210 Alfred St,New Orleans,LA,70122,174900,8,3.0,New Orleans,2345,3728,1960,5,75,,Active,,,https://www.redfin.com/LA/New-Orleans/4210-Alfred-St-70122/home/85427378,GSREIN,2467253,N,Y,30.0000191,-90.0800171
MLS Listing,,Vacant Land,3620 3rd St,New Orleans,LA,70125,35000,0,,New Orleans,,,,5,,,Active,,,https://www.redfin.com/LA/New-Orleans/3620-3rd-St-70125/home/85471558,GSREIN,2467338,N,Y,29.9484836,-90.0969718
MLS Listing,,Vacant Land,2600 S Miro St,New Orleans,LA,70125,20000,0,,New Orleans,,,,5,,,Active,,,https://www.redfin.com/LA/New-Orleans/2600-S-Miro-St-70125/home/85471443,GSREIN,2467337,N,Y,29.947946,-90.096407
MLS Listing,,Vacant Land,2701 New Orleans St,New Orleans,LA,70119,59900,0,,New Orleans,,,,5,,,Active,,,https://www.redfin.com/LA/New-Orleans/2701-New-Orleans-St-70119/home/85424493,GSREIN,2467336,N,Y,29.9853856,-90.0663255
MLS Listing,,Vacant Land,3405 Pauger St,New Orleans,LA,70119,24900,0,,New Orleans,,,,5,,,Active,,,https://www.redfin.com/LA/New-Orleans/3405-Pauger-St-70119/home/85424378,GSREIN,2467335,N,Y,29.984778,-90.0615124
MLS Listing,,Vacant Land,2135 Law St,New Orleans,LA,70119,59000,0,,New Orleans,,,,5,,,Active,,,https://www.redfin.com/LA/New-Orleans/2135-Law-St-70119/home/85423293,GSREIN,2467333,N,Y,29.9837703,-90.0602475
MLS Listing,,Single Family Residential,2617 Aubry St,New Orleans,LA,70119,395000,2,2.0,New Orleans,1319,,1923,5,299,,Active,,,https://www.redfin.com/LA/New-Orleans/2617-Aubry-St-70119/home/85423724,GSREIN,2466953,N,Y,29.9821712,-90.0734822
MLS Listing,,Single Family Residential,8327 Apricot St,New Orleans,LA,70118,315000,3,1.5,New Orleans,1374,3959,1909,5,229,,Active,,,https://www.redfin.com/LA/New-Orleans/8327-Apricot-St-70118/home/85527058,GSREIN,2466278,N,Y,29.9609204,-90.1196115
MLS Listing,,Single Family Residential,7701 Edward St,New Orleans,LA,70126,225000,4,2.0,New Orleans,1536,6181,1960,6,146,,Active,,,https://www.redfin.com/LA/New-Orleans/7701-Edward-St-70126/home/79363718,GSREIN,2466890,N,Y,30.0364299,-90.0053356
MLS Listing,,Single Family Residential,3618 N Rampart St,New Orleans,LA,70117,299000,2,1.0,New Orleans,872,2321,1966,6,343,,Active,,,https://www.redfin.com/LA/New-Orleans/3618-N-Rampart-St-70117/home/79191277,GSREIN,2467246,N,Y,29.9648673,-90.0386967
MLS Listing,,Single Family Residential,4501 Mirabeau Ave,New Orleans,LA,70126,85000,2,1.0,New Orleans,1233,,1955,6,69,,Active,,,https://www.redfin.com/LA/New-Orleans/4501-Mirabeau-Ave-70126/home/85461163,GSREIN,2467135,N,Y,30.010207,-90.0385961
MLS Listing,,Single Family Residential,4228 Hamburg St,New Orleans,LA,70122,229900,3,2.0,New Orleans,1498,4791,1950,6,153,,Active,,,https://www.redfin.com/LA/New-Orleans/4228-Hamburg-St-70122/home/79368478,GBRMLS,2024017246,N,Y,30.0006063,-90.0753329
MLS Listing,,Single Family Residential,1233 Desire St,New Orleans,LA,70117,425000,3,2.0,New Orleans,1728,3720,1900,6,246,,Active,September-21-2024 01:30 PM,September-21-2024 03:30 PM,https://www.redfin.com/LA/New-Orleans/1233-Desire-St-70117/home/85450750,GSREIN,2466836,N,Y,29.9684488,-90.0398274
MLS Listing,,Condo/Co-op,2410 Baronne St Unit C,New Orleans,LA,70113,225000,2,1.5,New Orleans,969,,1970,6,232,250,Active,September-18-2024 12:00 PM,September-18-2024 02:00 PM,https://www.redfin.com/LA/New-Orleans/2410-Baronne-St-70113/unit-C/home/192523007,GSREIN,2467225,N,Y,29.9341256,-90.0841409
MLS Listing,,Condo/Co-op,2410 Baronne St Unit A,New Orleans,LA,70113,225000,2,1.5,New Orleans,969,,1970,6,232,250,Active,September-18-2024 12:00 PM,September-18-2024 02:00 PM,https://www.redfin.com/LA/New-Orleans/2410-Baronne-St-70113/unit-A/home/192521977,GSREIN,2465849,N,Y,29.9341256,-90.0841409
MLS Listing,,Vacant Land,2524 Dauphine St,New Orleans,LA,70117,800000,0,,New Orleans,,5227,,6,,,Active,,,https://www.redfin.com/LA/New-Orleans/2524-Dauphine-St-70117/home/175789254,GSREIN,2467273,N,Y,29.9657579,-90.0516676
MLS Listing,,Vacant Land,8 Hennessey Ct,River Ridge,LA,70123,209000,0,,River Ridge,7473,7405,,6,28,,Active,,,https://www.redfin.com/LA/New-Orleans/8-Hennessey-Ct-70123/home/85175876,GSREIN,2467271,N,Y,29.940999,-90.2141339
MLS Listing,,Multi-Family (2-4 Unit),5516 S Robertson St,New Orleans,LA,70115,775000,6,5.0,New Orleans,3614,,1970,7,214,,Active,,,https://www.redfin.com/LA/New-Orleans/5516-S-Robertson-St-70115/home/85488924,GSREIN,2464453,N,Y,29.9362294,-90.1125661
MLS Listing,,Single Family Residential,4934 Good Dr,New Orleans,LA,70127,165000,3,2.0,New Orleans,1387,5401,1970,7,119,,Active,,,https://www.redfin.com/LA/New-Orleans/4934-Good-Dr-70127/home/85462595,GSREIN,2466525,N,Y,30.0262475,-89.9624768
MLS Listing,,Single Family Residential,4016 General Ogden St,New Orleans,LA,70118,149000,3,2.0,New Orleans,1080,,2009,7,138,,Active,,,https://www.redfin.com/LA/New-Orleans/4016-General-Ogden-St-70118/home/85508972,GSREIN,2457356,N,Y,29.9732546,-90.1148908
MLS Listing,,Multi-Family (2-4 Unit),8605 07 Hickory St,New Orleans,LA,70118,199000,4,2.0,New Orleans,1265,,2010,7,157,,Active,,,https://www.redfin.com/LA/New-Orleans/8605-Hickory-St-70118/home/85516819,GSREIN,2457492,N,Y,29.955222,-90.1294821
MLS Listing,,Single Family Residential,2065 Halsey Ave,New Orleans,LA,70114,245000,4,3.0,New Orleans,2330,7501,1981,7,105,,Active,,,https://www.redfin.com/LA/New-Orleans/2065-Halsey-Ave-70114/home/85476617,GSREIN,2467129,N,Y,29.9322237,-90.0173341
MLS Listing,,Vacant Land,6124 Providence Pl,New Orleans,LA,70126,75000,0,,Ponchartrain Park,6954,,,8,11,,Active,,,https://www.redfin.com/LA/New-Orleans/6124-Providence-Pl-70126/home/85512398,GSREIN,2467181,N,Y,30.022626,-90.045646
MLS Listing,,Multi-Family (2-4 Unit),2538 40 Congress St,New Orleans,LA,70117,335000,6,2.5,New Orleans,2016,,2023,8,166,,Active,,,https://www.redfin.com/LA/New-Orleans/2538-40-Congress-St-70117/home/192461341,GSREIN,2466933,N,Y,29.9725151,-90.0369884
MLS Listing,,Vacant Land,3428 Dryades St,New Orleans,LA,70115,165000,0,,New Orleans,,3841,,8,,,Active,,,https://www.redfin.com/LA/New-Orleans/3428-Dryades-St-70115/home/85488024,GSREIN,2467178,N,Y,29.930572,-90.093455
MLS Listing,,Single Family Residential,3025 College Ct,New Orleans,LA,70125,180000,3,2.0,New Orleans,1152,2160,1964,8,156,,Active,,,https://www.redfin.com/LA/New-Orleans/3025-College-Ct-70125/home/79216212,GSREIN,2467060,N,Y,29.956059,-90.109463
MLS Listing,,Multi-Family (2-4 Unit),7061 63 Boston Dr,New Orleans,LA,70127,215000,6,5.0,New Orleans,3500,5980,1973,8,61,,Active,,,https://www.redfin.com/LA/New-Orleans/7061-Boston-Dr-70127/home/79293092,GSREIN,2467173,N,Y,30.0354299,-89.9882934
MLS Listing,,Single Family Residential,8711 Olive St,New Orleans,LA,70118,158000,3,2.0,New Orleans,868,3598,1920,8,182,,Active,,,https://www.redfin.com/LA/New-Orleans/8711-Olive-St-70118/home/79278306,GSREIN,2467172,N,Y,29.9675306,-90.118006
MLS Listing,,Single Family Residential,923 Alabo St,New Orleans,LA,70117,129000,2,1.0,New Orleans,900,2818,1954,8,143,,Active,,,https://www.redfin.com/LA/New-Orleans/923-Alabo-St-70117/home/79213793,GSREIN,2466860,N,Y,29.9588473,-90.0133925
MLS Listing,,Single Family Residential,6326 Pandora St,New Orleans,LA,70126,345000,5,3.0,New Orleans,2695,,1958,8,128,,Active,,,https://www.redfin.com/LA/New-Orleans/6326-Pandora-St-70126/home/85438926,GSREIN,2466914,N,Y,30.0259399,-90.0183914
MLS Listing,,Single Family Residential,1833 St Ferdinand St,New Orleans,LA,70117,239900,4,2.5,New Orleans,1550,3410,1950,8,155,,Active,,,https://www.redfin.com/LA/New-Orleans/1833-Saint-Ferdinand-St-70117/home/185222528,GSREIN,2467026,N,Y,29.9763973,-90.0456935
MLS Listing,,Vacant Land,3526 N Prieur St,New Orleans,LA,70117,25000,0,,New Orleans,,1920,,8,,,Active,,,https://www.redfin.com/LA/New-Orleans/3526-N-Prieur-St-70117/home/85453371,GSREIN,2467136,N,Y,29.974496,-90.0365994
MLS Listing,,Single Family Residential,3828 Mimosa Dr,New Orleans,LA,70131,245000,4,2.5,Tall Timbers,2605,7169,1974,8,94,15,Active,,,https://www.redfin.com/LA/New-Orleans/3828-Mimosa-Dr-70131/home/79378073,GSREIN,2466981,N,Y,29.9043933,-89.9971745
MLS Listing,,Single Family Residential,3712 Calhoun St,New Orleans,LA,70125,350000,3,2.0,New Orleans,1426,3031,1933,8,245,,Active,,,https://www.redfin.com/LA/New-Orleans/3712-Calhoun-St-70125/home/79189862,GSREIN,2467131,N,Y,29.9521839,-90.1108225
MLS Listing,,Single Family Residential,2816 Leonidas St,New Orleans,LA,70118,235000,2,2.0,New Orleans,958,4499,1918,8,245,,Active,,,https://www.redfin.com/LA/New-Orleans/2816-Leonidas-St-70118/home/85498937,GSREIN,2467118,N,Y,29.9627733,-90.1214418
MLS Listing,,Single Family Residential,2621 Danbury Dr,New Orleans,LA,70131,399000,4,3.5,Aurora Gardens,3090,7954,1968,8,129,,Active,September-21-2024 12:00 PM,September-21-2024 02:00 PM,https://www.redfin.com/LA/New-Orleans/2621-Danbury-Dr-70131/home/85480375,GSREIN,2467080,N,Y,29.9267282,-89.9986399
MLS Listing,,Multi-Family (2-4 Unit),8434-36 Jeannette St,New Orleans,LA,70118,375000,4,2.0,New Orleans,1561,,1940,8,240,,Active,,,https://www.redfin.com/LA/New-Orleans/8434-Jeannette-St-70118/home/85496500,GSREIN,2467101,N,Y,29.9519231,-90.1307614
MLS Listing,,Condo/Co-op,3400 Magazine St #15,New Orleans,LA,70115,362500,2,2.0,New Orleans,1054,975,1875,8,344,649,Active,,,https://www.redfin.com/LA/New-Orleans/3400-Magazine-St-70115/unit-15/home/85485764,GSREIN,2466861,N,Y,29.9227036,-90.0890181
MLS Listing,,Vacant Land,2305 Flood St,New Orleans,LA,70117,14000,0,,New Orleans,4030,,,9,3,,Active,,,https://www.redfin.com/LA/New-Orleans/2305-Flood-St-70117/home/85455696,GSREIN,2466838,N,Y,29.9738228,-90.0124828
MLS Listing,,Multi-Family (2-4 Unit),6029-31 Marigny St,New Orleans,LA,70122,330000,6,4.0,New Orleans,2328,,1975,9,142,,Active,,,https://www.redfin.com/LA/New-Orleans/6029-Marigny-St-70122/home/192444876,GSREIN,2467082,N,Y,30.0207208,-90.0594542
MLS Listing,,Single Family Residential,1836 Milan St,New Orleans,LA,70115,1295000,4,4.0,New Orleans,4736,,1900,9,273,,Active,September-18-2024 11:30 AM,September-18-2024 02:00 PM,https://www.redfin.com/LA/New-Orleans/1836-Milan-St-70115/home/85487989,GSREIN,2466968,N,Y,29.9295347,-90.1002047
MLS Listing,,Multi-Family (2-4 Unit),"2618-20 Martin L King, Jr Blvd",New Orleans,LA,70113,135000,16,4.0,New Orleans,5130,,1925,9,26,,Active,,,https://www.redfin.com/LA/New-Orleans/2618-Martin-Luther-King-Jr-Blvd-70113/home/85407609,GSREIN,2467058,N,Y,29.9445487,-90.0856865
MLS Listing,,Condo/Co-op,1111 Tulane Ave #721,New Orleans,LA,70112,845000,2,2.0,New Orleans,1265,,1950,9,668,810,Active,,,https://www.redfin.com/LA/New-Orleans/1111-Tulane-Ave-70112/unit-721/home/183405036,GSREIN,2466708,N,Y,29.9545479,-90.0743526
MLS Listing,,Single Family Residential,2051 Hope St,New Orleans,LA,70119,109000,3,1.0,New Orleans,1428,5087,1930,9,76,,Active,,,https://www.redfin.com/LA/New-Orleans/2051-Hope-St-70119/home/85424355,GSREIN,2466982,N,Y,29.9847128,-90.063396
MLS Listing,,Multi-Family (2-4 Unit),2620 0 S Galvez St,New Orleans,LA,70125,275000,2,1.0,Huffman Triangle,1130,,1946,9,243,,Active,,,https://www.redfin.com/LA/New-Orleans/2620-S-Galvez-St-70125/home/79210707,GSREIN,2463903,N,Y,29.9468766,-90.0961432
MLS Listing,,Single Family Residential,16 N Mariners Cove Cv,New Orleans,LA,70124,379000,4,3.0,New Orleans,2550,,2000,9,149,293,Active,,,https://www.redfin.com/LA/New-Orleans/16-Mariners-Cv-N-70124/home/79252569,GSREIN,2466769,N,Y,30.0210937,-90.1201732
MLS Listing,,Single Family Residential,8116-18 Freret St,New Orleans,LA,70118,495000,4,2.0,New Orleans,2040,4499,1920,9,243,,Active,,,https://www.redfin.com/LA/New-Orleans/8116-Freret-St-70118/home/85495967,GSREIN,2467039,N,Y,29.9461728,-90.1320459
MLS Listing,,Single Family Residential,4033 Odin St,New Orleans,LA,70126,245000,3,2.0,New Orleans,1124,5227,1960,9,218,,Active,,,https://www.redfin.com/LA/New-Orleans/4033-Odin-St-70126/home/85512626,GBRMLS,2024017130,N,Y,30.0167552,-90.043544
MLS Listing,,Single Family Residential,3308 Lamarque St,New Orleans,LA,70114,89900,2,1.0,New Orleans,1128,33541,1950,9,80,,Active,,,https://www.redfin.com/LA/New-Orleans/3308-Lamarque-St-70114/home/85476917,GSREIN,2467010,N,Y,29.9417438,-90.0210071
MLS Listing,,Single Family Residential,913 N Robertson St,New Orleans,LA,70116,400000,3,3.5,New Orleans,1850,1446,2018,9,216,,Active,September-18-2024 02:00 AM,September-18-2024 05:00 PM,https://www.redfin.com/LA/New-Orleans/913-N-Robertson-St-70116/home/85416316,GSREIN,2466821,N,Y,29.9651588,-90.0710452
MLS Listing,,Single Family Residential,716 Dumaine St,New Orleans,LA,70116,850000,5,4.0,New Orleans,2993,,1922,9,284,,Active,,,https://www.redfin.com/LA/New-Orleans/716-Dumaine-St-70116/home/85415685,GSREIN,2466673,N,Y,29.959708,-90.0639202
MLS Listing,,Single Family Residential,6730 Dorian St,New Orleans,LA,70126,275000,2,2.5,New Orleans,1800,,2018,9,153,,Active,September-22-2024 01:00 PM,September-22-2024 03:00 PM,https://www.redfin.com/LA/New-Orleans/6730-Dorian-St-70126/home/85512208,GSREIN,2465870,N,Y,30.0223382,-90.0202574
MLS Listing,,Condo/Co-op,2100 St Charles Ave Unit 4N,New Orleans,LA,70130,190000,1,1.0,New Orleans,398,,1960,9,477,425,Active,,,https://www.redfin.com/LA/New-Orleans/2100-Saint-Charles-Ave-70130/unit-4N/home/192439674,GSREIN,2466768,N,Y,29.9341524,-90.0798752
MLS Listing,,Condo/Co-op,2427 Camp St Unit E,New Orleans,LA,70130,725000,2,2.0,New Orleans,1753,,1852,9,414,652,Active,,,https://www.redfin.com/LA/New-Orleans/2427-Camp-St-70130/unit-E/home/85468601,GSREIN,2466881,N,Y,29.92879,-90.0806303
MLS Listing,,Multi-Family (2-4 Unit),8335 37 S Claiborne Ave,New Orleans,LA,70118,260000,4,2.0,New Orleans,1809,,1930,9,144,,Active,,,https://www.redfin.com/LA/New-Orleans/8335-S-Claiborne-Ave-70118/home/79186018,GSREIN,2466980,N,Y,29.9582262,-90.1226751
MLS Listing,,Multi-Family (2-4 Unit),4104 06 Saint Claude Ave,New Orleans,LA,70117,419900,8,4.0,New Orleans,3615,3598,1933,9,116,,Active,,,https://www.redfin.com/LA/New-Orleans/4104-Saint-Claude-Ave-70117/home/85449660,GSREIN,2466792,N,Y,29.9651304,-90.0342013
MLS Listing,,Single Family Residential,1317 Nunez St,New Orleans,LA,70114,225000,5,2.0,New Orleans,1734,,1950,9,130,,Active,,,https://www.redfin.com/LA/New-Orleans/1317-Nunez-St-70114/home/85524554,GSREIN,2466728,N,Y,29.9417571,-90.0510261
MLS Listing,,Multi-Family (2-4 Unit),2556 58 Orleans Ave,New Orleans,LA,70119,529000,5,3.5,New Orleans,2900,,2023,9,182,,Active,,,https://www.redfin.com/LA/New-Orleans/2556-58-Orleans-Ave-70119/home/188991405,GSREIN,2466975,N,Y,29.9754204,-90.0896466
MLS Listing,,Multi-Family (5+ Unit),4909 11 Laurel St,New Orleans,LA,70115,799000,7,5.0,New Orleans,3457,,1928,9,231,,Active,,,https://www.redfin.com/LA/New-Orleans/4909-Laurel-St-70115/home/79284181,GSREIN,2466245,N,Y,29.918501,-90.1085061
MLS Listing,,Multi-Family (2-4 Unit),2423-2425 Annunciation St,New Orleans,LA,70130,850000,6,5.0,New Orleans,3008,,1917,9,283,,Active,September-18-2024 11:30 AM,September-18-2024 01:30 PM,https://www.redfin.com/LA/New-Orleans/2423-Annunciation-St-70130/home/79236188,GSREIN,2466863,N,Y,29.9253174,-90.077899
MLS Listing,,Single Family Residential,6432 Milne Blvd,New Orleans,LA,70124,350000,3,2.5,New Orleans,1701,3001,1985,9,206,,Active,,,https://www.redfin.com/LA/New-Orleans/6432-Milne-Blvd-70124/home/79260463,GSREIN,2466093,N,Y,30.0083507,-90.1124167
MLS Listing,,Condo/Co-op,524 St. Philip St,New Orleans,LA,70116,649900,2,2.5,New Orleans,1738,,1845,9,374,905,Active,,,https://www.redfin.com/LA/New-Orleans/524-Saint-Philip-St-70116/Ph/home/191479201,GSREIN,2466949,N,Y,29.9592654,-90.061447
MLS Listing,,Single Family Residential,2711 Wabash St,New Orleans,LA,70114,389000,3,3.5,Real Timbers,3200,7200,1980,9,122,8,Active,,,https://www.redfin.com/LA/New-Orleans/2711-Wabash-St-70114/home/85475598,GSREIN,2464925,N,Y,29.9270871,-90.0317744
MLS Listing,,Multi-Family (2-4 Unit),8901 03 Dinkins St,New Orleans,LA,70127,230000,5,2.0,Lake Barrington,2165,5841,1979,10,106,,Active,,,https://www.redfin.com/LA/New-Orleans/8901-Dinkins-St-70127/home/79246464,GSREIN,2466870,N,Y,30.042742,-89.993601
MLS Listing,,Single Family Residential,2561 New York St,New Orleans,LA,70122,280000,3,2.0,New Orleans,1516,,2007,10,185,,Active,,,https://www.redfin.com/LA/New-Orleans/2561-New-York-St-70122/home/85436875,GSREIN,2466762,N,Y,30.0248999,-90.0527096
MLS Listing,,Single Family Residential,4031 Hamburg St,New Orleans,LA,70122,137000,3,2.0,New Orleans,1610,6534,2006,10,85,,Active,,,https://www.redfin.com/LA/New-Orleans/4031-Hamburg-St-70122/home/85427089,GSREIN,2443428,N,Y,29.9988756,-90.074773
MLS Listing,,Single Family Residential,3132 Napoleon Ave,New Orleans,LA,70125,438000,3,2.0,New Orleans,2157,,1950,11,203,,Active,,,https://www.redfin.com/LA/New-Orleans/3132-Napoleon-Ave-70125/home/85490227,GSREIN,2465333,N,Y,29.9420397,-90.1040487
MLS Listing,,Multi-Family (2-4 Unit),622-624 S Pierce St,New Orleans,LA,70119,489000,6,6.0,New Orleans,2430,,2023,11,201,,Active,,,https://www.redfin.com/LA/New-Orleans/622-S-Pierce-St-70119/home/185803979,GSREIN,2466880,N,Y,29.9689037,-90.103552
MLS Listing,,Condo/Co-op,220 Decatur St #407,New Orleans,LA,70130,535000,2,2.0,New Orleans,949,,1867,11,564,311,Active,,,https://www.redfin.com/LA/New-Orleans/220-Decatur-St-70130/unit-407/home/122683510,GSREIN,2466442,N,Y,29.9531006,-90.0658632
MLS Listing,,Single Family Residential,1725 St. Andrew St Unit C,New Orleans,LA,70113,449000,3,3.0,New Orleans,1330,,2023,11,338,,Active,,,https://www.redfin.com/LA/New-Orleans/1725-Saint-Andrew-St-70113/unit-C/home/187312160,GSREIN,2466875,N,Y,29.9367834,-90.080135
MLS Listing,,Condo/Co-op,3914 Audubon Trce #3914,Jefferson,LA,70121,249000,1,1.0,Jefferson,1018,,1984,11,245,447,Active,September-22-2024 03:30 PM,September-22-2024 05:00 PM,https://www.redfin.com/LA/New-Orleans/3914-Audubon-Trce-70121/unit-3914/home/79197085,GSREIN,2463724,N,Y,29.960274,-90.168374
MLS Listing,,Single Family Residential,1215 St Denis St,New Orleans,LA,70122,449000,4,3.0,New Orleans,2074,,2024,11,216,,Active,,,https://www.redfin.com/LA/New-Orleans/1215-Saint-Denis-St-70122/home/85426131,GSREIN,2466866,N,Y,29.994701,-90.0823351
MLS Listing,,Single Family Residential,617 Tupelo St,New Orleans,LA,70117,249000,2,2.0,New Orleans,1075,,1928,11,232,,Active,,,https://www.redfin.com/LA/New-Orleans/617-Tupelo-St-70117/home/85447817,GSREIN,2466855,N,Y,29.9554356,-90.0131057
MLS Listing,,Single Family Residential,541 Burgundy St,New Orleans,LA,70112,1595000,3,4.0,New Orleans,3481,,1840,11,458,,Active,,,https://www.redfin.com/LA/New-Orleans/541-Burgundy-St-70112/home/85518921,GSREIN,2466334,N,Y,29.959017,-90.0683447
MLS Listing,,Single Family Residential,5022 St Bernard Ave,New Orleans,LA,70122,374000,3,2.0,New Orleans,1798,,1960,11,208,,Active,September-18-2024 11:00 AM,September-18-2024 01:00 PM,https://www.redfin.com/LA/New-Orleans/5022-Saint-Bernard-Ave-70122/home/85520243,GSREIN,2466657,N,Y,30.0082529,-90.0829739
MLS Listing,,Single Family Residential,5710 Louis Prima Ct,New Orleans,LA,70128,255000,4,2.0,New Orleans,2231,6751,1980,11,114,,Active,,,https://www.redfin.com/LA/New-Orleans/5710-Louis-Prima-Ct-70128/home/85445710,GSREIN,2465818,N,Y,30.0376042,-89.9577388
MLS Listing,,Townhouse,6218 20 Colbert St,New Orleans,LA,70124,495000,6,5.0,New Orleans,3761,6451,1980,12,132,,Active,September-18-2024 12:00 PM,September-18-2024 02:00 PM,https://www.redfin.com/LA/New-Orleans/6218-Colbert-St-70124/home/147686221,GSREIN,2466721,N,Y,30.0037123,-90.1117143
MLS Listing,,Single Family Residential,1725 St. Andrew St Unit D,New Orleans,LA,70113,449000,3,3.0,New Orleans,1330,,2023,12,338,,Active,,,https://www.redfin.com/LA/New-Orleans/1725-Saint-Andrew-St-70113/unit-D/home/188807712,GSREIN,2466781,N,Y,29.936783,-90.08013
MLS Listing,,Single Family Residential,1725 St. Andrew St Unit E,New Orleans,LA,70113,449000,3,3.0,New Orleans,1330,,2023,12,338,,Active,,,https://www.redfin.com/LA/New-Orleans/1725-Saint-Andrew-St-70113/unit-E/home/188807506,GSREIN,2466777,N,Y,29.936783,-90.08013
MLS Listing,,Single Family Residential,11 Lasalle Pl,New Orleans,LA,70118,4995000,4,4.5,New Orleans,5446,,1910,12,917,,Active,,,https://www.redfin.com/LA/New-Orleans/11-Lasalle-Pl-70118/home/85493259,GSREIN,2466136,N,Y,29.9360806,-90.1171566
MLS Listing,,Single Family Residential,5124 Painters St,New Orleans,LA,70122,259000,2,1.0,Gentilly Terrace,943,5950,1977,12,275,,Active,,,https://www.redfin.com/LA/New-Orleans/5124-Painters-St-70122/home/85520876,GSREIN,2466626,N,Y,30.0109064,-90.0530056
MLS Listing,,Multi-Family (2-4 Unit),1307 Red Allen Way,New Orleans,LA,70114,379000,3,3.0,New Orleans,2462,,2023,12,154,,Active,,,https://www.redfin.com/LA/New-Orleans/1307-Slidell-St-70114/home/85473351,GSREIN,2466549,N,Y,29.9471951,-90.0425493
MLS Listing,,Single Family Residential,1021 Euterpe St,New Orleans,LA,70130,628700,3,2.5,New Orleans,1769,,1940,12,355,,Active,,,https://www.redfin.com/LA/New-Orleans/1021-Euterpe-St-70130/home/88435954,GSREIN,2466202,N,Y,29.9354801,-90.0714468
MLS Listing,,Multi-Family (2-4 Unit),4128-30 Gen Ogden St,New Orleans,LA,70118,319900,8,4.0,New Orleans,3200,,1951,12,100,,Active,,,https://www.redfin.com/LA/New-Orleans/4128-General-Ogden-St-70118/home/85517259,GSREIN,2466689,N,Y,29.974116,-90.1139186
MLS Listing,,Single Family Residential,5716 Wingate Dr,New Orleans,LA,70122,195000,4,2.0,New Orleans,1123,,1955,12,174,,Active,,,https://www.redfin.com/LA/New-Orleans/5716-Wingate-Dr-70122/home/85428678,GSREIN,2466714,N,Y,30.01702,-90.0681512
MLS Listing,,Multi-Family (2-4 Unit),1227 29 Carondelet St,New Orleans,LA,70130,350000,8,4.0,New Orleans,3252,,1890,12,108,,Active,,,https://www.redfin.com/LA/New-Orleans/1227-Carondelet-St-70130/home/85408272,GSREIN,2465677,N,Y,29.9416039,-90.0756231
MLS Listing,,Single Family Residential,7511 Arbor Dr,New Orleans,LA,70126,369000,5,3.0,New Orleans,3074,12144,2024,12,120,,Active,,,https://www.redfin.com/LA/New-Orleans/7511-Arbor-Dr-70126/home/85441047,GSREIN,2466512,N,Y,30.0284999,-90.0038281
MLS Listing,,Single Family Residential,308 Rural St,River Ridge,LA,70123,369000,3,2.0,River Ridge,1680,8380,1976,12,220,,Active,,,https://www.redfin.com/LA/New-Orleans/308-Rural-St-70123/home/85244148,GSREIN,2466639,N,Y,29.9481553,-90.2122258
MLS Listing,,Vacant Land,7512 Adventure Ave,New Orleans,LA,70129,50000,0,,New Orleans,,,,12,,,Active,,,https://www.redfin.com/LA/New-Orleans/7512-Adventure-Ave-70129/home/85523797,GSREIN,2466637,N,Y,30.0610154,-89.9268905
MLS Listing,,Vacant Land,2318 Vienna St,New Orleans,LA,70122,59000,0,,New Orleans,5440,5440,,12,11,,Active,,,https://www.redfin.com/LA/New-Orleans/2318-Vienna-St-70122/home/171370098,GSREIN,2466666,N,Y,30.019782,-90.057942
MLS Listing,,Single Family Residential,2259 Humanity St,New Orleans,LA,70122,210000,4,2.0,New Orleans,1400,7461,1950,12,150,,Active,,,https://www.redfin.com/LA/New-Orleans/2259-Humanity-St-70122/home/85433015,GSREIN,2466467,N,Y,29.9922311,-90.0569207
MLS Listing,,Single Family Residential,1504 Audubon St,New Orleans,LA,70118,695000,4,2.5,New Orleans,2521,5998,1900,12,276,,Active,,,https://www.redfin.com/LA/New-Orleans/1504-Audubon-St-70118/home/85494575,GSREIN,2464661,N,Y,29.944377,-90.1204164
MLS Listing,,Single Family Residential,4108 N Robertson St,New Orleans,LA,70117,135000,2,1.0,New Orleans,872,,1954,12,155,,Active,,,https://www.redfin.com/LA/New-Orleans/4108-N-Robertson-St-70117/home/79327078,GSREIN,2466648,N,Y,29.9692389,-90.033036
MLS Listing,,Vacant Land,238 26th St,New Orleans,LA,70124,299000,0,,New Orleans,,,,12,,,Active,,,https://www.redfin.com/LA/New-Orleans/238-26th-St-70124/home/85501025,GSREIN,2466642,N,Y,30.006319,-90.118075
MLS Listing,,Single Family Residential,7025 Queensway Dr,New Orleans,LA,70128,194000,3,2.0,Kingswood,1769,,1983,12,110,35,Active,,,https://www.redfin.com/LA/New-Orleans/7025-Queensway-Dr-70128/home/85444359,GSREIN,2466640,N,Y,30.0584944,-89.9472821
MLS Listing,,Multi-Family (2-4 Unit),4024 26 Baudin St,New Orleans,LA,70119,375000,4,2.0,New Orleans,1890,,1915,12,198,,Active,,,https://www.redfin.com/LA/New-Orleans/4024-Baudin-St-70119/home/79178377,GSREIN,2466201,N,Y,29.9705055,-90.1032486
MLS Listing,,Single Family Residential,3221 N Miro St,New Orleans,LA,70117,134900,3,2.0,New Orleans,1030,,1951,13,131,,Active,,,https://www.redfin.com/LA/New-Orleans/3221-N-Miro-St-70117/home/79315957,GSREIN,2466571,N,Y,29.9785598,-90.0384304
MLS Listing,,Single Family Residential,8218 Burthe St,New Orleans,LA,70118,619000,2,1.5,New Orleans,1729,,2012,13,358,,Active,,,https://www.redfin.com/LA/New-Orleans/8218-Burthe-St-70118/home/79346956,GSREIN,2466618,N,Y,29.9461379,-90.1334923
MLS Listing,,Condo/Co-op,1115 Prytania St #102,New Orleans,LA,70130,349000,2,2.0,New Orleans,1077,,1842,13,324,733,Active,,,https://www.redfin.com/LA/New-Orleans/1115-Margaret-Pl-70130/unit-102/home/79272111,GSREIN,2466604,N,Y,29.9412016,-90.0722392
MLS Listing,,Multi-Family (2-4 Unit),1213-15 St Denis St,New Orleans,LA,70122,449000,4,3.0,New Orleans,2074,,2024,13,216,,Active,,,https://www.redfin.com/LA/New-Orleans/1213-Saint-Denis-St-70122/home/192381765,GSREIN,2465235,N,Y,29.9946777,-90.0823823
MLS Listing,,Condo/Co-op,700 Commerce St #223,New Orleans,LA,70130,259000,2,1.0,New Orleans,820,,1912,13,316,426,Active,,,https://www.redfin.com/LA/New-Orleans/700-Commerce-St-70130/unit-223/home/79410537,GSREIN,2466592,N,Y,29.9459099,-90.0664464
MLS Listing,,Single Family Residential,13617 N Cavelier Dr,New Orleans,LA,70129,170000,3,2.0,New Orleans,1400,4199,2001,13,121,,Active,,,https://www.redfin.com/LA/New-Orleans/13617-N-Cavelier-Dr-70129/home/79205187,GSREIN,2466191,N,Y,30.0590667,-89.9325995
MLS Listing,,Single Family Residential,1705 Tupelo St,New Orleans,LA,70117,170000,3,1.0,New Orleans,1300,,1992,13,131,,Active,,,https://www.redfin.com/LA/New-Orleans/1705-Tupelo-St-70117/home/85453035,GSREIN,2466562,N,Y,29.9657144,-90.008133
MLS Listing,,Vacant Land,21639 Chef Menteur Hwy,New Orleans,LA,70129,75000,0,,New Orleans,,,,13,,,Active,,,https://www.redfin.com/LA/New-Orleans/21639-Chef-Menteur-Hwy-70129/home/85514502,GSREIN,2462514,N,Y,30.0783453,-89.7934652
MLS Listing,,Vacant Land,Lot 5A Behrman Hwy,Gretna,LA,70056,3900000,0,,Elmwood,,487871,,13,,,Active,,,https://www.redfin.com/LA/Gretna/Lot-5A-Behrman-Hwy-70056/home/175098915,GSREIN,2466583,N,Y,29.905004,-90.0184467
MLS Listing,,Vacant Land,1325201 Wall Blvd,New Orleans,LA,70114,52000,0,,New Orleans,,56113,,13,,,Active,,,https://www.redfin.com/LA/New-Orleans/1325201-Wall-Blvd-70114/home/85508063,GSREIN,2466021,N,Y,29.9355195,-90.0230778
MLS Listing,,Single Family Residential,7001 E Tamaron Blvd,New Orleans,LA,70128,325000,3,3.5,New Orleans,2650,,1987,13,123,21,Active,,,https://www.redfin.com/LA/New-Orleans/7001-E-Tamaron-Blvd-70128/home/85521920,GSREIN,2466119,N,Y,30.0551997,-89.9482151
MLS Listing,,Single Family Residential,17 Labarre Pl,Jefferson,LA,70121,204999,4,2.0,Jefferson,1496,4769,1983,13,137,,Active,,,https://www.redfin.com/LA/New-Orleans/17-Labarre-Pl-70121/home/85149419,GSREIN,2466552,N,Y,29.9642722,-90.153327
MLS Listing,,Single Family Residential,162 Sauve Rd,River Ridge,LA,70123,379000,2,2.0,River Ridge,1230,,1945,13,308,,Active,,,https://www.redfin.com/LA/New-Orleans/162-Sauve-Rd-70123/home/79250528,GSREIN,2465048,N,Y,29.9629536,-90.2182767
MLS Listing,,Condo/Co-op,923 Elysian Fields Ave Unit B,New Orleans,LA,70117,365000,2,1.5,New Orleans,1350,2208,1917,13,270,555,Active,September-21-2024 11:00 AM,September-21-2024 01:00 PM,https://www.redfin.com/LA/New-Orleans/923-Elysian-Fields-Ave-70117/unit-B/home/85520433,GSREIN,2466530,N,Y,29.9670967,-90.0564592
MLS Listing,,Single Family Residential,6065 Wickfield Dr,New Orleans,LA,70122,407000,3,2.5,New Orleans,1900,4599,2024,13,214,,Active,September-21-2024 12:00 PM,September-21-2024 02:00 PM,https://www.redfin.com/LA/New-Orleans/6065-Wickfield-Dr-70122/home/85428730,GSREIN,2466518,N,Y,30.0210687,-90.0687826
MLS Listing,,Single Family Residential,4653 Dale St,New Orleans,LA,70126,150000,3,1.0,New Orleans,1068,,2007,13,140,,Active,,,https://www.redfin.com/LA/New-Orleans/4653-Dale-St-70126/home/85514279,GSREIN,2466294,N,Y,30.0184111,-90.0103198
MLS Listing,,Condo/Co-op,1115 Prytania St #101,New Orleans,LA,70130,355000,2,2.0,New Orleans,1059,,1842,13,335,801,Active,,,https://www.redfin.com/LA/New-Orleans/1115-Margaret-Pl-70130/unit-101/home/79221457,GSREIN,2466503,N,Y,29.9412016,-90.0722392
MLS Listing,,Single Family Residential,1119 N Dupre St,New Orleans,LA,70119,699000,5,3.0,New Orleans,3394,,1894,13,206,,Active,,,https://www.redfin.com/LA/New-Orleans/1119-N-Dupre-St-70119/home/85420178,GSREIN,2466101,N,Y,29.9763393,-90.0824843
MLS Listing,,Multi-Family (2-4 Unit),2245 47 N Galvez St,New Orleans,LA,70117,159000,4,2.0,New Orleans,1337,,1950,13,119,,Active,,,https://www.redfin.com/LA/New-Orleans/2245-N-Galvez-St-70117/home/79208951,GSREIN,2466498,N,Y,29.9789727,-90.0560095
MLS Listing,,Single Family Residential,7420 Seven Oaks Rd,New Orleans,LA,70128,292000,4,2.0,Lake Barrington,2781,7853,1992,13,105,,Active,,,https://www.redfin.com/LA/New-Orleans/7420-Seven-Oaks-Rd-70128/home/85443220,GSREIN,2466428,N,Y,30.0474487,-89.9690057
MLS Listing,,Single Family Residential,615 Tricou Street St,New Orleans,LA,70117,274900,3,2.0,New Orleans,1531,3327,1913,13,180,,Active,,,https://www.redfin.com/LA/New-Orleans/615-Tricou-St-70117/home/79444484,GSREIN,2466379,N,Y,29.9546482,-90.011159
MLS Listing,,Single Family Residential,5501 Woodlawn Pl,New Orleans,LA,70124,349900,3,2.0,New Orleans,985,2591,1941,13,355,,Active,September-21-2024 11:00 AM,September-21-2024 01:00 PM,https://www.redfin.com/LA/New-Orleans/5501-Woodlawn-Pl-70124/home/79395344,GSREIN,2466370,N,Y,29.990333,-90.1118321
MLS Listing,,Single Family Residential,3306 Trafalgar St,New Orleans,LA,70112,289900,3,2.0,Genoa Plaza,1790,,1960,13,162,,Active,,,https://www.redfin.com/LA/New-Orleans/3306-Trafalgar-St-70119/home/85424810,GSREIN,2466303,N,Y,29.9874644,-90.0788817
MLS Listing,,Condo/Co-op,1629 Washington Ave #110,New Orleans,LA,70130,224500,1,1.0,New Orleans,562,,1963,13,399,334,Active,,,https://www.redfin.com/LA/New-Orleans/1629-Washington-Ave-70130/unit-110/home/189461221,GSREIN,2466447,N,Y,29.9317923,-90.0862477
MLS Listing,,Multi-Family (2-4 Unit),3143 45 Dauphine St,New Orleans,LA,70117,598400,4,3.0,Bywater,2276,,1900,13,263,,Active,,,https://www.redfin.com/LA/New-Orleans/3143-Dauphine-St-70117/home/85448468,GSREIN,2466121,N,Y,29.9642681,-90.0440949
MLS Listing,,Vacant Land,100 Cambridge Ct,New Orleans,LA,70131,89900,0,,New Orleans,,,,13,,,Active,,,https://www.redfin.com/LA/New-Orleans/100-Cambridge-Ct-70131/home/85478418,GSREIN,2466463,N,Y,29.919029,-89.992437
MLS Listing,,Single Family Residential,4220 Murano Rd,New Orleans,LA,70129,339000,4,3.5,Venetian Isles,2984,11691,1985,13,114,,Active,,,https://www.redfin.com/LA/New-Orleans/4220-Murano-Rd-70129/home/85464576,GSREIN,2466341,N,Y,30.0663455,-89.8154687
MLS Listing,,Vacant Land,1907 Casa Calvo St,New Orleans,LA,70114,59500,0,,New Orleans,,5898,,13,,,Active,,,https://www.redfin.com/LA/New-Orleans/1907-Casa-Calvo-St-70114/home/79407373,GSREIN,2466456,N,Y,29.93514,-90.03556
MLS Listing,,Single Family Residential,2711 D'abadie St,New Orleans,LA,70119,260000,3,1.0,New Orleans,1482,3001,1950,13,175,,Active,,,https://www.redfin.com/LA/New-Orleans/2711-Dabadie-St-70119/home/85423537,GSREIN,2463971,N,Y,29.9818684,-90.0750234
MLS Listing,,Multi-Family (2-4 Unit),5234-36 Pitt St,New Orleans,LA,70115,875000,5,4.5,New Orleans,4378,,1920,13,200,,Active,,,https://www.redfin.com/LA/New-Orleans/5234-Pitt-St-70115/home/85487251,GSREIN,2465813,N,Y,29.9252208,-90.1117237
MLS Listing,,Single Family Residential,930 Andry St,New Orleans,LA,70117,126000,2,2.0,New Orleans,944,3201,1940,13,133,,Active,,,https://www.redfin.com/LA/New-Orleans/930-Andry-St-70117/home/79179497,GSREIN,2464216,N,Y,29.9602918,-90.0192193
MLS Listing,,Vacant Land,202 English Turn Dr,New Orleans,LA,70131,115000,0,,English Turn,,19554,,13,,233,Active,,,https://www.redfin.com/LA/New-Orleans/202-English-Turn-Dr-70131/home/79230062,GSREIN,2466109,N,Y,29.900631,-89.950566
MLS Listing,,Condo/Co-op,2721 St Charles Ave Unit 1A,New Orleans,LA,70130,295000,1,1.0,New Orleans,870,,1983,13,339,296,Active,,,https://www.redfin.com/LA/New-Orleans/2721-Saint-Charles-Ave-70130/unit-1A/home/79407894,GSREIN,2465961,N,Y,29.9314886,-90.0859419
MLS Listing,,Single Family Residential,1718 Kabel Dr,New Orleans,LA,70131,219000,3,2.0,Oak Ridge Park,1552,,1960,14,141,,Active,,,https://www.redfin.com/LA/New-Orleans/1718-Kabel-Dr-70131/home/85477474,GSREIN,2466415,N,Y,29.9272047,-90.0074483
MLS Listing,,Single Family Residential,7910 Windward Ct,New Orleans,LA,70128,208000,3,2.0,New Orleans,2007,5000,1978,14,104,,Active,,,https://www.redfin.com/LA/New-Orleans/7910-Windward-Ct-70128/home/85443875,GSREIN,2465997,N,Y,30.0610077,-89.9605184
MLS Listing,,Multi-Family (2-4 Unit),400-402 Tacoma St,New Orleans,LA,70124,465000,6,4.0,Lakeview,3276,5000,1965,14,142,,Active,,,https://www.redfin.com/LA/New-Orleans/400-Tacoma-St-70124/home/85502144,GSREIN,2465582,N,Y,30.0100568,-90.1200351
MLS Listing,,Townhouse,7240 Bundy Rd,New Orleans,LA,70127,245000,6,5.0,Somerset Park,3344,8772,1978,14,73,,Active,,,https://www.redfin.com/LA/New-Orleans/7240-Bundy-Rd-70127/home/85441483,GSREIN,2465973,N,Y,30.0380472,-89.9881793
MLS Listing,,Single Family Residential,1900 St Philip St,New Orleans,LA,70116,420000,4,3.0,New Orleans,2100,,1923,14,200,,Active,,,https://www.redfin.com/LA/New-Orleans/1900-Saint-Philip-St-70116/home/85415852,GSREIN,2466399,N,Y,29.9676078,-90.0732789
MLS Listing,,Single Family Residential,4320 Alba Rd,New Orleans,LA,70129,340000,4,2.0,New Orleans,1806,9435,1993,14,188,,Active,,,https://www.redfin.com/LA/New-Orleans/4320-Alba-Rd-70129/home/85465003,GSREIN,2466389,N,Y,30.065762,-89.8135889
MLS Listing,,Single Family Residential,5835 Lafaye St,New Orleans,LA,70122,350000,3,2.5,New Orleans,1711,2613,2018,14,205,,Active,,,https://www.redfin.com/LA/New-Orleans/5835-Lafaye-St-70122/home/85520960,GBRMLS,2024016910,N,Y,30.0193278,-90.0491087
MLS Listing,,Single Family Residential,748 Allen Toussaint Blvd,New Orleans,LA,70124,899000,4,4.0,Lakeview,3370,,2015,14,267,,Active,,,https://www.redfin.com/LA/New-Orleans/748-Allen-Toussaint-Blvd-70124/home/85518721,GSREIN,2463901,N,Y,30.0190813,-90.1047012
MLS Listing,,Multi-Family (2-4 Unit),2437 Governor Nicholls St,New Orleans,LA,70119,225000,4,2.0,New Orleans,1209,2548,1975,14,186,,Active,,,https://www.redfin.com/LA/New-Orleans/2437-Governor-Nicholls-St-70119/home/85419883,GSREIN,2462039,N,Y,29.9727983,-90.0767143
MLS Listing,,Multi-Family (2-4 Unit),1820 22 N Derbigny St,New Orleans,LA,70116,340000,4,4.0,New Orleans,1802,,2021,14,189,,Active,,,https://www.redfin.com/LA/New-Orleans/1820-N-Derbigny-St-70116/home/85421475,GSREIN,2464511,N,Y,29.9741947,-90.0613937
MLS Listing,,Multi-Family (2-4 Unit),1108 10 Jena St,New Orleans,LA,70115,669000,5,4.0,New Orleans,1778,,2024,14,376,,Active,,,https://www.redfin.com/LA/New-Orleans/1108-10-Jena-St-70115/home/183186235,GSREIN,2466265,N,Y,29.929388,-90.1036337
MLS Listing,,Single Family Residential,4534 Camp St,New Orleans,LA,70115,865000,3,3.0,New Orleans,2275,3598,1884,14,380,,Active,September-18-2024 12:00 PM,September-18-2024 02:00 PM,https://www.redfin.com/LA/New-Orleans/4534-Camp-St-70115/home/79448116,GSREIN,2466128,N,Y,29.9214258,-90.1037102
MLS Listing,,Vacant Land,2430 St Thomas St,New Orleans,LA,70130,175000,0,,New Orleans,,2613,,14,,,Active,,,https://www.redfin.com/LA/New-Orleans/2430-Saint-Thomas-St-70130/home/85467047,GSREIN,2462616,N,Y,29.923284,-90.076682
MLS Listing,,Single Family Residential,2906 Conti St,New Orleans,LA,70119,245000,2,1.0,New Orleans,1100,,1935,14,223,,Active,,,https://www.redfin.com/LA/New-Orleans/2906-Conti-St-70119/home/85412177,GSREIN,2466344,N,Y,29.9695809,-90.0877091
MLS Listing,,Multi-Family (2-4 Unit),2734 Paris Ave,New Orleans,LA,70119,425000,1,1.5,New Orleans,1600,1319,1920,14,266,,Active,,,https://www.redfin.com/LA/New-Orleans/2734-Paris-Ave-70119/home/85423951,GSREIN,2466167,N,Y,29.9857754,-90.0729009
MLS Listing,,Single Family Residential,917 Vallette St,New Orleans,LA,70114,310000,3,2.5,New Orleans,1445,3001,2019,14,215,,Active,,,https://www.redfin.com/LA/New-Orleans/917-Vallette-St-70114/home/85473628,GSREIN,2466335,N,Y,29.9462244,-90.049529
MLS Listing,,Single Family Residential,5236 Pitt St,New Orleans,LA,70115,875000,5,4.5,New Orleans,4378,,1920,14,200,,Active,,,https://www.redfin.com/LA/New-Orleans/5236-Pitt-St-70115/home/187619625,GSREIN,2465803,N,Y,29.9251979,-90.1116551
MLS Listing,,Multi-Family (2-4 Unit),2427 Orleans Ave,New Orleans,LA,70119,484999,6,5.0,New Orleans,2924,,2015,14,166,,Active,September-18-2024 12:00 PM,September-18-2024 02:00 PM,https://www.redfin.com/LA/New-Orleans/2427-Orleans-Ave-70119/home/79452634,GSREIN,2466157,N,Y,29.968999,-90.0798076
MLS Listing,,Single Family Residential,3205 Octavia St,New Orleans,LA,70125,1100000,5,4.5,New Orleans,4695,8398,1940,14,234,,Active,September-18-2024 11:30 AM,September-18-2024 01:00 PM,https://www.redfin.com/LA/New-Orleans/3205-Octavia-St-70125/home/79170652,GSREIN,2466080,N,Y,29.9445645,-90.109577
MLS Listing,,Condo/Co-op,718 Barracks St #6,New Orleans,LA,70116,299000,1,1.0,FRENCH QUARTER,593,,1861,14,504,545,Active,,,https://www.redfin.com/LA/New-Orleans/718-Barracks-St-70116/unit-6/home/79184824,GSREIN,2465594,N,Y,29.9628963,-90.0610172
MLS Listing,,Vacant Land,2016 Port St,New Orleans,LA,70117,27000,0,,New Orleans,,4159,,14,,,Active,,,https://www.redfin.com/LA/New-Orleans/2016-Port-St-70117/home/79165096,GSREIN,2466298,N,Y,29.9782805,-90.0463946
MLS Listing,,Multi-Family (2-4 Unit),8604 06 International Ct,River Ridge,LA,70123,480000,5,3.5,River Ridge,2350,,1972,14,204,,Active,,,https://www.redfin.com/LA/New-Orleans/8604-International-Ct-70123/home/85178521,GSREIN,2466246,N,Y,29.9442847,-90.2112768
MLS Listing,,Vacant Land,1361 Prentiss Ave,New Orleans,LA,70122,172500,0,,New Orleans,,,,14,,,Active,,,https://www.redfin.com/LA/New-Orleans/1361-Prentiss-Ave-70122/home/85429506,GSREIN,2466273,N,Y,30.015886,-90.0802269
MLS Listing,,Vacant Land,1265 Sere St,New Orleans,LA,70122,65000,0,,New Orleans,,3998,,14,,,Active,,,https://www.redfin.com/LA/New-Orleans/1265-Sere-St-70122/home/85426644,GSREIN,2466251,N,Y,29.993768,-90.080974
MLS Listing,,Single Family Residential,7522 Adventure Ave,New Orleans,LA,70129,165000,2,2.0,New Orleans,1300,,1986,14,127,,Active,,,https://www.redfin.com/LA/New-Orleans/7522-Adventure-Ave-70129/home/85466108,GSREIN,2466182,N,Y,30.0610042,-89.9269169
MLS Listing,,Single Family Residential,9313 Riverlane Ln,River Ridge,LA,70123,360000,3,2.0,River Ridge,1600,,1980,14,225,,Active,,,https://www.redfin.com/LA/New-Orleans/9313-River-Ln-70123/home/85174113,GSREIN,2466238,N,Y,29.9495302,-90.2184961
MLS Listing,,Condo/Co-op,2205 Audubon Trce #2205,Jefferson,LA,70121,239000,2,1.5,Audubon,1288,2352,1985,14,186,547,Active,,,https://www.redfin.com/LA/New-Orleans/2205-Audubon-Trce-70121/unit-2205/home/85150548,GSREIN,2466162,N,Y,29.958531,-90.168385
MLS Listing,,Single Family Residential,1117 Verret St,New Orleans,LA,70114,299000,3,2.5,New Orleans,1450,,2022,14,206,,Active,,,https://www.redfin.com/LA/New-Orleans/1117-Verret-St-70114/home/85473813,GSREIN,2466138,N,Y,29.9440901,-90.0501026
MLS Listing,,Single Family Residential,8008 Brevard Ave,New Orleans,LA,70127,179000,3,2.0,New Orleans,1600,8001,1973,14,112,,Active,,,https://www.redfin.com/LA/New-Orleans/8008-Brevard-Ave-70127/home/85436596,GSREIN,2464088,N,Y,30.0454615,-89.9904926
MLS Listing,,Single Family Residential,1824 N Tonti St,New Orleans,LA,70119,65000,3,1.0,New Orleans,1092,3031,1930,14,60,,Active,,,https://www.redfin.com/LA/New-Orleans/1824-N-Tonti-St-70119/home/85422195,GSREIN,2466053,N,Y,29.979963,-90.0678829
MLS Listing,,Condo/Co-op,1629 Washington Ave #210,New Orleans,LA,70130,299000,2,2.0,New Orleans,915,,1963,14,327,541,Active,,,https://www.redfin.com/LA/New-Orleans/1629-Washington-Ave-70130/unit-210/home/189145631,GSREIN,2466143,N,Y,29.9317923,-90.0862477
MLS Listing,,Condo/Co-op,1629 Washington Ave #205,New Orleans,LA,70130,189000,1,1.0,New Orleans,557,,1963,14,339,331,Active,,,https://www.redfin.com/LA/New-Orleans/1629-Washington-Ave-70130/unit-205/home/189917636,GSREIN,2466043,N,Y,29.9313481,-90.0860489
MLS Listing,,Single Family Residential,1442 Lesseps St,New Orleans,LA,70117,329000,3,2.0,New Orleans,1676,3349,2016,14,196,,Active,September-21-2024 12:00 PM,September-21-2024 02:00 PM,https://www.redfin.com/LA/New-Orleans/1442-Lesseps-St-70117/home/105446485,GSREIN,2466221,N,Y,29.9689762,-90.0316102
MLS Listing,,Multi-Family (2-4 Unit),1308 12 France St,New Orleans,LA,70117,719000,12,8.0,New Orleans,4416,,2024,14,163,,Active,,,https://www.redfin.com/LA/New-Orleans/1308-12-France-St-70117/home/192355057,GSREIN,2466104,N,Y,29.97123,-90.0317504
MLS Listing,,Single Family Residential,1023 Harding Dr,New Orleans,LA,70119,1150000,5,4.0,New Orleans,3326,7244,1924,14,346,,Active,,,https://www.redfin.com/LA/New-Orleans/1023-Harding-Dr-70119/home/85417343,GSREIN,2466199,N,Y,29.9804403,-90.0895522
MLS Listing,,Single Family Residential,11010 Kinneil Rd,New Orleans,LA,70127,154500,3,2.0,New Orleans,1853,6120,1970,14,83,,Active,,,https://www.redfin.com/LA/New-Orleans/11010-Kinneil-Rd-70127/home/85443517,GSREIN,2466198,N,Y,30.0447603,-89.9717217
MLS Listing,,Multi-Family (2-4 Unit),2123 25 St. Ann St,New Orleans,LA,70116,295000,4,2.0,New Orleans,1512,,1920,15,195,,Active,,,https://www.redfin.com/LA/New-Orleans/2123-25-Saint-Ann-St-70116/home/192352448,GSREIN,2466165,N,Y,29.9637525,-90.0708952
MLS Listing,,Single Family Residential,4856 Desire Dr,New Orleans,LA,70126,89000,4,1.5,New Orleans,1412,,1970,15,63,,Active,,,https://www.redfin.com/LA/New-Orleans/4856-Desire-Dr-70126/home/85460911,GSREIN,2464585,N,Y,30.0106816,-90.0350723
MLS Listing,,Vacant Land,4221 Morris Pl,Jefferson,LA,70121,250000,0,,Jefferson,,13503,,15,,,Active,,,https://www.redfin.com/LA/New-Orleans/4221-Morris-Pl-70121/home/85148125,GSREIN,2465608,N,Y,29.9664332,-90.1707304
MLS Listing,,Single Family Residential,2227 D'abadie St,New Orleans,LA,70119,300000,3,2.0,New Orleans,1080,,2012,15,278,,Active,,,https://www.redfin.com/LA/New-Orleans/2227-Dabadie-St-70119/home/85422179,GSREIN,2465952,N,Y,29.9784534,-90.0700305
MLS Listing,,Vacant Land,Little Farms Ave,River Ridge,LA,70123,385000,0,,River Ridge,,,,15,,,Active,,,https://www.redfin.com/LA/New-Orleans/Little-Farms-Ave-70123/home/85195828,GSREIN,2465372,N,Y,29.973819,-90.216509
MLS Listing,,Single Family Residential,1016 Constantinople St,New Orleans,LA,70115,679000,3,3.0,New Orleans,1695,,,15,401,,Active,,,https://www.redfin.com/LA/New-Orleans/1016-Constantinople-St-70115/home/79452673,GSREIN,2464755,N,Y,29.9225619,-90.0972341
MLS Listing,,Single Family Residential,3522 Gibson St,New Orleans,LA,70122,325000,3,2.0,New Orleans,1325,,2019,15,245,,Active,,,https://www.redfin.com/LA/New-Orleans/3522-Gibson-St-70122/home/85425840,GSREIN,2457286,N,Y,29.9934325,-90.0759947
MLS Listing,,Single Family Residential,800 Park Ridge Dr,River Ridge,LA,70123,292000,3,2.0,River Ridge,1576,,1982,15,185,,Active,,,https://www.redfin.com/LA/New-Orleans/800-Park-Ridge-Dr-70123/home/85243681,GSREIN,2464989,N,Y,29.973117,-90.2276102
MLS Listing,,Multi-Family (2-4 Unit),5525 Spain St,New Orleans,LA,70122,229900,6,2.0,New Orleans,2456,6751,1958,15,94,,Active,,,https://www.redfin.com/LA/New-Orleans/5525-Spain-St-70122/home/79334747,GSREIN,2466102,N,Y,30.0154143,-90.0567235
MLS Listing,,Single Family Residential,2834 Upperline St,New Orleans,LA,70115,589000,3,2.5,New Orleans,2180,,1937,15,270,,Active,,,https://www.redfin.com/LA/New-Orleans/2834-Upperline-St-70115/home/82451645,GSREIN,2464537,N,Y,29.9386089,-90.1073697
MLS Listing,,Condo/Co-op,400 Millaudon St #400,New Orleans,LA,70118,490000,2,2.0,New Orleans,1700,,1930,15,288,,Active,,,https://www.redfin.com/LA/New-Orleans/400-Millaudon-St-70118/unit-400/home/179064887,GSREIN,2466089,N,Y,29.9373709,-90.1302909
MLS Listing,,Single Family Residential,6702 Beauregard Ave,New Orleans,LA,70124,1700000,5,4.0,New Orleans,4899,8411,1985,15,347,200,Active,,,https://www.redfin.com/LA/New-Orleans/6702-Beauregard-Ave-70124/home/85510408,GSREIN,2461737,N,Y,30.0253943,-90.0840033
MLS Listing,,Condo/Co-op,402 Millaudon St #402,New Orleans,LA,70118,490000,2,2.0,New Orleans,1700,,1930,15,288,,Active,,,https://www.redfin.com/LA/New-Orleans/402-Millaudon-St-70118/unit-402/home/185936123,GSREIN,2466103,N,Y,29.9373767,-90.1302862
MLS Listing,,Single Family Residential,3420 Trafalgar St,New Orleans,LA,70119,339500,3,2.0,New Orleans,1487,,1960,15,228,,Active,,,https://www.redfin.com/LA/New-Orleans/3420-Trafalgar-St-70119/home/85424805,GSREIN,2465031,N,Y,29.9875152,-90.0801531
MLS Listing,,Single Family Residential,5378 Chamberlain Dr,New Orleans,LA,70122,359000,4,2.0,Vista Park,2214,,1975,15,162,,Active,,,https://www.redfin.com/LA/New-Orleans/5378-Chamberlain-Dr-70122/home/85428570,GSREIN,2466099,N,Y,30.0123744,-90.073971
MLS Listing,,Multi-Family (2-4 Unit),5843 45 General Haig St,New Orleans,LA,70124,385000,5,2.0,Lakeview,2012,,1947,15,191,,Active,,,https://www.redfin.com/LA/New-Orleans/5843-General-Haig-St-70124/home/85477917,GSREIN,2466100,N,Y,29.9959963,-90.1021887
MLS Listing,,Single Family Residential,2122 2nd St,New Orleans,LA,70113,150000,2,2.0,,611,3450,1958,15,245,,Active,,,https://www.redfin.com/LA/New-Orleans/2122-Second-St-70113/home/192343628,AcadianaMLS,24008341,N,Y,29.936791,-90.0871521
MLS Listing,,Single Family Residential,1901 N Robertson St,New Orleans,LA,70116,349900,4,3.0,New Orleans,1847,,2023,15,189,,Active,,,https://www.redfin.com/LA/New-Orleans/1901-N-Robertson-St-70116/home/178884837,GSREIN,2466082,N,Y,29.9725285,-90.0605019
MLS Listing,,Single Family Residential,5948 Orleans Ave,New Orleans,LA,70124,925000,4,3.0,Lakeview,3000,7248,2018,15,308,,Active,,,https://www.redfin.com/LA/New-Orleans/5948-Orleans-Ave-70124/home/85518121,GSREIN,2465998,N,Y,29.9978495,-90.1014131
MLS Listing,,Single Family Residential,113 Claiborne Ct,Jefferson,LA,70121,315000,2,2.0,Jefferson,1225,5501,1949,15,257,,Active,,,https://www.redfin.com/LA/New-Orleans/113-Claiborne-Ct-70121/home/85231929,GSREIN,2464820,N,Y,29.9591066,-90.1594367
MLS Listing,,Single Family Residential,3413 S Galvez St,New Orleans,LA,70125,199000,2,2.0,New Orleans,1045,1742,1972,15,190,,Active,,,https://www.redfin.com/LA/New-Orleans/3413-S-Galvez-St-70125/home/85491926,GSREIN,2465993,N,Y,29.9455346,-90.099828
MLS Listing,,Vacant Land,2234 Reynes St,New Orleans,LA,70117,18000,0,,New Orleans,5160,,,15,3,,Active,,,https://www.redfin.com/LA/New-Orleans/2234-Reynes-St-70117/home/85455442,GSREIN,2465525,N,Y,29.974741,-90.018479
MLS Listing,,Single Family Residential,809 Olga St,New Orleans,LA,70119,425000,2,1.0,New Orleans,1350,,1903,15,315,,Active,,,https://www.redfin.com/LA/New-Orleans/809-Olga-St-70119/home/85417553,GSREIN,2466028,N,Y,29.9788299,-90.0938702
MLS Listing,,Single Family Residential,1413 Constance St,New Orleans,LA,70130,1175000,3,4.0,New Orleans,3587,,1890,15,328,,Active,,,https://www.redfin.com/LA/New-Orleans/1413-Constance-St-70130/home/85407201,GSREIN,2465755,N,Y,29.9357482,-90.0710088
MLS Listing,,Single Family Residential,3020 Burdette St,New Orleans,LA,70125,499900,4,2.5,New Orleans,2428,7169,1920,15,206,,Active,,,https://www.redfin.com/LA/New-Orleans/3020-Burdette-St-70125/home/85527081,GSREIN,2465991,N,Y,29.9588681,-90.1131874
MLS Listing,,Multi-Family (2-4 Unit),2467-69 N Tonti St,New Orleans,LA,70117,175000,4,2.0,New Orleans,1300,2191,1967,15,135,,Active,,,https://www.redfin.com/LA/New-Orleans/2467-N-Tonti-St-70117/home/79228445,GSREIN,2464426,N,Y,29.9812058,-90.0521121
MLS Listing,,Single Family Residential,7100 Hanover Rd,New Orleans,LA,70127,300000,5,2.5,Warwick East,2738,8476,1970,15,110,,Active,,,https://www.redfin.com/LA/New-Orleans/7100-Hanover-Rd-70127/home/85441596,GSREIN,2465684,N,Y,30.0401146,-89.9774446
MLS Listing,,Single Family Residential,9422 Calvary Ct,River Ridge,LA,70123,535000,5,3.5,River Ridge,3597,7501,1970,15,149,,Active,,,https://www.redfin.com/LA/New-Orleans/9422-Calvary-Ct-70123/home/79166950,GSREIN,2466038,N,Y,29.9598483,-90.2088466
MLS Listing,,Single Family Residential,1909 N Robertson St,New Orleans,LA,70116,349900,4,3.0,New Orleans,1847,,2023,15,189,,Active,,,https://www.redfin.com/LA/New-Orleans/1909-N-Robertson-St-70116/home/178884839,GSREIN,2466037,N,Y,29.972523,-90.060628
MLS Listing,,Single Family Residential,1622 Painters St,New Orleans,LA,70117,285000,4,2.0,New Orleans,2200,,1957,15,130,,Active,,,https://www.redfin.com/LA/New-Orleans/1622-Painters-St-70117/home/86090654,GSREIN,2466031,N,Y,29.9746727,-90.0493179
MLS Listing,,Multi-Family (2-4 Unit),1709 11 Henriette Delille St,New Orleans,LA,70116,330000,2,2.0,New Orleans,1346,2047,1880,15,245,,Active,,,https://www.redfin.com/LA/New-Orleans/1709-Henriette-Delille-St-70116/home/190527172,GSREIN,2462540,N,Y,29.968278,-90.0624268
MLS Listing,,Single Family Residential,6401 Wales St,New Orleans,LA,70126,153000,3,2.0,New Orleans,1285,,1990,15,119,,Active,,,https://www.redfin.com/LA/New-Orleans/6401-Wales-St-70126/home/79215878,GSREIN,2466017,N,Y,30.0333207,-90.0197671
MLS Listing,,Condo/Co-op,448 Julia St #403,New Orleans,LA,70130,325000,1,1.0,New Orleans,737,470,1830,15,441,558,Active,,,https://www.redfin.com/LA/New-Orleans/448-Julia-St-70130/unit-403/home/79263094,GSREIN,2465429,N,Y,29.9451635,-90.0687973
MLS Listing,,Single Family Residential,4691 Galahad Dr,New Orleans,LA,70127,179000,3,2.0,New Orleans,1497,,1965,15,120,,Active,,,https://www.redfin.com/LA/New-Orleans/4691-Galahad-Dr-70127/home/85462058,GSREIN,2465727,N,Y,30.0195559,-89.985658
MLS Listing,,Single Family Residential,6729 Catina St,New Orleans,LA,70124,295000,2,1.0,Lakeview,1300,,1970,15,227,,Active,September-18-2024 11:30 AM,September-18-2024 01:30 PM,https://www.redfin.com/LA/New-Orleans/6729-Catina-St-70124/home/85518707,GSREIN,2465996,N,Y,30.0132702,-90.1127941
MLS Listing,,Single Family Residential,1816 General Ogden St,New Orleans,LA,70118,450000,3,2.5,New Orleans,1792,3149,2017,15,251,,Active,,,https://www.redfin.com/LA/New-Orleans/1816-General-Ogden-St-70118/home/85526893,GSREIN,2465063,N,Y,29.9574771,-90.1317635
MLS Listing,,Single Family Residential,6025 Elysian Fields Ave,New Orleans,LA,70122,150000,4,2.0,New Orleans,2030,6956,1950,15,74,,Active,,,https://www.redfin.com/LA/New-Orleans/6025-Elysian-Fields-Ave-70122/home/85436122,GSREIN,2465566,N,Y,30.0205006,-90.0604615
MLS Listing,,Multi-Family (5+ Unit),1435 37 Crete St,New Orleans,LA,70119,960000,9,7.5,New Orleans,6232,8071,1940,15,154,,Active,,,https://www.redfin.com/LA/New-Orleans/1435-Crete-St-70119/home/85424129,GSREIN,2465497,N,Y,29.9779262,-90.0791949
MLS Listing,,Single Family Residential,5607 Baccich St,New Orleans,LA,70122,210000,2,2.0,New Orleans,1063,4356,2011,16,198,,Active,,,https://www.redfin.com/LA/New-Orleans/5607-Baccich-St-70122/home/85520940,GSREIN,2465560,N,Y,30.0165293,-90.0477575
MLS Listing,,Condo/Co-op,528 Baronne St #402,New Orleans,LA,70113,486000,1,1.0,New Orleans,1395,,1923,16,348,551,Active,,,https://www.redfin.com/LA/New-Orleans/528-Baronne-St-70113/unit-402/home/79451063,GSREIN,2462515,N,Y,29.9492392,-90.0730573
MLS Listing,,Single Family Residential,14754 Beekman Rd,New Orleans,LA,70128,85000,5,2.0,New Orleans,1500,3598,1979,16,57,,Active,,,https://www.redfin.com/LA/New-Orleans/14754-Beekman-Rd-70128/home/85444625,GSREIN,2464714,N,Y,30.0708898,-89.9407526
MLS Listing,,Single Family Residential,3501 Pin Oak Ave,New Orleans,LA,70131,174900,4,2.5,Tall Timbers,3500,,1972,16,50,15,Active,,,https://www.redfin.com/LA/New-Orleans/3501-Pin-Oak-Ave-70131/home/85481973,GSREIN,2465984,N,Y,29.909191,-90.0001991
MLS Listing,,Single Family Residential,9412 Palmetto St,New Orleans,LA,70118,209900,4,1.5,New Orleans,1533,,1969,16,137,,Active,,,https://www.redfin.com/LA/New-Orleans/9412-Palmetto-St-70118/home/85500568,GSREIN,2465982,N,Y,29.9745173,-90.1212591
MLS Listing,,Single Family Residential,4500 S Rocheblave St,New Orleans,LA,70125,409000,2,1.5,New Orleans,2700,,1944,16,151,,Active,September-21-2024 12:00 PM,September-21-2024 02:00 PM,https://www.redfin.com/LA/New-Orleans/4500-S-Rocheblave-St-70125/home/85490255,GSREIN,2465628,N,Y,29.9471945,-90.105601
MLS Listing,,Multi-Family (2-4 Unit),215 17 S Cortez St,New Orleans,LA,70119,495000,4,3.0,New Orleans,3168,3828,1908,16,156,,Active,,,https://www.redfin.com/LA/New-Orleans/215-S-Cortez-St-70119/home/85411008,GSREIN,2465955,N,Y,29.9714116,-90.0989404
MLS Listing,,Vacant Land,2929 Josephine St,New Orleans,LA,70113,55000,0,,New Orleans,,2430,,16,,,Active,,,https://www.redfin.com/LA/New-Orleans/2929-Josephine-St-70113/home/85470553,GSREIN,2464604,N,Y,29.945477,-90.0886132
MLS Listing,,Condo/Co-op,1004 Governor Nicholls St Unit G,New Orleans,LA,70116,220000,0,1.0,New Orleans,414,,1913,16,531,248,Active,,,https://www.redfin.com/LA/New-Orleans/1004-Governor-Nicholls-St-70116/unit-G/home/170124459,GSREIN,2465662,N,Y,29.963813,-90.06408
MLS Listing,,Single Family Residential,9633 Charlotte Dr,River Ridge,LA,70123,480000,4,3.0,River Ridge,2503,,1960,16,192,,Active,September-21-2024 02:00 PM,September-21-2024 04:30 PM,https://www.redfin.com/LA/New-Orleans/9633-Charlotte-Dr-70123/home/79190338,GSREIN,2465159,N,Y,29.9606709,-90.2142375
MLS Listing,,Vacant Land,2338 Piety St,New Orleans,LA,70117,26000,0,,New Orleans,,3301,,16,,,Active,,,https://www.redfin.com/LA/New-Orleans/2338-Piety-St-70117/home/85455257,GSREIN,2465954,N,Y,29.9802965,-90.0378405
MLS Listing,,Vacant Land,4 Leeward Ct,New Orleans,LA,70131,74900,0,,New Orleans,,,,17,,,Active,,,https://www.redfin.com/LA/New-Orleans/4-Leeward-Ct-70131/home/85524825,GSREIN,2465699,N,Y,29.929862,-89.996488
MLS Listing,,Single Family Residential,2113 Leonidas St,New Orleans,LA,70118,309900,3,2.0,New Orleans,1458,,1920,17,213,,Active,,,https://www.redfin.com/LA/New-Orleans/2113-Leonidas-St-70118/home/85497511,GSREIN,2465903,N,Y,29.9572485,-90.1267724
MLS Listing,,Single Family Residential,5717 Marshal Foch St,New Orleans,LA,70124,599000,3,2.0,New Orleans,2216,,2015,17,270,,Active,September-18-2024 11:30 AM,September-18-2024 01:30 PM,https://www.redfin.com/LA/New-Orleans/5717-Marshal-Foch-St-70124/home/85509659,GSREIN,2465712,N,Y,29.9940272,-90.1047082
MLS Listing,,Condo/Co-op,1111 Tulane Ave #222,New Orleans,LA,70112,456900,1,1.0,New Orleans,962,,1950,17,475,516,Active,,,https://www.redfin.com/LA/New-Orleans/1111-Tulane-Ave-70112/unit-222/home/183868186,GSREIN,2465716,N,Y,29.9545479,-90.0743526
MLS Listing,,Single Family Residential,10104 Gail Ct,River Ridge,LA,70123,574900,4,4.0,River Ridge,3492,,1967,17,165,,Active,,,https://www.redfin.com/LA/New-Orleans/10104-Gail-Ct-70123/home/85176409,GSREIN,2465894,N,Y,29.9634876,-90.2195695
MLS Listing,,Single Family Residential,626 Independence St,New Orleans,LA,70117,524000,2,2.0,New Orleans,1620,,1913,17,323,,Active,,,https://www.redfin.com/LA/New-Orleans/626-Independence-St-70117/home/79323099,GSREIN,2465789,N,Y,29.9617842,-90.0395627
MLS Listing,,Single Family Residential,517 Cadiz St,New Orleans,LA,70115,444500,2,1.5,New Orleans,1125,,1928,17,395,,Active,,,https://www.redfin.com/LA/New-Orleans/517-Cadiz-St-70115/home/85484546,GSREIN,2465859,N,Y,29.9174195,-90.1032194
MLS Listing,,Single Family Residential,8018 Flounder St,New Orleans,LA,70126,160000,3,2.0,New Orleans,1742,5998,1960,17,92,,Active,,,https://www.redfin.com/LA/New-Orleans/8018-Flounder-St-70126/home/85438107,GSREIN,2465556,N,Y,30.0377878,-90.0098687
MLS Listing,,Condo/Co-op,810 St Peter St #1,New Orleans,LA,70116,257900,1,1.0,New Orleans,445,,1898,17,580,317,Active,,,https://www.redfin.com/LA/New-Orleans/810-St-Peter-70116/unit-1/home/147645912,GSREIN,2465886,N,Y,29.9585395,-90.0658299
MLS Listing,,Single Family Residential,2631 A P Tureaud Ave,New Orleans,LA,70119,259000,3,2.0,New Orleans,1068,3920,1961,18,243,,Active,,,https://www.redfin.com/LA/New-Orleans/2631-A-P-Tureaud-Ave-70119/home/85423251,GSREIN,2465873,N,Y,29.9840026,-90.0672549
MLS Listing,,Single Family Residential,911 Lesseps St,New Orleans,LA,70117,495000,3,2.0,Bywater,1581,4138,,18,313,,Active,,,https://www.redfin.com/LA/New-Orleans/911-Lesseps-St-70117/home/79182601,GSREIN,2465642,N,Y,29.9629799,-90.0329065
MLS Listing,,Single Family Residential,3812 Metropolitan St,New Orleans,LA,70126,169900,3,2.0,New Orleans,1975,6398,1960,18,86,,Active,,,https://www.redfin.com/LA/New-Orleans/3812-Metropolitan-St-70126/home/85458137,GSREIN,2465414,N,Y,29.9977616,-90.0359238
MLS Listing,,Single Family Residential,2139 Lapeyrouse St #2,New Orleans,LA,70119,492000,4,1.5,New Orleans,2750,,1930,18,179,,Active,,,https://www.redfin.com/LA/New-Orleans/2139-Lapeyrouse-St-70119/unit-2/home/192312898,GSREIN,2465866,N,Y,29.9763882,-90.0707871
MLS Listing,,Single Family Residential,2634 St Ann St,New Orleans,LA,70119,379000,3,2.0,New Orleans,1670,,1923,18,227,,Active,,,https://www.redfin.com/LA/New-Orleans/2634-Saint-Ann-St-70119/home/85416557,GSREIN,2465782,N,Y,29.9707422,-90.0818402
MLS Listing,,Vacant Land,2418 Pauger St,New Orleans,LA,70116,46000,0,,New Orleans,,2726,,18,,,Active,,,https://www.redfin.com/LA/New-Orleans/2418-Pauger-St-70116/home/85421359,GSREIN,2465850,N,Y,29.9748318,-90.0611254
