SALE TYPE,SOLD DATE,PROPERTY TYPE,ADDRESS,CITY,STATE OR PROVINCE,ZIP OR POSTAL CODE,PRICE,BEDS,BATHS,LOCATION,SQUARE FEET,LOT SIZE,YEAR BUILT,DAYS ON MARKET,$/SQUARE FEET,HOA/MONTH,STATUS,NEXT OPEN HOUSE START TIME,NEXT OPEN HOUSE END TIME,URL (SEE https://www.redfin.com/buy-a-home/comparative-market-analysis FOR INFO ON PRICING),SOURCE,MLS#,FAVORITE,INTERESTED,LATITUDE,LONGITUDE
MLS Listing,,Single Family Residential,2405 Brycewood Ln,Plano,TX,75025,495000,3,2.5,Knolls At Russell Creek Ph 1,2017,6098,1998,5,245,27,Active,,,https://www.redfin.com/TX/Plano/2405-Brycewood-Ln-75025/home/32252247,NTREIS,20723971,N,Y,33.1005112,-96.7370727
MLS Listing,,Single Family Residential,5708 Robbie Rd,Plano,TX,75024,598900,3,3.5,Town Homes At Legacy Town Center Ph Two,1990,871,2006,9,301,383,Active,,,https://www.redfin.com/TX/Plano/5708-Robbie-Rd-75024/home/31717450,NTREIS,20724800,N,Y,33.079376,-96.819152
MLS Listing,,Condo/Co-op,2601 Preston Rd #6209,Plano,TX,75093,299900,2,2.0,Marquis At Preston Tulane Condo,1302,1394,1995,21,230,533,Active,,,https://www.redfin.com/TX/Plano/2601-Preston-Rd-75093/unit-6209/home/31691801,NTREIS,20695573,N,Y,33.034053,-96.7951229
MLS Listing,,Single Family Residential,3537 Big Horn Trl,Plano,TX,75075,675000,4,3.0,High Place Ph Three,2849,9148,1979,56,237,,Active,,,https://www.redfin.com/TX/Plano/3537-Big-Horn-Trl-75075/home/31865522,NTREIS,20677435,N,Y,33.0374157,-96.760698
MLS Listing,,Single Family Residential,3100 Edwards Dr,Plano,TX,75025,594900,4,2.5,Highlands Of Russell Park Ph 3,2456,8712,1998,62,242,41,Active,,,https://www.redfin.com/TX/Plano/3100-Edwards-Dr-75025/home/32264963,NTREIS,20671758,N,Y,33.1029308,-96.7524255
MLS Listing,,Single Family Residential,5413 Glenscape Cir,Plano,TX,75094,975000,4,3.0,Heritage Ridge Estates,3222,7928,2019,97,303,67,Active,,,https://www.redfin.com/TX/Plano/5413-Glenscape-Cir-75094/home/169611374,NTREIS,20636639,N,Y,33.009672,-96.6295734
MLS Listing,,Single Family Residential,4576 Hallmark Dr,Plano,TX,75024,625000,4,3.0,Deerfield Add Ph One,2736,8276,1987,125,228,69,Active,,,https://www.redfin.com/TX/Plano/4576-Hallmark-Dr-75024/home/32200518,NTREIS,20612877,N,Y,33.0714458,-96.7850191
MLS Listing,,Single Family Residential,4725 Mulholland Dr,Plano,TX,75074,794900,4,4.0,Parkway Heights Ph 1,3699,6882,2013,131,215,76,Active,,,https://www.redfin.com/TX/Plano/4725-Mulholland-Dr-75074/home/51675559,NTREIS,20612788,N,Y,33.0069587,-96.6459321
MLS Listing,,Single Family Residential,2713 White Dove Dr,Plano,TX,75093,730000,3,3.5,Preston Lakes Ph Five,3248,4792,2007,1,225,147,Active,,,https://www.redfin.com/TX/Plano/2713-White-Dove-Dr-75093/home/31670782,NTREIS,20729940,N,Y,33.0366493,-96.7929322
MLS Listing,,Single Family Residential,829 Pimernel Ln,Plano,TX,75075,549000,6,3.0,Thunderbird Estates,2425,7405,1993,1,226,,Active,,,https://www.redfin.com/TX/Plano/829-Pimernel-Ln-75075/home/32081702,NTREIS,20732091,N,Y,33.0407085,-96.711921
MLS Listing,,Single Family Residential,4596 Penbrook Ct,Plano,TX,75024,840000,4,3.0,Deerfield Add Ph Three,3502,9148,1991,1,240,67,Active,,,https://www.redfin.com/TX/Plano/4596-Penbrook-Ct-75024/home/32057163,NTREIS,20706344,N,Y,33.0739348,-96.78644
MLS Listing,,Single Family Residential,2504 Belmont Pl,Plano,TX,75023,475000,3,3.5,West Plano Estates Sec I,2263,10019,1980,1,210,,Active,,,https://www.redfin.com/TX/Plano/2504-Belmont-Pl-75023/home/31922456,NTREIS,20731884,N,Y,33.0530891,-96.7427505
MLS Listing,,Single Family Residential,1920 Greenbriar Ct,Plano,TX,75074,349000,3,2.0,Briarwood Estates,1607,8712,1968,1,217,,Active,,,https://www.redfin.com/TX/Plano/1920-Greenbriar-Ct-75074/home/31853130,NTREIS,20731877,N,Y,33.0258,-96.6718101
MLS Listing,,Single Family Residential,7804 Steppington Dr,Plano,TX,75025,329999,3,2.0,Cross Creek 6b,1758,5227,1986,1,188,,Active,,,https://www.redfin.com/TX/Plano/7804-Steppington-Dr-75025/home/32036078,NTREIS,20731399,N,Y,33.0837253,-96.7235687
MLS Listing,,Single Family Residential,6700 Crown Forest Dr,Plano,TX,75024,2200000,4,4.5,Kings Ridge Add,4743,20909,2002,1,464,73,Active,September-21-2024 12:00 AM,September-21-2024 11:59 PM,https://www.redfin.com/TX/Plano/6700-Crown-Forest-Dr-75024/home/167521887,NTREIS,20716136,N,Y,33.0667275,-96.8517842
MLS Listing,,Townhouse,3500 E Park Blvd #405,Plano,TX,75074,257000,3,2.0,Shiloh Park Add,1460,5053,1985,2,176,312,Active,,,https://www.redfin.com/TX/Plano/3500-E-Park-Blvd-75074/unit-405/home/32192566,NTREIS,20731033,N,Y,33.0303197,-96.6667052
MLS Listing,,Single Family Residential,4520 Burnhill Dr,Plano,TX,75024,699990,4,3.5,Preston Hollow Add,3413,7405,2001,2,205,17,Active,,,https://www.redfin.com/TX/Plano/4520-Burnhill-Dr-75024/home/32119708,NTREIS,20728974,N,Y,33.0943103,-96.7822177
MLS Listing,,Single Family Residential,4300 Maize Dr,Plano,TX,75093,759000,4,3.5,Wentworth Estates V Ph 1,3147,10019,1996,2,241,,Active,,,https://www.redfin.com/TX/Plano/4300-Maize-Dr-75093/home/32079599,NTREIS,20729750,N,Y,33.0352112,-96.7775495
MLS Listing,,Single Family Residential,4712 Lawrence Ln,Plano,TX,75093,560000,6,4.5,Haversham,3315,7841,1996,2,169,,Active,,,https://www.redfin.com/TX/Plano/4712-Lawrence-Ln-75093/home/32220764,NTREIS,20730809,N,Y,33.0455714,-96.7899358
MLS Listing,,Single Family Residential,7320 Bryers Cir,Plano,TX,75025,1350000,5,4.5,Whiffletree VI,5814,19602,1991,2,232,,Active,,,https://www.redfin.com/TX/Plano/7320-Bryers-Cir-75025/home/32030083,NTREIS,20728955,N,Y,33.0777012,-96.7609758
MLS Listing,,Single Family Residential,1517 Endicott Dr,Plano,TX,75025,529900,3,2.0,Cross Creek West 3,2526,7405,1997,2,210,,Active,September-21-2024 01:00 PM,September-21-2024 03:00 PM,https://www.redfin.com/TX/Plano/1517-Endicott-Dr-75025/home/32100301,NTREIS,20722324,N,Y,33.0722584,-96.7230972
MLS Listing,,Single Family Residential,6601 Wood Hollow Ct,Plano,TX,75024,1155000,4,3.5,Shoal Creek Ph I,3963,15682,1996,2,291,125,Active,,,https://www.redfin.com/TX/Plano/6601-Wood-Hollow-Ct-75024/home/32234955,NTREIS,20716124,N,Y,33.0640424,-96.8405194
MLS Listing,,Single Family Residential,3006 Peppertree Pl,Plano,TX,75074,315000,3,2.0,Plano East Ph Two,1506,8712,1975,2,209,,Active,,,https://www.redfin.com/TX/Plano/3006-Peppertree-Pl-75074/home/31888626,NTREIS,20729884,N,Y,33.0334504,-96.6724498
MLS Listing,,Single Family Residential,2104 Decator Dr,Plano,TX,75093,449000,3,2.0,PRESTON COVE,1677,10454,1983,3,268,,Active,,,https://www.redfin.com/TX/Plano/2104-Decator-Dr-75093/home/31892583,NTREIS,20729932,N,Y,33.0277917,-96.7818557
MLS Listing,,Single Family Residential,2701 Scenic Dr,Plano,TX,75025,789000,4,3.5,Villages Of Russell Creek Ph 3b,3721,9148,1998,4,212,,Active,,,https://www.redfin.com/TX/Plano/2701-Scenic-Dr-75025/home/32254265,NTREIS,20723836,N,Y,33.0924361,-96.7431419
MLS Listing,,Single Family Residential,2000 Hawken Dr,Plano,TX,75023,469999,3,2.0,Hunters Ridge Ph 2,1785,8276,1986,4,263,,Active,,,https://www.redfin.com/TX/Plano/2000-Hawken-Dr-75023/home/32192642,NTREIS,20729588,N,Y,33.0686852,-96.732359
MLS Listing,,Single Family Residential,2306 Arroyo Ct,Plano,TX,75074,375000,3,2.0,Los Rios Add Ph 7,1907,5227,1984,4,197,,Active,,,https://www.redfin.com/TX/Plano/2306-Arroyo-Ct-75074/home/32161478,NTREIS,20727046,N,Y,33.0324829,-96.6507187
MLS Listing,,Single Family Residential,5308 Brougham Ln,Plano,TX,75023,699000,4,3.5,Carriage Hill Ph I,3285,9583,1983,4,213,8,Active,,,https://www.redfin.com/TX/Plano/5308-Brougham-Ln-75023/home/32155259,NTREIS,20729407,N,Y,33.0558297,-96.7550997
MLS Listing,,Single Family Residential,3105 Saint Ives Ct,Plano,TX,75075,695000,3,2.5,Huntington Park Add,2502,13504,1977,4,278,,Active,,,https://www.redfin.com/TX/Plano/3105-Saint-Ives-Ct-75075/home/31868394,NTREIS,20726766,N,Y,33.0301936,-96.7549195
MLS Listing,,Single Family Residential,2841 Prairie Creek Dr,Plano,TX,75075,585000,5,3.0,PRAIRIE CREEK ESTATES,2949,12197,1975,5,198,,Active,,,https://www.redfin.com/TX/Plano/2841-Prairie-Creek-Dr-75075/home/32162092,NTREIS,20720629,N,Y,33.0251602,-96.750363
MLS Listing,,Townhouse,7033 Rembrandt Dr,Plano,TX,75093,425000,2,2.0,Pasquinellis Parker Estates Ph,1733,5314,2004,5,245,345,Active,,,https://www.redfin.com/TX/Plano/7033-Rembrandt-Dr-75093/home/33168295,NTREIS,20729280,N,Y,33.0443991,-96.8548783
MLS Listing,,Multi-Family (2-4 Unit),1908 Nest Pl,Plano,TX,75093,819000,6,5.0,Robins Place,3210,10454,2000,5,255,,Active,,,https://www.redfin.com/TX/Plano/1908-Nest-Pl-75093/home/192546979,NTREIS,20722142,N,Y,33.0259224,-96.7719338
MLS Listing,,Single Family Residential,3608 Lowrey Way,Plano,TX,75025,575000,4,2.5,Briar Meadow,2693,7405,2000,5,214,,Active,,,https://www.redfin.com/TX/Plano/3608-Lowrey-Way-75025/home/32242444,NTREIS,20726885,N,Y,33.0721462,-96.7622284
MLS Listing,,Single Family Residential,7220 Harvey Ln,Plano,TX,75025,685000,4,3.0,Whiffletree V,3236,10454,1985,5,212,10,Active,,,https://www.redfin.com/TX/Plano/7220-Harvey-Ln-75025/home/32018144,NTREIS,20728772,N,Y,33.0749472,-96.7550042
MLS Listing,,Single Family Residential,1701 Wofford Ln,Plano,TX,75074,635000,3,2.5,Rice Field Add,2355,3572,2020,5,270,75,Active,September-19-2024 05:00 PM,September-19-2024 07:00 PM,https://www.redfin.com/TX/Plano/1701-Wofford-Ln-75074/home/110179135,NTREIS,20728873,N,Y,33.0227402,-96.7054721
MLS Listing,,Single Family Residential,4321 Phyllis Ln,Plano,TX,75074,549900,4,2.5,Creekside Estates 1,2305,9148,1985,5,239,,Active,,,https://www.redfin.com/TX/Plano/4321-Phyllis-Ln-75074/home/31928229,NTREIS,20723018,N,Y,33.0292036,-96.6455706
MLS Listing,,Single Family Residential,3528 Darion Ln,Plano,TX,75093,550000,3,2.5,Preston Meadow Ph I,2157,10454,1983,5,255,15,Active,,,https://www.redfin.com/TX/Plano/3528-Darion-Ln-75093/home/31851311,NTREIS,20712309,N,Y,33.0458302,-96.7772525
MLS Listing,,Single Family Residential,3008 Dartmouth Dr,Plano,TX,75075,489000,3,2.0,Dallas North Estates 12th Instl Fourth Sec,2516,9583,1972,5,194,,Active,,,https://www.redfin.com/TX/Plano/3008-Dartmouth-Dr-75075/home/32157421,NTREIS,20722944,N,Y,33.0126775,-96.7525481
MLS Listing,,Single Family Residential,3712 Waddell Dr,Plano,TX,75025,699900,5,3.5,Highland Ridge VI,2977,7405,1996,5,235,50,Active,,,https://www.redfin.com/TX/Plano/3712-Waddell-Dr-75025/home/32237385,NTREIS,20724655,N,Y,33.0987878,-96.765941
MLS Listing,,Townhouse,2012 Oklahoma Ave,Plano,TX,75074,375000,2,2.5,Oak Point Estates,1628,2614,2009,5,230,212,Active,,,https://www.redfin.com/TX/Plano/2012-Oklahoma-Ave-75074/home/31693713,NTREIS,20728821,N,Y,33.0583854,-96.6848824
MLS Listing,,Townhouse,2616 Ezekial Way,Plano,TX,75074,345000,3,2.5,MADISON ESTATES,1444,436,2005,5,239,48,Active,,,https://www.redfin.com/TX/Plano/2616-Ezekial-Way-75074/home/31640178,NTREIS,20728670,N,Y,33.0152419,-96.679287
MLS Listing,,Single Family Residential,3940 Cobblestone Ct,Plano,TX,75093,440000,3,2.5,Preston On The Park,2024,5663,1996,5,217,66,Active,,,https://www.redfin.com/TX/Plano/3940-Cobblestone-Ct-75093/home/32240885,NTREIS,20728078,N,Y,33.0502984,-96.7872921
MLS Listing,,Single Family Residential,5025 Niagara St,Plano,TX,75074,750000,5,4.0,Malibu Estates,3141,8756,2016,5,239,53,Active,,,https://www.redfin.com/TX/Plano/5025-Niagara-St-75074/home/108279062,NTREIS,20728081,N,Y,33.0089039,-96.638904
MLS Listing,,Single Family Residential,6013 Frontier Ln,Plano,TX,75023,389990,3,2.0,Town West Sec One,1665,7405,1980,5,234,,Active,,,https://www.redfin.com/TX/Plano/6013-Frontier-Ln-75023/home/31906106,NTREIS,20726848,N,Y,33.0557716,-96.7001071
MLS Listing,,Townhouse,1480 N Ave,Plano,TX,75074,639900,3,2.5,1897 Townhomes Addition,2073,,2024,5,309,145,Active,,,https://www.redfin.com/TX/Plano/1480-N-Avenue-75074/home/187700909,NTREIS,20728144,N,Y,33.019538,-96.694332
MLS Listing,,Single Family Residential,5809 Cardigan Dr,Plano,TX,75093,950000,4,4.5,Castlemere Ph V,3622,11761,1997,5,262,35,Active,,,https://www.redfin.com/TX/Plano/5809-Cardigan-Dr-75093/home/32248788,NTREIS,20728558,N,Y,33.0523772,-96.8163137
MLS Listing,,Single Family Residential,6809 Francesca Ln,Plano,TX,75024,2499000,3,3.5,Normandy Estates,4481,10498,2020,5,558,479,Active,,,https://www.redfin.com/TX/Plano/6809-Francesca-Ln-75024/home/144099077,NTREIS,20722257,N,Y,33.0700157,-96.8459822
MLS Listing,,Single Family Residential,2113 Leon Dr,Plano,TX,75074,649000,4,3.5,Los Rios Add Ph 5,3311,12197,1981,5,196,,Active,,,https://www.redfin.com/TX/Plano/2113-Leon-Dr-75074/home/31873874,NTREIS,20728545,N,Y,33.029608,-96.6554925
MLS Listing,,Single Family Residential,2720 Westridge Dr,Plano,TX,75075,525000,4,3.0,Dallas North Estates 12th Instl,2612,9583,1970,5,201,,Active,,,https://www.redfin.com/TX/Plano/2720-Westridge-Dr-75075/home/32157535,NTREIS,20728516,N,Y,33.0104691,-96.7462923
MLS Listing,,Single Family Residential,3535 Interlaken Dr,Plano,TX,75075,650000,4,3.5,River Bend East,2979,14810,1980,5,218,,Active,,,https://www.redfin.com/TX/Plano/3535-Interlaken-Dr-75075/home/32168445,NTREIS,20723838,N,Y,33.0305773,-96.7606574
MLS Listing,,Single Family Residential,1529 Jasmine Ln,Plano,TX,75074,395000,3,2.0,Plano Park Add Fifth Sec,1951,8712,1981,6,202,,Active,,,https://www.redfin.com/TX/Plano/1529-Jasmine-Ln-75074/home/31886636,NTREIS,20726642,N,Y,33.0355107,-96.6923129
MLS Listing,,Single Family Residential,4004 Eastleigh Dr,Plano,TX,75024,595000,4,3.0,STONEHAVEN PLACE SOUTH PHASE ONE,2383,6665,1997,6,250,29,Active,,,https://www.redfin.com/TX/Plano/4004-Eastleigh-Dr-75024/home/32239329,NTREIS,20728356,N,Y,33.0918371,-96.7723124
MLS Listing,,Townhouse,6525 Rutherford Rd,Plano,TX,75023,385000,3,2.5,Chase Oaks Village,1569,2178,2012,6,245,216,Active,,,https://www.redfin.com/TX/Plano/6525-Rutherford-Rd-75023/home/31656559,NTREIS,20723663,N,Y,33.063122,-96.698848
MLS Listing,,Single Family Residential,3528 Oakstone Dr,Plano,TX,75025,735000,3,2.5,Northglen,2884,6600,2018,6,255,41,Active,,,https://www.redfin.com/TX/Plano/3528-Oakstone-Dr-75025/home/51675394,NTREIS,20724334,N,Y,33.1102652,-96.7624563
MLS Listing,,Single Family Residential,2133 Country Club Dr,Plano,TX,75074,635000,5,5.0,Creekside Estates 3,3606,8712,1994,6,176,,Active,,,https://www.redfin.com/TX/Plano/2133-Country-Club-Dr-75074/home/32078814,NTREIS,20727076,N,Y,33.0296999,-96.6428795
MLS Listing,,Single Family Residential,1705 Wofford Ln,Plano,TX,75074,650000,3,3.0,Rice Field Add,2560,2788,2018,6,254,75,Active,September-22-2024 02:00 PM,September-22-2024 04:00 PM,https://www.redfin.com/TX/Plano/1705-Wofford-Ln-75074/home/110179281,NTREIS,20727029,N,Y,33.0228351,-96.7054799
MLS Listing,,Single Family Residential,916 Westbrook Dr,Plano,TX,75075,525000,4,2.0,Dallas North Estates Sixth Instl,2506,18295,1970,6,209,,Active,,,https://www.redfin.com/TX/Plano/916-Westbrook-Dr-75075/home/32155301,NTREIS,20727921,N,Y,33.0126134,-96.7234848
MLS Listing,,Single Family Residential,7909 Freeland Dr,Plano,TX,75025,349000,4,2.0,Cross Creek 4,1718,8712,1983,6,203,,Active,,,https://www.redfin.com/TX/Plano/7909-Freeland-Dr-75025/home/31930404,NTREIS,20727910,N,Y,33.0851817,-96.7194136
MLS Listing,,Single Family Residential,1816 Poinciana Ln,Plano,TX,75075,499000,3,2.0,Pitman Creek Estates 1,2587,10019,1978,6,193,,Active,,,https://www.redfin.com/TX/Plano/1816-Poinciana-Ln-75075/home/31889615,NTREIS,20727537,N,Y,33.0121731,-96.7288739
MLS Listing,,Single Family Residential,3317 Ashington Ln,Plano,TX,75023,485000,3,2.0,Spring Creek Estates West,2198,9148,1983,6,221,,Active,,,https://www.redfin.com/TX/Plano/3317-Ashington-Ln-75023/home/32166708,NTREIS,20727859,N,Y,33.0599043,-96.7586418
MLS Listing,,Single Family Residential,1401 Eastwick Ln,Plano,TX,75093,1450000,4,4.5,Kings Court Of Willow Bend,4929,10454,1993,6,294,108,Active,,,https://www.redfin.com/TX/Plano/1401-Eastwick-Ln-75093/home/32095510,NTREIS,20727108,N,Y,33.018011,-96.8168125
MLS Listing,,Townhouse,7228 Pompeii Way,Plano,TX,75093,424900,2,2.0,Pasquinellis Parker Estates Ph,1562,3833,2005,6,272,350,Active,,,https://www.redfin.com/TX/Plano/7228-Pompeii-Way-75093/home/32592416,NTREIS,20726719,N,Y,33.0469788,-96.8576094
MLS Listing,,Single Family Residential,3112 Phaeton Ct,Plano,TX,75023,615000,4,3.0,Carriage Hill Ph I,3010,9583,1983,6,204,8,Active,,,https://www.redfin.com/TX/Plano/3112-Phaeton-Ct-75023/home/31844596,NTREIS,20727339,N,Y,33.0537043,-96.7537628
MLS Listing,,Single Family Residential,2708 Prestonwood Dr,Plano,TX,75093,899000,3,3.0,The Hills At Prestonwood Viii,3249,5227,1999,6,277,50,Active,,,https://www.redfin.com/TX/Plano/2708-Prestonwood-Dr-75093/home/33051641,NTREIS,20725358,N,Y,33.0384404,-96.8522037
MLS Listing,,Condo/Co-op,3801 14th St #1607,Plano,TX,75074,230900,2,1.5,Pheasant Landing #6,1270,4225,1985,6,182,320,Active,,,https://www.redfin.com/TX/Plano/3801-14th-St-75074/unit-1607/home/32026131,NTREIS,20723167,N,Y,33.0147796,-96.6592699
MLS Listing,,Single Family Residential,5817 Deer Park Ln,Plano,TX,75093,1299999,5,3.5,Willow Bend West Ph I,4695,12197,1990,6,277,44,Active,September-21-2024 02:00 PM,September-21-2024 04:00 PM,https://www.redfin.com/TX/Plano/5817-Deer-Park-Ln-75093/home/32063609,NTREIS,20713416,N,Y,33.0400883,-96.8209945
MLS Listing,,Single Family Residential,5809 Golden Leaf Ct,Plano,TX,75093,2650000,5,4.5,Lakeside On Preston Ph 5a,5839,,1997,6,454,173,Active,,,https://www.redfin.com/TX/Plano/5809-Golden-Leaf-Ct-75093/home/32250997,NTREIS,20724535,N,Y,33.0538471,-96.8034119
MLS Listing,,Single Family Residential,6717 Myrtle Beach Dr,Plano,TX,75093,615000,3,3.0,The Hills At Prestonwood IV,2280,6011,1994,6,270,38,Active,,,https://www.redfin.com/TX/Plano/6717-Myrtle-Beach-Dr-75093/home/32829553,NTREIS,20725429,N,Y,33.0346244,-96.8469638
MLS Listing,,Single Family Residential,2710 N Colfax Cir,Plano,TX,75075,465000,4,2.5,Park Blvd Estates West,2134,8276,1972,7,218,,Active,,,https://www.redfin.com/TX/Plano/2710-N-Colfax-Cir-75075/home/31882942,NTREIS,20726948,N,Y,33.0285617,-96.7457151
MLS Listing,,Single Family Residential,3201 Sage Brush Trl,Plano,TX,75023,580000,4,3.0,Carriage Hill Ph I,2886,8712,1983,7,201,,Active,September-21-2024 12:00 PM,September-21-2024 03:00 PM,https://www.redfin.com/TX/Plano/3201-Sage-Brush-Trl-75023/home/32155234,NTREIS,20724500,N,Y,33.0533547,-96.7542545
MLS Listing,,Single Family Residential,3005 Chippenham Dr,Plano,TX,75093,650000,4,3.5,Stonewood Glen Ph Three,3309,7405,1997,7,196,200,Active,,,https://www.redfin.com/TX/Plano/3005-Chippenham-Dr-75093/home/32247568,NTREIS,20726944,N,Y,33.038577,-96.7727945
MLS Listing,,Single Family Residential,708 Harbor Ln,Plano,TX,75074,789900,4,3.5,Parkway Heights Ph 1,3578,7449,2015,7,221,34,Active,,,https://www.redfin.com/TX/Plano/708-Harbor-Ln-75074/home/51675574,NTREIS,20720235,N,Y,33.0065449,-96.6457312
MLS Listing,,Single Family Residential,704 Wooster Ln,Plano,TX,75074,547000,3,2.5,Rice Field Add,2102,2091,2020,7,260,75,Active,,,https://www.redfin.com/TX/Plano/704-Wooster-Ln-75074/home/110179303,NTREIS,20701763,N,Y,33.0236126,-96.7057616
MLS Listing,,Single Family Residential,920 Harvest Glen Dr,Plano,TX,75023,374900,3,2.0,Park Forest Add 4,1536,7841,1975,7,244,,Active,,,https://www.redfin.com/TX/Plano/920-Harvest-Glen-Dr-75023/home/31910823,NTREIS,20725704,N,Y,33.0513349,-96.7113627
MLS Listing,,Single Family Residential,7604 Clark Springs Dr,Plano,TX,75025,599000,5,3.0,Hunters Glen North Two,2706,8276,1993,7,221,,Active,,,https://www.redfin.com/TX/Plano/7604-Clark-Springs-Dr-75025/home/32088105,NTREIS,20718127,N,Y,33.081207,-96.7475787
MLS Listing,,Single Family Residential,5028 Eagle Pass,Plano,TX,75023,439000,4,2.5,Town West Three,1998,7405,1983,7,220,,Active,,,https://www.redfin.com/TX/Plano/5028-Eagle-Pass-75023/home/31925300,NTREIS,20696446,N,Y,33.0548871,-96.7023191
MLS Listing,,Single Family Residential,6700 Waterway Ct,Plano,TX,75093,615000,3,2.0,The Hills At Prestonwood III,2293,9932,1994,7,268,38,Active,,,https://www.redfin.com/TX/Plano/6700-Waterway-Ct-75093/home/33095494,NTREIS,20704866,N,Y,33.0323633,-96.8464056
MLS Listing,,Single Family Residential,8604 Crested Cove Ct,Plano,TX,75025,678000,5,3.0,Villages Of Russell Creek Ph 2a,3290,10019,1993,7,206,,Active,,,https://www.redfin.com/TX/Plano/8604-Crested-Cove-Ct-75025/home/32213863,NTREIS,20725210,N,Y,33.0951783,-96.746493
MLS Listing,,Single Family Residential,2100 Florence Dr,Plano,TX,75093,560000,3,2.0,Preston Cove Add Ph One,1859,8276,1980,8,301,,Active,September-21-2024 11:00 AM,September-21-2024 01:00 PM,https://www.redfin.com/TX/Plano/2100-Florence-Dr-75093/home/32163984,NTREIS,20713207,N,Y,33.0276306,-96.7787624
MLS Listing,,Single Family Residential,2008 Country Club Dr,Plano,TX,75074,369900,2,2.0,Villas Of Los Rios,1332,4356,1983,8,278,,Active,,,https://www.redfin.com/TX/Plano/2008-Country-Club-Dr-75074/home/31930519,NTREIS,20722932,N,Y,33.0254706,-96.6440865
MLS Listing,,Condo/Co-op,3120 Devonshire Dr Unit 222E,Plano,TX,75075,197000,1,1.0,Cobblestone Condo,746,1133,1984,8,264,150,Active,,,https://www.redfin.com/TX/Plano/3120-Devonshire-Dr-75075/unit-222E/home/32174201,NTREIS,20717701,N,Y,33.0280185,-96.7553681
MLS Listing,,Townhouse,821 Heart Reef Rd,Plano,TX,75075,579000,3,2.5,Villas of Middleton,2015,2248,2024,8,287,295,Active,,,https://www.redfin.com/TX/Plano/821-Heart-Reef-Rd-75075/home/187697334,NTREIS,20725098,N,Y,33.0107845,-96.755098
MLS Listing,,Townhouse,3148 Galveston St,Plano,TX,75075,589000,4,3.5,Villas of Middleton,2006,2248,2024,8,294,295,Active,,,https://www.redfin.com/TX/Plano/3148-Galveston-St-75075/home/187697344,NTREIS,20725075,N,Y,33.0102127,-96.754604
MLS Listing,,Townhouse,3121 Galveston St,Plano,TX,75075,549000,4,2.5,Villas of Middleton,1903,2788,2024,8,288,295,Active,,,https://www.redfin.com/TX/Plano/3121-Galveston-St-75075/home/187697383,NTREIS,20721769,N,Y,33.0102946,-96.7537258
MLS Listing,,Single Family Residential,2509 Royal Birkdale Dr,Plano,TX,75025,695000,4,3.0,Ridgeview Ranch Estates Ph I,3397,10019,2001,9,205,85,Active,September-22-2024 12:00 AM,September-22-2024 02:00 PM,https://www.redfin.com/TX/Plano/2509-Royal-Birkdale-Dr-75025/home/32243476,NTREIS,20692013,N,Y,33.1116602,-96.7397391
MLS Listing,,Single Family Residential,6401 Stillwater Ln,Plano,TX,75024,815000,5,3.5,Kings Ridge Add,4197,9322,2003,9,194,75,Active,,,https://www.redfin.com/TX/Plano/6401-Stillwater-Ln-75024/home/33162811,NTREIS,20724058,N,Y,33.0609858,-96.852449
MLS Listing,,Single Family Residential,2108 Briarcreek Ln,Plano,TX,75074,399900,3,2.0,Briarwood Estates,1891,10019,1968,10,211,,Active,,,https://www.redfin.com/TX/Plano/2108-Briarcreek-Ln-75074/home/31853118,NTREIS,20723892,N,Y,33.0269953,-96.6727917
MLS Listing,,Townhouse,3037 Rolling Meadow Dr,Plano,TX,75025,455000,3,2.5,Pasquinellis Kingsbrook At Ridgeview,1940,3485,2000,10,235,395,Active,,,https://www.redfin.com/TX/Plano/3037-Rolling-Meadow-Dr-75025/home/32273582,NTREIS,20722475,N,Y,33.1156406,-96.752391
MLS Listing,,Single Family Residential,3513 Plymouth Dr,Plano,TX,75023,597000,4,3.0,Parkway Estates,2729,10019,1983,10,219,,Active,,,https://www.redfin.com/TX/Plano/3513-Plymouth-Dr-75023/home/32166618,NTREIS,20723153,N,Y,33.0466228,-96.770019
MLS Listing,,Single Family Residential,844 Arbor Downs Dr,Plano,TX,75023,410000,4,2.0,Westgate Add 2,1864,7405,1984,11,220,,Active,,,https://www.redfin.com/TX/Plano/844-Arbor-Downs-Dr-75023/home/31920875,NTREIS,20722738,N,Y,33.0495275,-96.7079411
MLS Listing,,Single Family Residential,2916 Cherry Spring Ct,Plano,TX,75025,580000,4,3.0,Hunters Glen North Two,2559,8712,1992,11,227,,Active,,,https://www.redfin.com/TX/Plano/2916-Cherry-Spring-Ct-75025/home/32088296,NTREIS,20698947,N,Y,33.0854677,-96.7494476
MLS Listing,,Single Family Residential,6300 Topaz Way,Plano,TX,75023,549999,4,2.0,Spring Creek Pkwy Estates West,2639,9583,1979,11,208,,Active,,,https://www.redfin.com/TX/Plano/6300-Topaz-Way-75023/home/32172371,NTREIS,20723396,N,Y,33.0589525,-96.7557141
MLS Listing,,Single Family Residential,3921 Picato Dr,Plano,TX,75074,340000,3,2.0,Hidden Meadows Of Los Rios 1,1612,8712,1984,11,211,,Active,,,https://www.redfin.com/TX/Plano/3921-Picato-Dr-75074/home/32018091,NTREIS,20688850,N,Y,33.0195506,-96.6563382
MLS Listing,,Single Family Residential,6537 Myrtle Beach Dr,Plano,TX,75093,1799000,5,5.5,Indian Creek Ph I,5716,11761,1994,11,315,11,Active,,,https://www.redfin.com/TX/Plano/6537-Myrtle-Beach-Dr-75093/home/32195670,NTREIS,20723279,N,Y,33.0345919,-96.8431271
MLS Listing,,Single Family Residential,5809 Garrett Dr,Plano,TX,75093,1609000,5,4.5,Meadows Of Willow Bend,5326,11761,1997,11,302,50,Active,,,https://www.redfin.com/TX/Plano/5809-Garrett-Dr-75093/home/32239196,NTREIS,20723010,N,Y,33.0377986,-96.8202644
MLS Listing,,Single Family Residential,2320 Fountain Head Dr,Plano,TX,75023,549000,4,2.5,Hunters Glen Two,2763,9583,1979,11,199,,Active,September-20-2024 02:00 PM,September-20-2024 04:00 PM,https://www.redfin.com/TX/Plano/2320-Fountain-Head-Dr-75023/home/31867289,NTREIS,20716689,N,Y,33.051364,-96.7399829
MLS Listing,,Single Family Residential,1104 Kit Ln,Plano,TX,75023,409500,3,2.0,Creek Trails,1567,7405,1986,11,261,21,Active,,,https://www.redfin.com/TX/Plano/1104-Kit-Ln-75023/home/32195391,NTREIS,20723299,N,Y,33.067447,-96.713476
MLS Listing,,Single Family Residential,4460 Junction Dr,Plano,TX,75093,450000,3,2.5,Preston Square,1634,6534,1986,12,275,,Active,,,https://www.redfin.com/TX/Plano/4460-Junction-Dr-75093/home/32002552,NTREIS,20723080,N,Y,33.0167964,-96.7813608
MLS Listing,,Single Family Residential,412 Middle Cove Dr,Plano,TX,75023,340000,3,2.0,Town West Sec One,1737,6970,1980,12,196,,Active,,,https://www.redfin.com/TX/Plano/412-Middle-Cove-Dr-75023/home/31905964,NTREIS,20723047,N,Y,33.0548276,-96.7007614
MLS Listing,,Single Family Residential,2424 Coleshire Dr,Plano,TX,75075,445000,3,2.5,Cloisters 3,2358,9583,1972,12,189,,Active,,,https://www.redfin.com/TX/Plano/2424-Coleshire-Dr-75075/home/31895201,NTREIS,20722976,N,Y,33.0169547,-96.7409359
MLS Listing,,Single Family Residential,3717 Tidewater Dr,Plano,TX,75025,775000,5,3.5,Estates Of Forest Creek Ph Vii-D,3927,10019,1995,12,197,,Active,September-22-2024 02:00 PM,September-22-2024 04:00 PM,https://www.redfin.com/TX/Plano/3717-Tidewater-Dr-75025/home/32229796,NTREIS,20722516,N,Y,33.0756759,-96.7640583
MLS Listing,,Single Family Residential,2504 Brennan Dr,Plano,TX,75075,525000,4,3.5,Cloisters 2,2944,9583,1973,12,178,,Active,,,https://www.redfin.com/TX/Plano/2504-Brennan-Dr-75075/home/31895355,NTREIS,20706435,N,Y,33.0239606,-96.7415677
MLS Listing,,Single Family Residential,3041 Stanford Dr,Plano,TX,75075,569000,4,2.5,Dallas North Estates 12th Instl Fourth Sec,2534,10454,1973,12,225,,Active,,,https://www.redfin.com/TX/Plano/3041-Stanford-Dr-75075/home/32157157,NTREIS,20705271,N,Y,33.0150931,-96.75328
MLS Listing,,Townhouse,9913 Derwent Dr,Plano,TX,75025,385000,2,2.0,Pasquinellis Fairway Villas At Ridgeview,1400,3920,2005,12,275,418,Active,,,https://www.redfin.com/TX/Plano/9913-Derwent-Dr-75025/home/31707591,NTREIS,20722644,N,Y,33.1136279,-96.7458211
MLS Listing,,Single Family Residential,2821 Cobre Valle Ln,Plano,TX,75023,665000,4,2.5,Independence Square Sec Two,3191,12197,1981,12,208,,Active,September-21-2024 12:00 PM,September-21-2024 02:00 PM,https://www.redfin.com/TX/Plano/2821-Cobre-Valle-Ln-75023/home/31870310,NTREIS,20719748,N,Y,33.0552283,-96.7489184
MLS Listing,,Single Family Residential,2205 Westlake Dr,Plano,TX,75075,489000,3,2.0,Dallas North Estates Ninth Instl,1825,9583,1968,12,268,,Active,,,https://www.redfin.com/TX/Plano/2205-Westlake-Dr-75075/home/31861733,NTREIS,20716988,N,Y,33.0097132,-96.7359843
MLS Listing,,Single Family Residential,9720 Zembriski Dr,Plano,TX,75025,750000,5,4.0,Ridgeview Ranch Estates Ph 3,3564,9148,2001,12,210,85,Active,,,https://www.redfin.com/TX/Plano/9720-Zembriski-Dr-75025/home/32125788,NTREIS,20722246,N,Y,33.1102411,-96.737733
MLS Listing,,Single Family Residential,1500 Baffin Bay Dr,Plano,TX,75075,640000,4,3.0,Briarmeade,2877,9148,1981,12,222,,Active,,,https://www.redfin.com/TX/Plano/1500-Baffin-Bay-Dr-75075/home/31851515,NTREIS,20722155,N,Y,33.0335058,-96.7234821
MLS Listing,,Single Family Residential,5317 Calumet Dr,Plano,TX,75023,795000,4,3.0,Independence Square Sec Two,2961,12632,1979,12,268,,Active,,,https://www.redfin.com/TX/Plano/5317-Calumet-Dr-75023/home/31870313,NTREIS,20718330,N,Y,33.0543759,-96.749884
MLS Listing,,Single Family Residential,2509 Allegro Ln,Plano,TX,75025,589900,4,2.5,Knolls At Russell Creek,2778,6098,1998,12,212,53,Active,,,https://www.redfin.com/TX/Plano/2509-Allegro-Ln-75025/home/32115765,NTREIS,20722197,N,Y,33.0973576,-96.74106
MLS Listing,,Single Family Residential,6710 Osage Trl,Plano,TX,75023,415000,3,2.0,Hunters Ridge Ph 2,1874,7841,1988,13,221,,Active,,,https://www.redfin.com/TX/Plano/6710-Osage-Trl-75023/home/32192756,NTREIS,20722062,N,Y,33.0680422,-96.7307931
MLS Listing,,Single Family Residential,3021 Martello Ln,Plano,TX,75074,529900,3,2.5,Timber Brook North Ph II,2112,4617,2016,13,251,43,Active,,,https://www.redfin.com/TX/Plano/3021-Martello-Ln-75074/home/101343977,NTREIS,20721047,N,Y,33.0722736,-96.6718351
MLS Listing,,Single Family Residential,2753 Scenic Dr,Plano,TX,75025,655000,5,3.5,Villages Of Russell Creek Ph 2b,2660,11761,1994,13,246,,Active,,,https://www.redfin.com/TX/Plano/2753-Scenic-Dr-75025/home/32099296,NTREIS,20721970,N,Y,33.0935763,-96.7457579
MLS Listing,,Single Family Residential,3801 Kite Meadow Dr,Plano,TX,75074,599900,4,3.5,Stoney Hollow Ph Three,3636,10019,1999,13,165,44,Active,,,https://www.redfin.com/TX/Plano/3801-Kite-Meadow-Dr-75074/home/32121065,NTREIS,20714879,N,Y,33.0466924,-96.6572509
MLS Listing,,Single Family Residential,3624 Mckinley Dr,Plano,TX,75023,325000,3,2.0,Park Forest Add 1,1440,8276,1973,13,226,,Active,,,https://www.redfin.com/TX/Plano/3624-McKinley-Dr-75023/home/31907575,NTREIS,20712738,N,Y,33.0464718,-96.7178461
MLS Listing,,Single Family Residential,813 Simon Dr,Plano,TX,75025,420000,3,2.0,Cross Creek East 2,1741,7405,1985,13,241,,Active,,,https://www.redfin.com/TX/Plano/813-Simon-Dr-75025/home/32010200,NTREIS,20721668,N,Y,33.0790882,-96.7057347
MLS Listing,,Single Family Residential,3700 Redman Dr,Plano,TX,75074,760000,5,4.5,Villas Of Pecan Creek Ph 1,3568,9714,2013,13,213,55,Active,,,https://www.redfin.com/TX/Plano/3700-Redman-Dr-75074/home/81070272,NTREIS,20718810,N,Y,33.047054,-96.6811146
MLS Listing,,Single Family Residential,2153 Bunker Hill Cir,Plano,TX,75075,550000,4,2.5,Bunker Hill Estates,2194,8712,1977,13,251,,Active,,,https://www.redfin.com/TX/Plano/2153-Bunker-Hill-Cir-75075/home/31854585,NTREIS,20719268,N,Y,33.0303445,-96.7371597
MLS Listing,,Single Family Residential,8033 Cornelius Dr,Plano,TX,75024,679900,3,2.5,Commodore At Preston Residential,2209,1568,2020,13,308,150,Active,,,https://www.redfin.com/TX/Plano/8033-Cornelius-Dr-75024/home/169615536,NTREIS,20714119,N,Y,33.0865805,-96.8018712
MLS Listing,,Single Family Residential,4520 Atlanta Dr,Plano,TX,75093,575000,3,2.5,Place 01 544,2280,8189,1978,13,252,,Active,,,https://www.redfin.com/TX/Plano/4520-Atlanta-Dr-75093/home/32160216,NTREIS,20720996,N,Y,33.0261699,-96.7845704
MLS Listing,,Single Family Residential,2500 Cross Bend Rd,Plano,TX,75023,449600,4,2.5,Parker Road Estates West 3-E,2044,8276,1976,13,220,,Active,,,https://www.redfin.com/TX/Plano/2500-Cross-Bend-Rd-75023/home/31914459,NTREIS,20720004,N,Y,33.0488334,-96.7423627
MLS Listing,,Single Family Residential,6825 Labelle Ct,Plano,TX,75024,2000000,3,3.5,Normandy Estates,4061,6316,2014,13,492,479,Active,,,https://www.redfin.com/TX/Plano/6825-Labelle-Ct-75024/home/35594223,NTREIS,20687958,N,Y,33.0709158,-96.8431831
MLS Listing,,Single Family Residential,3201 Golden Springs Dr,Plano,TX,75025,689990,4,3.0,Spring Ridge Ph II,3299,6534,2001,13,209,33,Active,,,https://www.redfin.com/TX/Plano/3201-Golden-Springs-Dr-75025/home/32253307,NTREIS,20720689,N,Y,33.086834,-96.7541061
MLS Listing,,Townhouse,4682 Cecile Rd,Plano,TX,75024,579950,3,2.5,Pasquinellis Willow Crest Ph 4,2444,2919,2013,13,237,322,Active,,,https://www.redfin.com/TX/Plano/4682-Cecile-Rd-75024/home/31800626,NTREIS,20721114,N,Y,33.0945644,-96.7947001
MLS Listing,,Single Family Residential,3925 Cross Bend Rd,Plano,TX,75023,725000,4,3.5,Parkway Estates,3728,10454,1984,13,194,,Active,,,https://www.redfin.com/TX/Plano/3925-Cross-Bend-Rd-75023/home/32166608,NTREIS,20721098,N,Y,33.0495079,-96.7700738
MLS Listing,,Condo/Co-op,7901 Windrose Ave #1204,Plano,TX,75024,3400000,3,3.5,Windrose Tower At Legacy West Condo,3607,97182,2019,14,943,3463,Active,,,https://www.redfin.com/TX/Plano/7901-Windrose-Ave-75024/unit-1204/home/167875612,NTREIS,20718949,N,Y,33.0847495,-96.8267676
MLS Listing,,Single Family Residential,7112 Petticoat Dr,Plano,TX,75024,730000,3,2.5,Kings Ridge Add Ph Three,3513,5489,2008,14,208,79,Active,,,https://www.redfin.com/TX/Plano/7112-Petticoat-Dr-75024/home/32657005,NTREIS,20714340,N,Y,33.0746931,-96.8548314
MLS Listing,,Single Family Residential,1604 Shreveport Trl,Plano,TX,75023,432500,3,2.0,Park Forest North Add Sixth Increment,1694,6970,1978,14,255,,Active,,,https://www.redfin.com/TX/Plano/1604-Shreveport-Trl-75023/home/31916131,NTREIS,20720200,N,Y,33.0656383,-96.7232879
MLS Listing,,Single Family Residential,1405 Whitehall Dr,Plano,TX,75023,479000,4,3.0,Park Forest Add 4,1744,7841,1974,14,275,,Active,September-21-2024 01:00 PM,September-21-2024 03:00 PM,https://www.redfin.com/TX/Plano/1405-Whitehall-Dr-75023/home/31909085,NTREIS,20720033,N,Y,33.0509098,-96.7186492
MLS Listing,,Townhouse,7936 Eddie Dr,Plano,TX,75025,399999,3,2.5,Redhill Spgs,1658,2178,2008,15,241,350,Active,,,https://www.redfin.com/TX/Plano/7936-Eddie-Dr-75025/home/31675988,NTREIS,20719858,N,Y,33.085457,-96.737978
MLS Listing,,Single Family Residential,6808 Burr Oak Dr,Plano,TX,75023,475000,3,2.5,NORTHWOOD,2702,,1992,15,176,,Active,,,https://www.redfin.com/TX/Plano/6808-Burr-Oak-Dr-75023/home/32090785,NTREIS,20719644,N,Y,33.0692491,-96.7180512
MLS Listing,,Single Family Residential,4405 Crown Ridge Dr,Plano,TX,75024,575000,4,3.5,Preston Crest,3166,8276,1994,15,182,,Active,,,https://www.redfin.com/TX/Plano/4405-Crown-Ridge-Dr-75024/home/32074327,NTREIS,20719625,N,Y,33.0587668,-96.7785274
MLS Listing,,Single Family Residential,8521 Maltby Ct,Plano,TX,75024,649500,4,4.5,Stonehaven Place Ph One,2524,13939,1994,15,257,13,Active,,,https://www.redfin.com/TX/Plano/8521-Maltby-Ct-75024/home/32098075,NTREIS,20719475,N,Y,33.0946255,-96.7727547
MLS Listing,,Single Family Residential,2425 Hunters Run Dr,Plano,TX,75025,599900,4,2.5,Knolls At Russell Creek Ph 4b,2869,6098,2000,16,209,26,Active,,,https://www.redfin.com/TX/Plano/2425-Hunters-Run-Dr-75025/home/32117457,NTREIS,20718460,N,Y,33.0981373,-96.7381478
MLS Listing,,Single Family Residential,4228 Whistler Dr,Plano,TX,75093,700000,4,3.0,Whiffletree X,2834,10363,1990,17,247,,Active,September-18-2024 08:00 AM,September-18-2024 07:00 PM,https://www.redfin.com/TX/Plano/4228-Whistler-Dr-75093/home/32024737,NTREIS,20718354,N,Y,33.0478851,-96.7749628
MLS Listing,,Condo/Co-op,7901 Windrose Ave #2403,Plano,TX,75024,1798888,2,2.5,Windrose Tower At Legacy West Condo,1834,97182,2019,17,981,1870,Active,,,https://www.redfin.com/TX/Plano/7901-Windrose-Ave-75024/unit-2403/home/173552120,NTREIS,20716641,N,Y,33.0847495,-96.8267676
MLS Listing,,Single Family Residential,2108 Merksem Ct,Plano,TX,75025,649900,4,3.0,Oakwood Glen First Sec,2612,10454,1993,17,249,55,Active,,,https://www.redfin.com/TX/Plano/2108-Merksem-Ct-75025/home/31933639,NTREIS,20718274,N,Y,33.0806826,-96.7355839
MLS Listing,,Single Family Residential,8624 Kendall Dr,Plano,TX,75025,615000,4,2.5,Highland Ridge III,2369,9583,1994,17,260,50,Active,,,https://www.redfin.com/TX/Plano/8624-Kendall-Dr-75025/home/32093013,NTREIS,20714838,N,Y,33.0956535,-96.7632264
MLS Listing,,Single Family Residential,2137 Parkhaven Dr,Plano,TX,75075,480000,4,2.0,Stone Creek,1970,8712,1975,17,244,,Active,,,https://www.redfin.com/TX/Plano/2137-Parkhaven-Dr-75075/home/31905305,NTREIS,20713506,N,Y,33.0371684,-96.7360293
MLS Listing,,Single Family Residential,1705 W Spring Creek Pkwy,Plano,TX,75023,369000,3,2.0,Park Forest North Add Third Increment,1670,9148,1977,18,221,,Active,,,https://www.redfin.com/TX/Plano/1705-W-Spring-Creek-Pkwy-75023/home/31912199,NTREIS,20717208,N,Y,33.056693,-96.726244
MLS Listing,,Townhouse,5724 Baltic Blvd,Plano,TX,75024,529000,3,3.0,Town Homes At Legacy Town Center Ph Four The,1998,1133,2011,18,265,220,Active,,,https://www.redfin.com/TX/Plano/5724-Baltic-Blvd-75024/home/31781641,NTREIS,20716072,N,Y,33.0857227,-96.8194873
MLS Listing,,Single Family Residential,9725 Kingsmill Dr,Plano,TX,75025,485000,3,2.0,Ridgeview Ranch West Ph 2,1985,6098,2001,18,244,42,Active,,,https://www.redfin.com/TX/Plano/9725-Kingsmill-Dr-75025/home/32296484,NTREIS,20717720,N,Y,33.1109369,-96.7547374
MLS Listing,,Single Family Residential,2421 Vista Point Dr,Plano,TX,75093,629000,3,2.0,The Hills At Prestonwood III,2278,7449,1995,18,276,33,Active,,,https://www.redfin.com/TX/Plano/2421-Vista-Point-Dr-75093/home/33046219,NTREIS,20713635,N,Y,33.0334389,-96.8486536
MLS Listing,,Single Family Residential,2820 Saint Charles Dr,Plano,TX,75074,770000,4,4.0,Orleans Park Ph II,3217,30100,1990,19,239,,Active,,,https://www.redfin.com/TX/Plano/2820-Saint-Charles-Dr-75074/home/32202556,NTREIS,20711183,N,Y,33.0423239,-96.6749425
MLS Listing,,Single Family Residential,4116 Norcross Dr,Plano,TX,75024,549000,4,2.5,Highland Meadows,2562,8276,1988,19,214,,Active,,,https://www.redfin.com/TX/Plano/4116-Norcross-Dr-75024/home/32055661,NTREIS,20717026,N,Y,33.0888358,-96.7751717
MLS Listing,,Townhouse,421 Division St,Plano,TX,75075,465000,3,2.5,Heritage Creekside Homes West,1986,1873,2018,19,234,300,Active,,,https://www.redfin.com/TX/Plano/421-Division-St-75075/home/147072998,NTREIS,20685314,N,Y,33.0050237,-96.7190405
MLS Listing,,Single Family Residential,2505 N Ave,Plano,TX,75074,289500,3,1.0,Plano Park First Sec,1234,7405,1962,19,235,,Active,,,https://www.redfin.com/TX/Plano/2505-N-Ave-75074/home/31885017,NTREIS,20713904,N,Y,33.0317764,-96.6951403
MLS Listing,,Single Family Residential,2509 Mollimar Dr,Plano,TX,75075,550000,4,2.5,Cloisters,2106,8712,1972,19,261,,Active,,,https://www.redfin.com/TX/Plano/2509-Mollimar-Dr-75075/home/31895483,NTREIS,20716575,N,Y,33.0227554,-96.7418479
MLS Listing,,Townhouse,7940 Bishop Rd,Plano,TX,75024,600000,4,3.5,Town Homes At Legacy Town Center Ph Four The,2265,1089,2008,19,265,220,Active,,,https://www.redfin.com/TX/Plano/7940-Bishop-Rd-75024/home/31781325,NTREIS,20717134,N,Y,33.085521,-96.821501
MLS Listing,,Single Family Residential,4554 Winding Wood Trl,Plano,TX,75024,549000,3,2.0,Villages Of Preston Glen,2412,6098,2001,19,228,25,Active,September-21-2024 01:00 PM,September-21-2024 03:00 PM,https://www.redfin.com/TX/Plano/4554-Winding-Wood-Trl-75024/home/32268482,NTREIS,20716677,N,Y,33.0843456,-96.7861985
MLS Listing,,Single Family Residential,1912 Tampico Dr,Plano,TX,75075,499000,4,3.0,Ports O Call Ph Two,2283,9148,1974,19,219,,Active,,,https://www.redfin.com/TX/Plano/1912-Tampico-Dr-75075/home/31888091,NTREIS,20717056,N,Y,33.035872,-96.7305615
MLS Listing,,Single Family Residential,4400 Maize Dr,Plano,TX,75093,850000,5,4.0,Wentworth Estates V Ph 1,3961,10019,1993,19,215,,Active,,,https://www.redfin.com/TX/Plano/4400-Maize-Dr-75093/home/32079512,NTREIS,20716578,N,Y,33.0352567,-96.7790496
MLS Listing,,Single Family Residential,2116 Liverpool Dr,Plano,TX,75025,460000,3,2.5,Stonetree,1967,7405,1985,19,234,,Active,,,https://www.redfin.com/TX/Plano/2116-Liverpool-Dr-75025/home/31933831,NTREIS,20716737,N,Y,33.0772807,-96.7358698
MLS Listing,,Single Family Residential,3517 Darion Ln,Plano,TX,75093,609000,3,2.5,Preston Meadow Phase 1,2855,10149,1988,19,213,15,Active,September-22-2024 01:00 PM,September-22-2024 03:00 PM,https://www.redfin.com/TX/Plano/3517-Darion-Ln-75093/home/31851653,NTREIS,20716343,N,Y,33.0451893,-96.777822
MLS Listing,,Single Family Residential,3913 Inverness Ln,Plano,TX,75075,610000,4,3.0,Riverbend North,2588,9148,1980,19,236,,Active,,,https://www.redfin.com/TX/Plano/3913-Inverness-Ln-75075/home/32168602,NTREIS,20708816,N,Y,33.0337473,-96.7688646
MLS Listing,,Single Family Residential,4308 Dottie Dr,Plano,TX,75074,459900,4,2.5,Creekside Estates 2,2484,10454,1991,20,185,,Active,,,https://www.redfin.com/TX/Plano/4308-Dottie-Dr-75074/home/31927021,NTREIS,20715392,N,Y,33.0351254,-96.6443575
MLS Listing,,Single Family Residential,7937 Vienna Dr,Plano,TX,75025,410000,3,2.0,Cross Creek 6b,1458,5227,1988,20,281,,Active,,,https://www.redfin.com/TX/Plano/7937-Vienna-Dr-75025/home/32036385,NTREIS,20716513,N,Y,33.0857121,-96.7253143
MLS Listing,,Townhouse,8739 Bigelow Dr,Plano,TX,75024,415000,3,2.5,Hidden Creek Estates Ph 3 & 4,1632,2614,2007,20,254,300,Active,,,https://www.redfin.com/TX/Plano/8739-Bigelow-Dr-75024/home/31718409,NTREIS,20713691,N,Y,33.0977332,-96.7854646
MLS Listing,,Single Family Residential,1517 West Spring Creek Pkwy,Plano,TX,75023,449000,3,2.0,park forest north #01,1930,9784,1976,20,233,,Active,,,https://www.redfin.com/TX/Plano/1517-W-Spring-Creek-Pkwy-75023/home/31911077,NTREIS,20716336,N,Y,33.056833,-96.72107
MLS Listing,,Single Family Residential,904 Cross Bend Rd,Plano,TX,75023,395000,3,2.0,Park Forest Add 1,1480,6970,1975,20,267,,Active,,,https://www.redfin.com/TX/Plano/904-Cross-Bend-Rd-75023/home/31907608,NTREIS,20713923,N,Y,33.0473817,-96.7122306
MLS Listing,,Single Family Residential,3516 Twin Lakes Way,Plano,TX,75093,1525000,5,5.5,Lakeside On Preston Ph 4c,5675,15246,1996,20,269,167,Active,,,https://www.redfin.com/TX/Plano/3516-Twin-Lakes-Way-75093/home/32233786,NTREIS,20714566,N,Y,33.0449895,-96.8015019
MLS Listing,,Single Family Residential,1808 Westridge Dr,Plano,TX,75075,629999,4,3.5,Dallas North Estates Eighth Instl,2592,10019,1968,20,243,,Active,,,https://www.redfin.com/TX/Plano/1808-Westridge-Dr-75075/home/32156326,NTREIS,20715565,N,Y,33.0104393,-96.7287652
MLS Listing,,Single Family Residential,2905 Roundrock Trl,Plano,TX,75075,499900,4,2.0,University Estates 2,2134,9148,1974,20,234,,Active,September-22-2024 02:00 PM,September-22-2024 04:00 PM,https://www.redfin.com/TX/Plano/2905-Roundrock-Trl-75075/home/31898983,NTREIS,20704368,N,Y,33.0371698,-96.7441473
MLS Listing,,Single Family Residential,6520 Texana Way,Plano,TX,75074,577000,3,2.5,Oak Point Estates,3270,7841,2007,20,176,150,Active,,,https://www.redfin.com/TX/Plano/6520-Texana-Way-75074/home/31693630,NTREIS,20712055,N,Y,33.0629112,-96.6844132
MLS Listing,,Single Family Residential,5728 Gleneagles Dr,Plano,TX,75093,1070000,3,3.0,Greens Of Gleneagles,3602,6098,1997,20,297,200,Active,,,https://www.redfin.com/TX/Plano/5728-Gleneagles-Dr-75093/home/32253942,NTREIS,20715137,N,Y,33.0432988,-96.8165954
MLS Listing,,Single Family Residential,4528 Savino Dr,Plano,TX,75093,799000,4,4.5,Preston Spgs Ph II Sec A,3815,11326,1993,20,209,42,Active,,,https://www.redfin.com/TX/Plano/4528-Savino-Dr-75093/home/32086575,NTREIS,20712751,N,Y,33.0521778,-96.7823628
MLS Listing,,Single Family Residential,6801 Beeman Dr,Plano,TX,75023,445000,4,2.0,Hunters Ridge Ph Three,1868,7405,1985,20,238,,Active,,,https://www.redfin.com/TX/Plano/6801-Beeman-Dr-75023/home/32192413,NTREIS,20706283,N,Y,33.069233,-96.7248623
MLS Listing,,Single Family Residential,1920 Papeete Dr,Plano,TX,75075,549000,4,2.5,Ports O Call Ph Two,2168,8712,1975,20,253,,Active,,,https://www.redfin.com/TX/Plano/1920-Papeete-Dr-75075/home/31888366,NTREIS,20708830,N,Y,33.035053,-96.7310706
MLS Listing,,Single Family Residential,2301 Fawnwood Dr,Plano,TX,75093,2099000,4,4.5,Willow Bend Polo Estates Ph G,5414,14810,1999,20,388,73,Active,,,https://www.redfin.com/TX/Plano/2301-Fawnwood-Dr-75093/home/32260823,NTREIS,20715760,N,Y,33.032254,-96.8255244
MLS Listing,,Single Family Residential,3616 Bent Ridge Dr,Plano,TX,75074,547000,4,3.0,Stoney Hollow Ph One,2898,8712,1998,20,189,40,Active,,,https://www.redfin.com/TX/Plano/3616-Bent-Ridge-Dr-75074/home/32255154,NTREIS,20715130,N,Y,33.0458577,-96.6515466
MLS Listing,,Single Family Residential,2612 Stone Creek Dr,Plano,TX,75075,698000,4,2.5,Stone Creek,2832,27007,1975,20,246,,Active,,,https://www.redfin.com/TX/Plano/2612-Stone-Creek-Dr-75075/home/31905554,NTREIS,20710191,N,Y,33.0332531,-96.7436205
MLS Listing,,Single Family Residential,2713 Redfield Dr,Plano,TX,75025,649888,4,3.0,Hunters Glen Nine,2997,7841,1990,20,217,,Active,,,https://www.redfin.com/TX/Plano/2713-Redfield-Dr-75025/home/32191465,NTREIS,20715467,N,Y,33.0781477,-96.7473038
MLS Listing,,Single Family Residential,912 22nd St,Plano,TX,75074,225000,4,2.0,W O Haggard Add,1238,11326,1953,21,182,,Active,,,https://www.redfin.com/TX/Plano/912-22nd-St-75074/home/31865616,NTREIS,20715451,N,Y,33.0281264,-96.7012517
MLS Listing,,Single Family Residential,2405 Beaver Bend Dr,Plano,TX,75025,615000,4,3.0,Hunters Glen Nine,2603,7841,1991,21,236,,Active,,,https://www.redfin.com/TX/Plano/2405-Beaver-Bend-Dr-75025/home/32189805,NTREIS,20714774,N,Y,33.076932,-96.7429074
MLS Listing,,Single Family Residential,8008 Barrymoore Ln,Plano,TX,75025,850000,5,4.0,Cambridge Place At Russell Creek,3982,9583,2004,21,213,38,Active,,,https://www.redfin.com/TX/Plano/8008-Barrymoore-Ln-75025/home/32326584,NTREIS,20713680,N,Y,33.0871221,-96.7371129
MLS Listing,,Single Family Residential,6705 Leslie Ct,Plano,TX,75023,719900,5,4.0,Forest Creek Estates Ph I,3444,8284,1985,21,209,,Active,,,https://www.redfin.com/TX/Plano/6705-Leslie-Ct-75023/home/32018384,NTREIS,20711376,N,Y,33.0662979,-96.7535054
MLS Listing,,Single Family Residential,4001 Esquire Ct,Plano,TX,75023,809000,4,4.0,Parkway Estates,3519,10454,1986,21,230,,Active,,,https://www.redfin.com/TX/Plano/4001-Esquire-Ct-75023/home/32168125,NTREIS,20703261,N,Y,33.051957,-96.7685253
MLS Listing,,Single Family Residential,5012 Kirkland Ct,Plano,TX,75093,1295000,5,4.5,Creeks Of Willow Bend Ph 1,5016,12632,1999,21,258,208,Active,,,https://www.redfin.com/TX/Plano/5012-Kirkland-Ct-75093/home/32122706,NTREIS,20713388,N,Y,33.0382211,-96.7961482
MLS Listing,,Townhouse,1141 Concan Dr,Plano,TX,75075,499000,3,2.5,Collin Creek,1572,1394,2024,21,317,162,Active,,,https://www.redfin.com/TX/Plano/1141-Concan-Dr-75075/home/192217856,NTREIS,20715003,N,Y,33.0164713,-96.7157606
MLS Listing,,Townhouse,1137 Concan Dr,Plano,TX,75075,499000,3,2.5,Collin Creek,1572,1307,2024,21,317,162,Active,,,https://www.redfin.com/TX/Plano/1137-Concan-Dr-75075/home/192217837,NTREIS,20714960,N,Y,33.0163998,-96.715758
MLS Listing,,Townhouse,1140 Concan Dr,Plano,TX,75075,494000,3,2.5,Collin Creek,1572,1481,2024,21,314,162,Active,,,https://www.redfin.com/TX/Plano/1140-Concan-Dr-75075/home/192217863,NTREIS,20714937,N,Y,33.0165227,-96.7153768
MLS Listing,,Single Family Residential,8628 Clearview Ct,Plano,TX,75025,549900,3,2.5,"KNOLLS AT RUSSELL CREEK PHASE II (CPL), BLK B, LOT",2682,9547,2000,21,205,38,Active,,,https://www.redfin.com/TX/Plano/8628-Clearview-Ct-75025/home/32254289,NTREIS,20714883,N,Y,33.096652,-96.7339231
MLS Listing,,Single Family Residential,4421 Ballinger Dr,Plano,TX,75093,431000,3,2.0,Preston Square,1637,11883,1984,21,263,,Active,September-18-2024 08:00 AM,September-18-2024 07:00 PM,https://www.redfin.com/TX/Plano/4421-Ballinger-Dr-75093/home/32002324,NTREIS,20715446,N,Y,33.0186358,-96.7794779
MLS Listing,,Single Family Residential,6525 Renewal Rd,Plano,TX,75074,500000,4,2.5,Oak Point Estates,2631,5227,2006,21,190,136,Active,September-21-2024 11:00 AM,September-21-2024 01:00 PM,https://www.redfin.com/TX/Plano/6525-Renewal-Rd-75074/home/31693529,NTREIS,20713275,N,Y,33.0630088,-96.6832556
MLS Listing,,Single Family Residential,5108 Mustang Trl,Plano,TX,75093,720000,4,3.0,Old Shepard Place #2 3 & 4,2657,8276,1983,21,271,47,Active,September-22-2024 02:00 PM,September-22-2024 04:00 PM,https://www.redfin.com/TX/Plano/5108-Mustang-Trl-75093/home/31932594,NTREIS,20712008,N,Y,33.0182274,-96.8031479
MLS Listing,,Single Family Residential,4537 Miami Dr,Plano,TX,75093,476000,5,2.5,544 Place Sec Two,2254,9148,1981,22,211,,Active,,,https://www.redfin.com/TX/Plano/4537-Miami-Dr-75093/home/31863908,NTREIS,20714150,N,Y,33.0181792,-96.7855614
MLS Listing,,Single Family Residential,1905 Eden Valley Ln,Plano,TX,75093,575000,4,3.0,Highlands North Ph II,2795,10890,1985,22,206,,Active,,,https://www.redfin.com/TX/Plano/1905-Eden-Valley-Ln-75093/home/31875986,NTREIS,20712809,N,Y,33.0257666,-96.7763359
MLS Listing,,Single Family Residential,3945 Los Robles Dr,Plano,TX,75074,367000,3,2.0,Los Rios Add Ph 5,1860,9583,1981,22,197,,Active,,,https://www.redfin.com/TX/Plano/3945-Los-Robles-Dr-75074/home/31873912,NTREIS,20713764,N,Y,33.0282635,-96.6520252
MLS Listing,,Condo/Co-op,2400 Jupiter Rd #5,Plano,TX,75074,233900,2,2.5,Briarpark Village #3,1254,610,1985,22,187,226,Active,,,https://www.redfin.com/TX/Plano/2400-Jupiter-Rd-75074/unit-5/home/32026449,NTREIS,20710351,N,Y,33.0294471,-96.6817163
MLS Listing,,Single Family Residential,4537 Crosstimber Dr,Plano,TX,75093,772900,4,4.0,Highlands Of Preston Ridge Ph Four,3506,9583,1995,22,220,21,Active,,,https://www.redfin.com/TX/Plano/4537-Crosstimber-Dr-75093/home/32223208,NTREIS,20707977,N,Y,33.0383013,-96.7842862
MLS Listing,,Single Family Residential,1617 Hardeman Ln,Plano,TX,75075,779900,5,4.5,Sabine Park Estates,3821,9148,2016,23,204,91,Active,,,https://www.redfin.com/TX/Plano/1617-Hardeman-Ln-75075/home/144142176,NTREIS,20707911,N,Y,33.0206788,-96.7286679
MLS Listing,,Single Family Residential,1529 Valencia Dr,Plano,TX,75074,368000,3,2.0,La Paz Estates 1,1699,7841,1993,23,217,,Active,,,https://www.redfin.com/TX/Plano/1529-Valencia-Dr-75074/home/31930182,NTREIS,20711383,N,Y,33.018173,-96.6584828
MLS Listing,,Single Family Residential,8020 Ambiance Way,Plano,TX,75024,870000,4,3.5,Crystal Creek,3719,8276,2001,23,234,21,Active,,,https://www.redfin.com/TX/Plano/8020-Ambiance-Way-75024/home/32307055,NTREIS,20700628,N,Y,33.0879422,-96.791391
MLS Listing,,Single Family Residential,3312 Crater Ln,Plano,TX,75023,425000,3,2.0,Park Forest #8,1989,8712,1979,24,214,,Active,,,https://www.redfin.com/TX/Plano/3312-Crater-Ln-75023/home/31919155,NTREIS,20702143,N,Y,33.0419139,-96.711987
MLS Listing,,Single Family Residential,6608 Terrace Mill Ln,Plano,TX,75024,1265000,5,3.5,Kings Ridge Add,4602,7536,2003,25,275,79,Active,,,https://www.redfin.com/TX/Plano/6608-Terrace-Mill-Ln-75024/home/33125625,NTREIS,20707037,N,Y,33.0655558,-96.8551113
MLS Listing,,Single Family Residential,1307 Crestridge Dr,Plano,TX,75075,394900,3,2.0,Dallas North Estates 1st Instl,1439,7841,1964,25,274,,Active,,,https://www.redfin.com/TX/Plano/1307-Crestridge-Dr-75075/home/31861963,NTREIS,20711884,N,Y,33.0177729,-96.7197549
MLS Listing,,Condo/Co-op,2500 E Park Blvd Unit O8,Plano,TX,75074,208000,2,1.5,Briarpark Village #5,1188,697,1985,25,175,214,Active,,,https://www.redfin.com/TX/Plano/2500-E-Park-Blvd-75074/unit-O8/home/32194270,NTREIS,20707609,N,Y,33.0309278,-96.6807205
MLS Listing,,Single Family Residential,3700 Tumbril Ln,Plano,TX,75023,514999,4,2.5,Whiffletree Ph II,2630,9583,1981,25,196,,Active,,,https://www.redfin.com/TX/Plano/3700-Tumbril-Ln-75023/home/31900980,NTREIS,20710753,N,Y,33.0475714,-96.7561533
MLS Listing,,Townhouse,7024 Van Gogh Dr,Plano,TX,75093,380000,2,2.0,Pasquinellis Parker Estates,1514,5401,2002,25,251,345,Active,,,https://www.redfin.com/TX/Plano/7024-Van-Gogh-Dr-75093/home/33168289,NTREIS,20708106,N,Y,33.0423097,-96.8546701
MLS Listing,,Single Family Residential,1001 Mossvine Dr,Plano,TX,75023,330000,3,2.0,Park Forest Add 5,2006,9148,1974,26,165,,Active,,,https://www.redfin.com/TX/Plano/1001-Mossvine-Dr-75023/home/31910711,NTREIS,20711453,N,Y,33.0548169,-96.7140549
MLS Listing,,Single Family Residential,2719 Ellis Ct,Plano,TX,75075,699000,4,3.0,River Bend Add Ph II,2507,10890,1978,26,279,,Active,,,https://www.redfin.com/TX/Plano/2719-Ellis-Ct-75075/home/32169356,NTREIS,20711497,N,Y,33.0368361,-96.769287
MLS Listing,,Single Family Residential,4544 Kentucky Dr,Plano,TX,75024,1000000,4,5.0,Deerfield North Ph III,4127,8276,2009,26,242,48,Active,,,https://www.redfin.com/TX/Plano/4544-Kentucky-Dr-75024/home/31726633,NTREIS,20708225,N,Y,33.0833762,-96.7827222
MLS Listing,,Townhouse,10025 Castlewood Dr,Plano,TX,75025,364500,2,2.5,Pasquinellis Kingsbrook At Ridgeview,1535,3920,2000,26,237,395,Active,,,https://www.redfin.com/TX/Plano/10025-Castlewood-Dr-75025/home/32273575,NTREIS,20711468,N,Y,33.1151323,-96.7527051
MLS Listing,,Single Family Residential,8016 Ingram Dr,Plano,TX,75024,650000,3,3.0,Commodore At Preston Residential,1906,1742,2019,26,341,200,Active,,,https://www.redfin.com/TX/Plano/8016-Ingram-Dr-75024/home/169039217,NTREIS,20710623,N,Y,33.0861605,-96.8023525
MLS Listing,,Single Family Residential,2713 Knollwood Ct,Plano,TX,75075,499000,3,2.0,Prairie Creek Estates,2561,9583,1973,26,195,,Active,,,https://www.redfin.com/TX/Plano/2713-Knollwood-Ct-75075/home/32163966,NTREIS,20709142,N,Y,33.0244537,-96.7467289
MLS Listing,,Single Family Residential,6120 Preserve Dr,Plano,TX,75024,999000,3,2.5,Villas At Legacy West Add,2133,2004,2019,26,468,192,Active,,,https://www.redfin.com/TX/Plano/6120-Preserve-Dr-75024/home/144145474,NTREIS,20710064,N,Y,33.083942,-96.8286033
MLS Listing,,Single Family Residential,3908 Valdez Ct,Plano,TX,75074,390000,3,2.5,Hidden Meadows Of Los Rios 2,2177,9148,1985,26,179,,Active,,,https://www.redfin.com/TX/Plano/3908-Valdez-Ct-75074/home/32030281,NTREIS,20702063,N,Y,33.0218886,-96.6555862
MLS Listing,,Single Family Residential,7001 Coverdale Dr,Plano,TX,75024,999000,3,2.5,Kings Ridge Add Ph II,3740,6578,2003,26,267,75,Active,,,https://www.redfin.com/TX/Plano/7001-Coverdale-Dr-75024/home/32563723,NTREIS,20710868,N,Y,33.0729986,-96.8533093
MLS Listing,,Single Family Residential,1425 Glacier Dr,Plano,TX,75023,365000,3,2.0,Park Forest Add 1,1757,7405,1972,26,208,,Active,,,https://www.redfin.com/TX/Plano/1425-Glacier-Dr-75023/home/31905713,NTREIS,20711084,N,Y,33.0433555,-96.7221103
MLS Listing,,Single Family Residential,4436 Hartford Dr,Plano,TX,75093,539900,4,2.0,Highlands North Ph V,2253,9148,1982,26,240,,Active,,,https://www.redfin.com/TX/Plano/4436-Hartford-Dr-75093/home/31922464,NTREIS,20710754,N,Y,33.0203065,-96.7812726
MLS Listing,,Single Family Residential,6829 Thorncliff Trl,Plano,TX,75023,420000,3,2.0,Trails The,1780,6970,1994,26,236,25,Active,,,https://www.redfin.com/TX/Plano/6829-Thorncliff-Trl-75023/home/32216624,NTREIS,20694171,N,Y,33.0688714,-96.7523116
MLS Listing,,Single Family Residential,941 Cherokee Trl,Plano,TX,75023,365000,3,2.0,Parkhill Add,1404,9148,1981,26,260,,Active,,,https://www.redfin.com/TX/Plano/941-Cherokee-Trl-75023/home/32165610,NTREIS,20705200,N,Y,33.0576922,-96.712935
MLS Listing,,Single Family Residential,1600 Cliffview Dr,Plano,TX,75093,2750000,4,5.0,Cliffs Of Gleneagles,7004,17424,1994,26,393,233,Active,,,https://www.redfin.com/TX/Plano/1600-Cliffview-Dr-75093/home/32093300,NTREIS,20710361,N,Y,33.0224291,-96.8142812
MLS Listing,,Single Family Residential,4504 Copeland Dr,Plano,TX,75024,800000,4,4.5,Deerfield North Ph I,3766,6970,2006,26,212,33,Active,,,https://www.redfin.com/TX/Plano/4504-Copeland-Dr-75024/home/31650258,NTREIS,20710853,N,Y,33.0828685,-96.7803477
MLS Listing,,Townhouse,7921 Belinda Ln,Plano,TX,75024,549990,4,3.5,Town Homes At Legacy Town Center Ph Four The,2065,1089,2011,26,266,220,Active,,,https://www.redfin.com/TX/Plano/7921-Belinda-Ln-75024/home/31781369,NTREIS,20710856,N,Y,33.084921,-96.8197409
MLS Listing,,Single Family Residential,4833 Holly Berry Dr,Plano,TX,75093,568000,3,2.5,Preston View Ph 1,2420,6970,1996,27,235,48,Active,,,https://www.redfin.com/TX/Plano/4833-Holly-Berry-Dr-75093/home/32211323,NTREIS,20710764,N,Y,33.0518673,-96.7919047
MLS Listing,,Single Family Residential,3504 Enclave Trl,Plano,TX,75074,715000,4,2.0,Hills Of Spring Creek The,2842,13068,2006,27,252,51,Active,,,https://www.redfin.com/TX/Plano/3504-Enclave-Trl-75074/home/31601442,NTREIS,20709721,N,Y,33.0454862,-96.6722708
MLS Listing,,Single Family Residential,2613 Flagstone Dr,Plano,TX,75075,490000,3,2.0,University Estates 2,1971,10019,1975,27,249,,Active,,,https://www.redfin.com/TX/Plano/2613-Flagstone-Dr-75075/home/31898695,NTREIS,20703609,N,Y,33.0381818,-96.7435979
MLS Listing,,Single Family Residential,2420 Evergreen Dr,Plano,TX,75075,589999,4,3.0,Cloisters 3,2741,10019,1972,27,215,,Active,,,https://www.redfin.com/TX/Plano/2420-Evergreen-Dr-75075/home/31895278,NTREIS,20710599,N,Y,33.0152713,-96.7407271
MLS Listing,,Single Family Residential,701 Baxter Dr,Plano,TX,75025,679000,4,3.0,Chase Oaks Add Ph One,3283,8189,1990,27,207,,Active,,,https://www.redfin.com/TX/Plano/701-Baxter-Dr-75025/home/32065244,NTREIS,20708826,N,Y,33.07891,-96.700949
MLS Listing,,Condo/Co-op,1700 Amelia Ct #221,Plano,TX,75075,185000,1,1.0,Parkbluff Add Ph I,648,697,1984,27,285,296,Active,,,https://www.redfin.com/TX/Plano/1700-Amelia-Ct-75075/unit-221/home/32002408,NTREIS,20707451,N,Y,33.0235409,-96.7646616
MLS Listing,,Single Family Residential,2408 Powderhorn Dr,Plano,TX,75025,475000,3,2.0,Hunters Glen Nine,2120,9148,1986,27,224,,Active,,,https://www.redfin.com/TX/Plano/2408-Powderhorn-Dr-75025/home/32189796,NTREIS,20708641,N,Y,33.0748235,-96.7431637
MLS Listing,,Single Family Residential,3700 Steven Dr,Plano,TX,75023,620000,5,3.0,Spring Creek Pkwy Estates West 6,2683,8276,1986,27,231,,Active,,,https://www.redfin.com/TX/Plano/3700-Steven-Dr-75023/home/32166855,NTREIS,20710049,N,Y,33.0568014,-96.7640719
MLS Listing,,Single Family Residential,3432 Danbury Ln,Plano,TX,75074,500000,4,2.0,Timber Brook Estates Ph III,2323,7405,1999,27,215,42,Active,,,https://www.redfin.com/TX/Plano/3432-Danbury-Ln-75074/home/32110407,NTREIS,20707427,N,Y,33.0650621,-96.6647455
MLS Listing,,Condo/Co-op,1809 W Spring Creek Pkwy Unit D2,Plano,TX,75023,229900,1,1.0,Springwood Creek #4 Condo,754,871,1982,27,305,250,Active,,,https://www.redfin.com/TX/Plano/1809-W-Spring-Creek-Pkwy-75023/unit-D2/home/173704127,NTREIS,20706080,N,Y,33.0591248,-96.728639
MLS Listing,,Single Family Residential,3221 Silver Creek Dr,Plano,TX,75093,1700000,5,4.5,Creeks Of Willow Bend Ph 1,5358,12197,2003,27,317,167,Active,,,https://www.redfin.com/TX/Plano/3221-Silver-Creek-Dr-75093/home/32122745,NTREIS,20689881,N,Y,33.0417897,-96.7996715
MLS Listing,,Single Family Residential,6556 Briar Ridge Ln,Plano,TX,75024,697000,3,2.5,Shoal Creek Ph VI,2593,7623,2003,28,269,220,Active,September-21-2024 02:00 PM,September-21-2024 04:00 PM,https://www.redfin.com/TX/Plano/6556-Briar-Ridge-Ln-75024/home/33139151,NTREIS,20706081,N,Y,33.0670327,-96.8435078
MLS Listing,,Single Family Residential,3320 Chantilly Dr,Plano,TX,75025,615000,4,3.0,Fountain Ridge Ph 1,3135,6970,1997,28,196,10,Active,,,https://www.redfin.com/TX/Plano/3320-Chantilly-Dr-75025/home/32242372,NTREIS,20709030,N,Y,33.0832398,-96.7554566
MLS Listing,,Single Family Residential,4617 Orwell Dr,Plano,TX,75093,450000,3,2.0,Preston Pointe,1662,4792,1986,28,271,38,Active,,,https://www.redfin.com/TX/Plano/4617-Orwell-Dr-75093/home/32034759,NTREIS,20708999,N,Y,33.0194652,-96.7878436
MLS Listing,,Single Family Residential,1724 Endicott Dr,Plano,TX,75025,550000,4,3.5,Legacy Hills,3164,9148,1991,28,174,,Active,,,https://www.redfin.com/TX/Plano/1724-Endicott-Dr-75025/home/32061292,NTREIS,20708478,N,Y,33.0718555,-96.7268088
MLS Listing,,Single Family Residential,7809 Creekway Ct,Plano,TX,75024,515000,3,2.5,Rockcreek Place,2056,5227,1995,28,250,73,Active,,,https://www.redfin.com/TX/Plano/7809-Creekway-Ct-75024/home/32230361,NTREIS,20706413,N,Y,33.0826649,-96.7942272
MLS Listing,,Condo/Co-op,7901 Windrose Ave #704,Plano,TX,75024,2150000,3,3.5,Windrose Tower At Legacy West Condo,2589,97182,2019,28,830,2640,Active,,,https://www.redfin.com/TX/Plano/7901-Windrose-Ave-75024/unit-704/home/173552020,NTREIS,20708137,N,Y,33.0847495,-96.8267676
MLS Listing,,Townhouse,1852 Sacaton Trl,Plano,TX,75075,474390,3,2.5,Heritage Creekside West,1718,1525,2024,28,276,300,Active,,,https://www.redfin.com/TX/Plano/1852-Sacaton-Trl-75075/home/192149086,NTREIS,20707007,N,Y,33.0060714,-96.7276822
MLS Listing,,Single Family Residential,2008 Apple Valley Rd,Plano,TX,75023,385000,3,2.0,Park Forest North Add Second Increment,1387,8276,1976,28,278,,Active,,,https://www.redfin.com/TX/Plano/2008-Apple-Valley-Rd-75023/home/31910942,NTREIS,20696319,N,Y,33.0610005,-96.7313295
MLS Listing,,Single Family Residential,1008 Lexington,Plano,TX,75075,447900,3,2.5,Greenhollow Estates,2079,1307,1979,28,215,,Active,,,https://www.redfin.com/TX/Plano/1008-Lexington-Dr-75075/home/32161251,NTREIS,20702156,N,Y,33.0377223,-96.7145681
MLS Listing,,Single Family Residential,1137 Gannon Dr,Plano,TX,75025,420000,4,2.5,Cross Creek 3 Sec 1 & 2,2090,10019,1981,29,201,,Active,,,https://www.redfin.com/TX/Plano/1137-Gannon-Dr-75025/home/31852920,NTREIS,20708114,N,Y,33.0809116,-96.7145578
MLS Listing,,Townhouse,812 Comal Dr,Plano,TX,75075,539990,2,2.5,Collin Creek,2176,958,2024,29,248,162,Active,,,https://www.redfin.com/TX/Plano/812-Comal-Dr-75075/home/192157802,NTREIS,20655139,N,Y,33.0122779,-96.7156716
MLS Listing,,Townhouse,824 Comal Dr,Plano,TX,75075,559990,3,3.5,Collin Creek,2213,958,2024,29,253,162,Active,,,https://www.redfin.com/TX/Plano/824-Comal-Dr-75075/home/192157801,NTREIS,20655128,N,Y,33.0124434,-96.7156854
MLS Listing,,Single Family Residential,3101 Springbranch Dr,Richardson,TX,75082,738719,4,3.5,Woods Of Springcreek Sec 5,3707,11326,2003,29,199,41,Active,,,https://www.redfin.com/TX/Richardson/3101-Springbranch-Dr-75082/home/32128412,NTREIS,20687869,N,Y,33.0030679,-96.6633179
MLS Listing,,Single Family Residential,2728 Teakwood Ln,Plano,TX,75075,429900,4,2.0,Park Blvd Estates West 2-B,2005,16553,1973,29,214,,Active,,,https://www.redfin.com/TX/Plano/2728-Teakwood-Ln-75075/home/31884919,NTREIS,20703832,N,Y,33.0369747,-96.7473182
MLS Listing,,Single Family Residential,1916 Fairfield Dr,Plano,TX,75074,315000,3,2.0,Armstrong Park,1292,7841,1970,30,244,,Active,,,https://www.redfin.com/TX/Plano/1916-Fairfield-Dr-75074/home/31842301,NTREIS,20707501,N,Y,33.0292976,-96.6872496
MLS Listing,,Single Family Residential,4568 Postbridge Dr,Plano,TX,75024,523000,4,2.0,Windsor Park Ph 2,2314,8712,1997,30,226,15,Active,,,https://www.redfin.com/TX/Plano/4568-Postbridge-Dr-75024/home/32079873,NTREIS,20707263,N,Y,33.0593072,-96.7837189
MLS Listing,,Single Family Residential,5204 Brougham Ln,Plano,TX,75023,658000,4,3.0,Carriage Hill Ph I,2960,9148,1983,30,222,,Active,,,https://www.redfin.com/TX/Plano/5204-Brougham-Ln-75023/home/32155257,NTREIS,20703607,N,Y,33.0552054,-96.7550766
MLS Listing,,Townhouse,7915 Parkwood Blvd,Plano,TX,75024,555000,3,3.5,Town Homes At Legacy Town Center Ph Four The,1983,1437,2013,30,280,200,Active,,,https://www.redfin.com/TX/Plano/7915-Parkwood-Blvd-75024/home/31732795,NTREIS,20697243,N,Y,33.0845035,-96.8188581
MLS Listing,,Condo/Co-op,3101 Townbluff Dr #413,Plano,TX,75075,275000,3,2.0,Townbluff Condo,1317,1481,1982,30,209,585,Active,,,https://www.redfin.com/TX/Plano/3101-Townbluff-Dr-75075/unit-413/home/32173875,NTREIS,20707133,N,Y,33.040737,-96.7447017
MLS Listing,,Single Family Residential,3029 Mill Ridge Dr,Plano,TX,75025,650000,4,2.5,Spring Ridge Ph III,2481,6534,1997,30,262,30,Active,September-22-2024 02:00 PM,September-22-2024 04:00 PM,https://www.redfin.com/TX/Plano/3029-Mill-Ridge-Dr-75025/home/32256528,NTREIS,20707092,N,Y,33.0921327,-96.7508392
MLS Listing,,Single Family Residential,9505 Katrina Path,Plano,TX,75025,625000,4,3.0,Highlands Of Russell Park Ph 2a,3089,7405,1998,30,202,41,Active,,,https://www.redfin.com/TX/Plano/9505-Katrina-Path-75025/home/32265137,NTREIS,20706575,N,Y,33.1074982,-96.7549057
MLS Listing,,Single Family Residential,3312 Sherrye Dr,Plano,TX,75074,419000,4,3.0,Briarwood East 2,2445,11326,1967,31,171,,Active,,,https://www.redfin.com/TX/Plano/3312-Sherrye-Dr-75074/home/31851418,NTREIS,20706253,N,Y,33.025882,-96.6686358
MLS Listing,,Single Family Residential,7808 Anthony Ln,Plano,TX,75024,512000,3,2.5,Fountain Creek 3,1710,9148,1996,32,299,,Active,,,https://www.redfin.com/TX/Plano/7808-Anthony-Ln-75024/home/32080661,NTREIS,20688565,N,Y,33.0837626,-96.7724386
MLS Listing,,Single Family Residential,1721 Allende Ct,Plano,TX,75074,579900,5,3.0,Los Rios Add Ph I,3010,12632,1978,32,193,,Active,,,https://www.redfin.com/TX/Plano/1721-Allende-Ct-75074/home/31871763,NTREIS,20705993,N,Y,33.0233985,-96.6497436
MLS Listing,,Single Family Residential,1804 Westridge Dr,Plano,TX,75075,450000,3,2.0,Dallas North Estates Eighth Instl,1876,10019,1967,32,240,,Active,,,https://www.redfin.com/TX/Plano/1804-Westridge-Dr-75075/home/31861713,NTREIS,20705882,N,Y,33.0104397,-96.72853
MLS Listing,,Single Family Residential,1209 F Ave,Plano,TX,75074,299900,3,2.0,P R Garrett Add,1260,6011,2004,32,238,,Active,,,https://www.redfin.com/TX/Plano/1209-F-Ave-75074/home/32160541,NTREIS,20705371,N,Y,33.0162256,-96.7058601
MLS Listing,,Single Family Residential,845 Bellflower Dr,Plano,TX,75075,450000,3,2.5,Thunderbird Estates,1829,6504,1992,33,246,,Active,,,https://www.redfin.com/TX/Plano/845-Bellflower-Dr-75075/home/32081549,NTREIS,20705701,N,Y,33.0393008,-96.7130253
MLS Listing,,Townhouse,2233 Caniesto St,Plano,TX,75074,399999,2,2.5,Venetian Villas South,1406,2352,2016,33,284,225,Active,,,https://www.redfin.com/TX/Plano/2233-Caniesto-St-75074/home/144139060,NTREIS,20705653,N,Y,33.0311355,-96.6467998
MLS Listing,,Townhouse,6413 Hermosa Dr,Plano,TX,75024,510000,3,2.5,Harvard Villas,1855,2091,2017,33,275,230,Active,,,https://www.redfin.com/TX/Plano/6413-Hermosa-Dr-75024/home/144139736,NTREIS,20705191,N,Y,33.0599901,-96.7937719
MLS Listing,,Single Family Residential,5933 Stone Meadow Dr,Plano,TX,75093,819900,4,4.0,Stone Lake Estates - Sec 1,3241,7841,1994,33,253,46,Active,,,https://www.redfin.com/TX/Plano/5933-Stone-Meadow-Dr-75093/home/32081624,NTREIS,20704704,N,Y,33.0182501,-96.8245409
MLS Listing,,Single Family Residential,4416 Crown Ridge Dr,Plano,TX,75024,519900,3,2.0,Preston Crest,2179,7841,1994,33,239,,Active,,,https://www.redfin.com/TX/Plano/4416-Crown-Ridge-Dr-75024/home/32074336,NTREIS,20705408,N,Y,33.0585143,-96.7792149
MLS Listing,,Single Family Residential,6005 Martinique St,Plano,TX,75024,1795000,5,4.5,Avignon Windhaven Ph 3,6530,10672,2012,33,275,238,Active,,,https://www.redfin.com/TX/Plano/6005-Martinique-St-75024/home/44489216,NTREIS,20705199,N,Y,33.0576177,-96.8152405
MLS Listing,,Single Family Residential,5913 Sicilian Cir,Plano,TX,75093,879000,4,3.5,Preston Spgs Ph I,3490,12197,1986,33,252,42,Active,,,https://www.redfin.com/TX/Plano/5913-Sicilian-Cir-75093/home/32037602,NTREIS,20704049,N,Y,33.0552836,-96.7825458
MLS Listing,,Single Family Residential,4452 Junction Dr,Plano,TX,75093,395000,3,2.0,Preston Square,1637,5227,1984,33,241,,Active,,,https://www.redfin.com/TX/Plano/4452-Junction-Dr-75093/home/32002554,NTREIS,20704666,N,Y,33.0168066,-96.7809797
MLS Listing,,Single Family Residential,4625 Charles Pl,Plano,TX,75093,1175000,5,4.0,Harrington Homeplace,4141,11326,1988,33,284,58,Active,,,https://www.redfin.com/TX/Plano/4625-Charles-Pl-75093/home/32034499,NTREIS,20704797,N,Y,33.0459753,-96.7877052
MLS Listing,,Single Family Residential,1428 Clarinet Ln,Plano,TX,75074,439999,3,3.0,15th Street Village 1,1924,,2004,33,229,300,Active,,,https://www.redfin.com/TX/Plano/1428-Clarinet-Ln-75074/home/31643033,NTREIS,20700187,N,Y,33.0191551,-96.7052932
MLS Listing,,Single Family Residential,3104 Canterbury Dr,Plano,TX,75075,490000,3,2.5,Huntington Park Add,2362,9148,1975,33,207,,Active,September-21-2024 03:30 PM,September-21-2024 05:30 PM,https://www.redfin.com/TX/Plano/3104-Canterbury-Dr-75075/home/31868589,NTREIS,20687813,N,Y,33.0313631,-96.7540194
MLS Listing,,Single Family Residential,3420 Anchor Dr,Plano,TX,75023,509000,3,2.5,Spring Creek Pkwy Estates West 8,2248,8276,1984,33,226,,Active,,,https://www.redfin.com/TX/Plano/3420-Anchor-Dr-75023/home/31923930,NTREIS,20703389,N,Y,33.0616839,-96.7601757
MLS Listing,,Single Family Residential,3706 Wood Rail Dr,Plano,TX,75074,585000,4,2.5,Windmill Country,2694,14810,1974,34,217,2,Active,,,https://www.redfin.com/TX/Plano/3706-Wood-Rail-Dr-75074/home/31902777,NTREIS,20704671,N,Y,33.0503314,-96.658049
MLS Listing,,Single Family Residential,3024 Creekbend Dr,Plano,TX,75075,550000,3,2.5,Dallas North Estates 12th Instl Fourth Sec,2414,9148,1972,34,228,,Active,,,https://www.redfin.com/TX/Plano/3024-Creekbend-Dr-75075/home/32157175,NTREIS,20703530,N,Y,33.0153582,-96.7524641
MLS Listing,,Single Family Residential,5032 Norfolk Dr,Plano,TX,75023,599900,5,2.5,Hunters Glen One,2307,10019,1979,34,260,,Active,,,https://www.redfin.com/TX/Plano/5032-Norfolk-Dr-75023/home/31867496,NTREIS,20702792,N,Y,33.0547522,-96.7259061
MLS Listing,,Single Family Residential,3609 Candelaria Dr,Plano,TX,75023,640000,4,3.0,Kimberlea Add,2625,10454,1976,34,244,4,Active,,,https://www.redfin.com/TX/Plano/3609-Candelaria-Dr-75023/home/31870685,NTREIS,20703096,N,Y,33.0435673,-96.7622668
MLS Listing,,Single Family Residential,3200 Hilltop Ln,Plano,TX,75075,489000,4,2.0,Park Blvd Estates West 2-B,1956,10019,1974,34,250,,Active,,,https://www.redfin.com/TX/Plano/3200-Hilltop-Ln-75075/home/31884993,NTREIS,20704000,N,Y,33.0404118,-96.7479801
MLS Listing,,Single Family Residential,2605 Saratoga Dr,Plano,TX,75075,1130000,6,5.0,Bunker Hill View Ph II,3938,9148,1999,34,287,,Active,,,https://www.redfin.com/TX/Plano/2605-Saratoga-Dr-75075/home/32112868,NTREIS,20703910,N,Y,33.0326103,-96.7377031
MLS Listing,,Single Family Residential,2103 Heather Hill Ln,Plano,TX,75075,625000,4,3.0,Stone Creek,2637,17424,1976,34,237,,Active,,,https://www.redfin.com/TX/Plano/2103-Heather-Hill-Ln-75075/home/31904611,NTREIS,20688749,N,Y,33.0362707,-96.7339975
MLS Listing,,Single Family Residential,6720 Beeman Dr,Plano,TX,75023,459000,3,2.0,Hunters Ridge Ph Three,2069,7405,1986,34,222,,Active,,,https://www.redfin.com/TX/Plano/6720-Beeman-Dr-75023/home/32192454,NTREIS,20701159,N,Y,33.0685457,-96.7243434
MLS Listing,,Single Family Residential,4628 Adrian Way,Plano,TX,75024,838000,4,3.5,Deerfield Add Ph One,3804,10019,1987,34,220,67,Active,September-21-2024 12:00 PM,September-21-2024 02:00 PM,https://www.redfin.com/TX/Plano/4628-Adrian-Way-75024/home/32200756,NTREIS,20701411,N,Y,33.0731092,-96.7883439
MLS Listing,,Single Family Residential,2612 Teakwood Ln,Plano,TX,75075,609000,4,2.0,University Estates 2 2nd Sec,2029,9583,1973,34,300,,Active,,,https://www.redfin.com/TX/Plano/2612-Teakwood-Ln-75075/home/31899291,NTREIS,20703558,N,Y,33.0365288,-96.7433091
MLS Listing,,Single Family Residential,2324 Claridge Cir,Plano,TX,75075,579000,5,3.0,Dallas North Estates 14th Instl,2539,9583,1973,35,228,,Active,,,https://www.redfin.com/TX/Plano/2324-Claridge-Cir-75075/home/32157492,NTREIS,20701268,N,Y,33.019799,-96.7381363
MLS Listing,,Single Family Residential,2409 Kelsey Dr,Plano,TX,75075,560000,4,3.0,Cloisters 3,2779,9583,1972,35,202,,Active,,,https://www.redfin.com/TX/Plano/2409-Kelsey-Dr-75075/home/31897577,NTREIS,20703302,N,Y,33.0124414,-96.7395542
MLS Listing,,Townhouse,5735 Headquarters Dr,Plano,TX,75024,560000,3,3.5,Town Homes At Legacy Town Center Ph Four The,2023,1133,2012,35,277,220,Active,September-21-2024 12:00 PM,September-21-2024 03:00 PM,https://www.redfin.com/TX/Plano/5735-Headquarters-Dr-75024/home/31781682,NTREIS,20702744,N,Y,33.0843813,-96.8203765
MLS Listing,,Single Family Residential,2305 Micarta Dr,Plano,TX,75025,649999,4,2.5,Hunters Glen Twelve,2571,7405,1993,36,253,,Active,,,https://www.redfin.com/TX/Plano/2305-Micarta-Dr-75025/home/32083714,NTREIS,20698832,N,Y,33.0797389,-96.7401099
MLS Listing,,Single Family Residential,3032 Silver Springs Ln,Plano,TX,75025,509900,3,2.0,Spring Ridge Ph I,1841,4356,1999,36,277,25,Active,,,https://www.redfin.com/TX/Plano/3032-Silver-Springs-Ln-75025/home/32251991,NTREIS,20702004,N,Y,33.0883344,-96.751176
MLS Listing,,Single Family Residential,2304 Dampton Dr,Plano,TX,75025,499900,4,2.0,Hunters Glen Fourteen,2336,7405,1994,36,214,,Active,,,https://www.redfin.com/TX/Plano/2304-Dampton-Dr-75025/home/32219095,NTREIS,20700574,N,Y,33.0764781,-96.7400927
MLS Listing,,Single Family Residential,3216 18th St,Plano,TX,75074,339000,3,2.0,Meadows Seventh Sec,1190,7405,1967,36,285,,Active,,,https://www.redfin.com/TX/Plano/3216-18th-St-75074/home/31877537,NTREIS,20701522,N,Y,33.0242167,-96.6696477
MLS Listing,,Condo/Co-op,1700 Amelia Ct #526,Plano,TX,75075,225000,2,1.5,Parkbluff Add Ph I,939,871,1984,36,240,431,Active,,,https://www.redfin.com/TX/Plano/1700-Amelia-Ct-75075/unit-526/home/32002347,NTREIS,20701471,N,Y,33.0235409,-96.7646616
MLS Listing,,Single Family Residential,1305 Harvest Glen Dr,Plano,TX,75023,435000,3,2.0,Park Forest Add 4,2052,6970,1974,36,212,,Active,,,https://www.redfin.com/TX/Plano/1305-Harvest-Glen-Dr-75023/home/31908923,NTREIS,20693054,N,Y,33.0516058,-96.7168555
MLS Listing,,Single Family Residential,1837 Spanish Trl,Plano,TX,75023,345000,3,2.0,Park Forest North Add Fifth Increment,1591,6970,1978,37,217,,Active,,,https://www.redfin.com/TX/Plano/1837-Spanish-Trl-75023/home/31915592,NTREIS,20701173,N,Y,33.0669524,-96.7288353
MLS Listing,,Single Family Residential,4341 Jeker Dr,Plano,TX,75074,530000,5,2.5,Creekside Estates 2,2435,13939,1991,37,218,,Active,,,https://www.redfin.com/TX/Plano/4341-Jeker-Dr-75074/home/31927133,NTREIS,20685591,N,Y,33.0341211,-96.6419146
MLS Listing,,Single Family Residential,2705 Chadwick Dr,Plano,TX,75075,470000,4,2.5,Park Blvd Estates West,1807,10454,1972,39,260,,Active,,,https://www.redfin.com/TX/Plano/2705-Chadwick-Dr-75075/home/31882744,NTREIS,20699923,N,Y,33.0325052,-96.7464235
MLS Listing,,Single Family Residential,7300 Swanson Dr,Plano,TX,75025,1094995,5,4.0,Estates Of Forest Creek Ph Vii-C,5488,12197,1994,39,200,,Active,,,https://www.redfin.com/TX/Plano/7300-Swanson-Dr-75025/home/32220461,NTREIS,20677341,N,Y,33.0763272,-96.7627478
MLS Listing,,Single Family Residential,4428 Stromboli Dr,Plano,TX,75093,625000,4,4.0,Bristol Pointe Estates Ph I,3390,8276,1998,39,184,50,Active,,,https://www.redfin.com/TX/Plano/4428-Stromboli-Dr-75093/home/32250105,NTREIS,20698610,N,Y,33.0537166,-96.7800406
MLS Listing,,Single Family Residential,3840 Stockport Dr,Plano,TX,75025,599950,3,2.0,Highland Ridge I,2525,7405,1993,39,238,50,Active,,,https://www.redfin.com/TX/Plano/3840-Stockport-Dr-75025/home/32082919,NTREIS,20692559,N,Y,33.0950031,-96.7679287
MLS Listing,,Townhouse,3109 Devonshire Dr,Plano,TX,75075,359000,3,2.5,Cobblestone Townhome Community,1788,3093,1984,39,201,345,Active,,,https://www.redfin.com/TX/Plano/3109-Devonshire-Dr-75075/home/32001053,NTREIS,20697119,N,Y,33.0285052,-96.7538911
MLS Listing,,Single Family Residential,7105 Stoddard Ln,Plano,TX,75025,565000,4,2.5,Covington Square Add,2715,6098,1988,40,208,,Active,,,https://www.redfin.com/TX/Plano/7105-Stoddard-Ln-75025/home/32057480,NTREIS,20689610,N,Y,33.0731366,-96.7339308
MLS Listing,,Single Family Residential,5913 Castlebar Ln,Plano,TX,75093,1149000,4,4.0,Willow Bend West Ph Iiia & Iiib,4122,9148,1992,40,279,34,Active,,,https://www.redfin.com/TX/Plano/5913-Castlebar-Ln-75093/home/32072859,NTREIS,20666318,N,Y,33.0372853,-96.8224345
MLS Listing,,Single Family Residential,6729 Mantissa,Plano,TX,75023,560000,4,2.5,HARVESTWOOD,2718,,1990,40,206,,Active,,,https://www.redfin.com/TX/Plano/6729-Mantissa-Dr-75023/home/32057262,NTREIS,20698181,N,Y,33.0675152,-96.7203138
MLS Listing,,Single Family Residential,786 Noel Trl,Plano,TX,75023,344000,3,2.5,Ruisseau Place Ph I,1496,3920,1988,40,230,32,Active,,,https://www.redfin.com/TX/Plano/786-Noel-Trl-75023/home/32059515,NTREIS,20695876,N,Y,33.0415157,-96.7092015
MLS Listing,,Single Family Residential,2309 Loch Haven Dr,Plano,TX,75023,575000,4,2.5,Hunters Glen Two,2556,9583,1981,40,225,,Active,September-22-2024 02:00 PM,September-22-2024 04:00 PM,https://www.redfin.com/TX/Plano/2309-Loch-Haven-Dr-75023/home/31867634,NTREIS,20699335,N,Y,33.0543628,-96.7404387
MLS Listing,,Condo/Co-op,7901 Windrose Ave #1004,Plano,TX,75024,3400000,3,3.5,Windrose Tower at Legacy West,3607,87120,2020,40,943,3463,Active,,,https://www.redfin.com/TX/Plano/7901-Windrose-Ave-75024/unit-1004/home/173552041,NTREIS,20699274,N,Y,33.0847495,-96.8267676
MLS Listing,,Single Family Residential,1912 Brown Stone Dr,Plano,TX,75074,629999,5,3.0,OAK POINT ESTATES PHASE 2,2680,6795,2017,40,235,42,Active,,,https://www.redfin.com/TX/Plano/1912-Brown-Stone-Dr-75074/home/110173286,NTREIS,20698323,N,Y,33.0602576,-96.6854294
MLS Listing,,Single Family Residential,4120 Merriman Dr,Plano,TX,75074,515000,4,2.0,Los Rios Add Ph 8,2290,11761,1984,40,225,,Active,,,https://www.redfin.com/TX/Plano/4120-Merriman-Dr-75074/home/31932572,NTREIS,20697617,N,Y,33.0366108,-96.6484869
MLS Listing,,Single Family Residential,3625 Capstone Ln,Plano,TX,75074,642000,4,3.5,Stoney Hollow Ph One,3625,10019,1999,40,177,46,Active,,,https://www.redfin.com/TX/Plano/3625-Capstone-Ln-75074/home/32255029,NTREIS,20693540,N,Y,33.0463504,-96.6546486
MLS Listing,,Single Family Residential,7917 Kodak Dr,Plano,TX,75025,400000,3,2.0,Cross Creek 3 Sec 1 & 2,1748,8712,1982,40,229,,Active,,,https://www.redfin.com/TX/Plano/7917-Kodak-Dr-75025/home/31851579,NTREIS,20698542,N,Y,33.0848232,-96.7149357
MLS Listing,,Single Family Residential,9720 Southern Hills Dr,Plano,TX,75025,543400,4,2.5,Ridgeview Ranch Add Ph IV,2394,8712,1996,40,227,42,Active,,,https://www.redfin.com/TX/Plano/9720-Southern-Hills-Dr-75025/home/32241767,NTREIS,20698384,N,Y,33.1109124,-96.7463466
MLS Listing,,Single Family Residential,3912 Merriman Dr,Plano,TX,75074,468799,4,3.0,Los Rios Add Ph 8,2477,10890,1985,40,189,,Active,,,https://www.redfin.com/TX/Plano/3912-Merriman-Dr-75074/home/31932576,NTREIS,20698044,N,Y,33.036785,-96.6541975
MLS Listing,,Single Family Residential,3864 Dalston Ln,Plano,TX,75023,390000,3,2.0,Heatherwood Add Ph II,1442,4792,1989,40,270,35,Active,,,https://www.redfin.com/TX/Plano/3864-Dalston-Ln-75023/home/32021848,NTREIS,20696518,N,Y,33.0683766,-96.7666639
MLS Listing,,Single Family Residential,1808 Japonica Ln,Plano,TX,75074,380000,3,1.5,Plano Park Add Sixth Sec,1554,6970,1969,40,245,,Active,,,https://www.redfin.com/TX/Plano/1808-Japonica-Ln-75074/home/31886677,NTREIS,20698282,N,Y,33.0344835,-96.6884056
MLS Listing,,Townhouse,9836 Rockwall Rd,Plano,TX,75025,350000,2,2.0,Pasquinellis Westbrook At Ridgeview Ph 1,1562,4356,2003,41,224,336,Active,,,https://www.redfin.com/TX/Plano/9836-Rockwall-Rd-75025/home/31551316,NTREIS,20697369,N,Y,33.1137297,-96.754211
MLS Listing,,Single Family Residential,3212 Santana Ln,Plano,TX,75023,425000,3,2.0,Spring Creek Pkwy Estates West 7,1639,7641,1981,41,259,,Active,,,https://www.redfin.com/TX/Plano/3212-Santana-Ln-75023/home/32171355,NTREIS,20698124,N,Y,33.0648271,-96.7542137
MLS Listing,,Townhouse,2629 Ezekial Way,Plano,TX,75074,334995,3,2.5,Madison Estates,1444,3920,2005,41,232,49,Active,,,https://www.redfin.com/TX/Plano/2629-Ezekial-Way-75074/home/31613918,NTREIS,20693698,N,Y,33.0155713,-96.6787955
MLS Listing,,Single Family Residential,4300 Aliso Rd,Plano,TX,75074,575000,4,2.5,Los Rios Add Ph I,2715,9583,1976,41,212,,Active,,,https://www.redfin.com/TX/Plano/4300-Aliso-Rd-75074/home/31871859,NTREIS,20693297,N,Y,33.023706,-96.6470464
MLS Listing,,Single Family Residential,1616 Urbana Cir,Plano,TX,75025,416000,3,2.0,Cross Creek 6,1975,6098,1985,41,211,,Active,,,https://www.redfin.com/TX/Plano/1616-Urbana-Cir-75025/home/32030008,NTREIS,20697663,N,Y,33.0844188,-96.7225028
MLS Listing,,Single Family Residential,3936 Artist Dr,Plano,TX,75023,799990,4,4.0,Whiffletree Ph III,3791,11326,1982,41,211,2,Active,,,https://www.redfin.com/TX/Plano/3936-Artist-Dr-75023/home/31922193,NTREIS,20696926,N,Y,33.0517068,-96.7618205
MLS Listing,,Single Family Residential,3405 Wells Dr,Plano,TX,75093,382900,3,2.0,Homestead Sec One,1701,5663,1981,41,225,,Active,,,https://www.redfin.com/TX/Plano/3405-Wells-Dr-75093/home/31863836,NTREIS,20697838,N,Y,33.0438131,-96.7738049
MLS Listing,,Single Family Residential,1105 Canoe Ln,Plano,TX,75023,419500,3,2.0,Creek Trails,1694,3485,1990,41,248,21,Active,,,https://www.redfin.com/TX/Plano/1105-Canoe-Ln-75023/home/32196912,NTREIS,20697664,N,Y,33.069726,-96.7119954
MLS Listing,,Townhouse,9908 Sedgewick Ave,Plano,TX,75025,375000,2,2.0,Pasquinellis Fairway Villas At Ridgeview,1402,3920,2005,41,267,418,Active,,,https://www.redfin.com/TX/Plano/9908-Sedgewick-Ave-75025/home/31669473,NTREIS,20697582,N,Y,33.1135761,-96.7461899
MLS Listing,,Townhouse,4671 Edith St,Plano,TX,75024,454900,2,2.5,Pasquinellis Willow Crest Ph 4,1858,2047,2007,41,245,320,Active,,,https://www.redfin.com/TX/Plano/4671-Edith-St-75024/home/31775148,NTREIS,20697096,N,Y,33.0974742,-96.7941006
MLS Listing,,Vacant Land,3509 Calaveras Way,Plano,TX,75074,349900,,,Early Church Add,,9148,,41,,58,Active,,,https://www.redfin.com/TX/Plano/3509-Calaveras-Way-75074/home/171303404,NTREIS,20697310,N,Y,33.046026,-96.673847
MLS Listing,,Single Family Residential,3917 Malton Dr,Plano,TX,75025,615000,4,2.5,Highland Ridge II,2583,6970,1992,42,238,50,Active,,,https://www.redfin.com/TX/Plano/3917-Malton-Dr-75025/home/32082580,NTREIS,20697019,N,Y,33.0971015,-96.770007
MLS Listing,,Single Family Residential,4304 Pearl Ct,Plano,TX,75024,525000,4,3.0,Estates At Fountain Creek II Ph 1,2296,6098,1996,42,229,44,Active,,,https://www.redfin.com/TX/Plano/4304-Pearl-Ct-75024/home/32101347,NTREIS,20639388,N,Y,33.0840349,-96.7761584
MLS Listing,,Single Family Residential,2312 Senna Hills Ln,Plano,TX,75025,595000,4,3.0,Knolls At Russell Creek Ph III,2918,7841,2000,42,204,49,Active,,,https://www.redfin.com/TX/Plano/2312-Senna-Hills-Ln-75025/home/32117270,NTREIS,20684574,N,Y,33.0943404,-96.7360245
MLS Listing,,Single Family Residential,4304 Rock Springs Dr,Plano,TX,75024,649999,4,3.5,Preston Meadows North Phase One,2969,7657,1996,43,219,,Active,,,https://www.redfin.com/TX/Plano/4304-Rock-Springs-Dr-75024/home/32078984,NTREIS,20695892,N,Y,33.071088,-96.7765088
MLS Listing,,Single Family Residential,3417 Whiffletree Dr,Plano,TX,75023,485000,4,2.5,Whiffletree,2158,8712,1979,43,225,1,Active,,,https://www.redfin.com/TX/Plano/3417-Whiffletree-Dr-75023/home/31901050,NTREIS,20695198,N,Y,33.0468713,-96.7601708
MLS Listing,,Single Family Residential,1017 G Ave,Plano,TX,75074,289900,3,2.0,L A Davis Add,1050,5793,1948,43,276,,Active,,,https://www.redfin.com/TX/Plano/1017-G-Ave-75074/home/32158865,NTREIS,20691547,N,Y,33.0128299,-96.7048229
MLS Listing,,Single Family Residential,1436 Faringdon Dr,Plano,TX,75075,635000,4,3.5,Ravenglass Estates,3030,9148,1997,43,210,,Active,,,https://www.redfin.com/TX/Plano/1436-Faringdon-Dr-75075/home/32208147,NTREIS,20692430,N,Y,33.0302296,-96.7218468
MLS Listing,,Single Family Residential,2124 Broadstone Dr,Plano,TX,75025,498000,4,3.5,Village At Legacy,2197,3485,2006,45,227,92,Active,,,https://www.redfin.com/TX/Plano/2124-Broadstone-Dr-75025/home/31648161,NTREIS,20665842,N,Y,33.0740686,-96.7357155
MLS Listing,,Single Family Residential,6500 Lazy Oak Ln,Plano,TX,75024,1099000,4,3.5,Pointe West,3832,7841,2008,45,287,65,Active,,,https://www.redfin.com/TX/Plano/6500-Lazy-Oak-Ln-75024/home/31784867,NTREIS,20686721,N,Y,33.0575532,-96.8414381
MLS Listing,,Single Family Residential,3516 Shorecrest Dr,Plano,TX,75074,427900,3,3.0,Ridgewood Third Sec,1512,7405,1970,45,283,,Active,,,https://www.redfin.com/TX/Plano/3516-Shorecrest-Dr-75074/home/32170185,NTREIS,20686583,N,Y,33.0190243,-96.6663402
MLS Listing,,Single Family Residential,7404 Brownley Pl,Plano,TX,75025,650000,5,3.5,Hunters Glen Thirteen,3431,7841,1994,46,189,,Active,,,https://www.redfin.com/TX/Plano/7404-Brownley-Pl-75025/home/32092009,NTREIS,20683051,N,Y,33.0779312,-96.7371704
MLS Listing,,Single Family Residential,1816 Brown Stone Dr,Plano,TX,75074,645000,4,3.5,Oak Point Estates Ph 2,3648,6055,2014,46,177,42,Active,,,https://www.redfin.com/TX/Plano/1816-Brown-Stone-Dr-75074/home/59893324,NTREIS,20690670,N,Y,33.0603158,-96.6861381
MLS Listing,,Single Family Residential,6609 Sonnet Trl,Plano,TX,75023,495000,4,2.0,Biltmore Swim & Racquet Club Ph One,2200,12632,1984,46,225,30,Active,,,https://www.redfin.com/TX/Plano/6609-Sonnet-Trl-75023/home/31935959,NTREIS,20685131,N,Y,33.0627229,-96.7637609
MLS Listing,,Single Family Residential,7917 Kettlewood Ct,Plano,TX,75025,569900,4,2.5,Hunters Glen Eleven,3304,10019,1996,46,172,,Active,,,https://www.redfin.com/TX/Plano/7917-Kettlewood-Ct-75025/home/32074479,NTREIS,20690991,N,Y,33.0858329,-96.7462869
MLS Listing,,Single Family Residential,3021 Hurstwood Dr,Plano,TX,75074,619500,4,3.5,Timber Brook North Ph II,2711,4008,2015,47,229,43,Active,,,https://www.redfin.com/TX/Plano/3021-Hurstwood-Dr-75074/home/101343960,NTREIS,20692446,N,Y,33.0708055,-96.6721048
MLS Listing,,Condo/Co-op,2200 W Park Blvd #1404,Plano,TX,75075,185000,1,1.5,Collin Greene Condo,982,742,1982,47,188,302,Active,,,https://www.redfin.com/TX/Plano/2200-W-Park-Blvd-75075/unit-1404/home/31928589,NTREIS,20692644,N,Y,33.0261588,-96.7340113
MLS Listing,,Single Family Residential,2316 Homestead Ln,Plano,TX,75025,677000,5,4.0,Cambridge Place At Russell Creek,3488,8276,2005,47,194,42,Active,,,https://www.redfin.com/TX/Plano/2316-Homestead-Ln-75025/home/32326493,NTREIS,20692611,N,Y,33.0864344,-96.7419894
MLS Listing,,Condo/Co-op,3101 Townbluff Dr #922,Plano,TX,75075,220000,2,2.0,Townbluff Condo,1044,1263,1982,47,211,498,Active,,,https://www.redfin.com/TX/Plano/3101-Townbluff-Dr-75075/unit-922/home/32174176,NTREIS,20689514,N,Y,33.040737,-96.7447017
MLS Listing,,Single Family Residential,5721 Gleneagles Dr,Plano,TX,75093,825000,3,2.0,Greens Of Gleneagles,2817,6098,1999,47,293,233,Active,,,https://www.redfin.com/TX/Plano/5721-Gleneagles-Dr-75093/home/32253916,NTREIS,20690415,N,Y,33.0438565,-96.816525
MLS Listing,,Single Family Residential,1621 Aldridge Dr,Plano,TX,75075,554900,5,2.5,Dallas North Estates 2nd Instl,2953,8276,1963,47,188,,Active,,,https://www.redfin.com/TX/Plano/1621-Aldridge-Dr-75075/home/31862045,NTREIS,20690303,N,Y,33.0162361,-96.7245837
MLS Listing,,Single Family Residential,2945 Oakland Hills Dr,Plano,TX,75025,559900,4,2.0,Ridgeview Ranch Add Ph V1,2218,9531,2001,48,252,42,Active,,,https://www.redfin.com/TX/Plano/2945-Oakland-Hills-Dr-75025/home/32119297,NTREIS,20689414,N,Y,33.1068559,-96.7504196
MLS Listing,,Single Family Residential,5601 Cognac St,Plano,TX,75024,1399900,5,4.5,Avignon Windhaven Ph 3,4840,9409,2016,48,289,242,Active,,,https://www.redfin.com/TX/Plano/5601-Cognac-St-75024/home/44489166,NTREIS,20690550,N,Y,33.0593599,-96.8161967
MLS Listing,,Single Family Residential,3917 Fall Wheat Dr,Plano,TX,75075,659000,4,3.0,RIVER BEND 01,2599,,1980,48,254,,Active,,,https://www.redfin.com/TX/Plano/3917-Fall-Wheat-Dr-75075/home/32169271,NTREIS,20691736,N,Y,33.039089,-96.7690438
MLS Listing,,Single Family Residential,3512 Marwick Dr,Plano,TX,75075,519000,4,2.0,Dallas North Estates 15th Instl Sec Two,1926,7841,1975,48,269,,Active,,,https://www.redfin.com/TX/Plano/3512-Marwick-Dr-75075/home/31863977,NTREIS,20684782,N,Y,33.0224379,-96.7590189
MLS Listing,,Single Family Residential,7221 Beechmont Ct,Plano,TX,75074,572995,4,2.5,Timber Brook North,3094,9148,1999,48,185,43,Active,,,https://www.redfin.com/TX/Plano/7221-Beechmont-Ct-75074/home/32129429,NTREIS,20690147,N,Y,33.0722224,-96.6693121
MLS Listing,,Single Family Residential,4028 Norcross Dr,Plano,TX,75024,470000,3,2.5,Highland Meadows,1972,7405,1989,48,238,,Active,,,https://www.redfin.com/TX/Plano/4028-Norcross-Dr-75024/home/32055668,NTREIS,20687532,N,Y,33.0888481,-96.7736794
MLS Listing,,Single Family Residential,4120 Fiser Pl,Plano,TX,75093,499000,3,2.5,Whiffletree Villas Add,2146,5227,1987,48,233,33,Active,,,https://www.redfin.com/TX/Plano/4120-Fiser-Pl-75093/home/32038995,NTREIS,20690628,N,Y,33.0515079,-96.7731223
MLS Listing,,Single Family Residential,2644 Pinehurst Dr,Plano,TX,75075,500000,4,3.0,Park Blvd Estates West 2-A,2578,22651,1972,48,194,,Active,,,https://www.redfin.com/TX/Plano/2644-Pinehurst-Dr-75075/home/31882866,NTREIS,20690061,N,Y,33.0362254,-96.7475659
MLS Listing,,Townhouse,800 Comal Dr,Plano,TX,75075,574990,3,3.5,Collin Creek,2222,1525,2024,48,259,360,Active,,,https://www.redfin.com/TX/Plano/800-Comal-Dr-75075/home/191895206,NTREIS,20687882,N,Y,33.0120991,-96.7156566
MLS Listing,,Single Family Residential,2104 Ironside Dr,Plano,TX,75075,579900,4,3.0,Bunker Hill View Ph 1,3075,7841,1999,48,189,,Active,,,https://www.redfin.com/TX/Plano/2104-Ironside-Dr-75075/home/32215777,NTREIS,20682434,N,Y,33.0306747,-96.7342522
MLS Listing,,Single Family Residential,5601 Woodhaven Ct,Plano,TX,75093,979500,5,4.5,Castlemere Ph II,4328,12197,1993,48,226,46,Active,,,https://www.redfin.com/TX/Plano/5601-Woodhaven-Ct-75093/home/32085011,NTREIS,20687660,N,Y,33.0532228,-96.8125479
MLS Listing,,Townhouse,2908 Galveston St,Plano,TX,75075,499990,3,2.5,Villas Of Middleton,1931,3441,2018,48,259,295,Active,,,https://www.redfin.com/TX/Plano/2908-Galveston-St-75075/home/144145394,NTREIS,20688862,N,Y,33.0090695,-96.7508197
MLS Listing,,Single Family Residential,3528 Omar Ln,Plano,TX,75023,589900,4,2.5,Spring Creek Pkwy Estates West 6,2448,9148,1983,48,241,,Active,,,https://www.redfin.com/TX/Plano/3528-Omar-Ln-75023/home/31892376,NTREIS,20661014,N,Y,33.0573889,-96.7627845
MLS Listing,,Single Family Residential,2220 Travis,Plano,TX,75093,485000,3,2.0,Preston Ridge Add,1846,10890,1979,48,263,,Active,,,https://www.redfin.com/TX/Plano/2220-Travis-Dr-75093/home/32164737,NTREIS,20685577,N,Y,33.0292929,-96.7776119
MLS Listing,,Single Family Residential,4009 Willow Hills Ct,Plano,TX,75024,699990,5,4.0,Northridge Estates #3,3455,9583,1999,48,203,50,Active,September-22-2024 01:00 PM,September-22-2024 03:00 PM,https://www.redfin.com/TX/Plano/4009-Willow-Hills-Ct-75024/home/32132778,NTREIS,20680575,N,Y,33.0981831,-96.7735025
