SALE TYPE,SOLD DATE,PROPERTY TYPE,ADDRESS,CITY,STATE OR PROVINCE,ZIP OR POSTAL CODE,PRICE,BEDS,BATHS,LOCATION,SQUARE FEET,LOT SIZE,YEAR BUILT,DAYS ON MARKET,$/SQUARE FEET,HOA/MONTH,STATUS,NEXT OPEN HOUSE START TIME,NEXT OPEN HOUSE END TIME,URL (SEE https://www.redfin.com/buy-a-home/comparative-market-analysis FOR INFO ON PRICING),SOURCE,MLS#,FAVORITE,INTERESTED,LATITUDE,LONGITUDE
MLS Listing,,Condo/Co-op,6979 Palm Ct Unit 105B,Riverside,CA,92506,332000,2,2.0,252 - Riverside,1165,1307,1959,5,285,430,Active,,,https://www.redfin.com/CA/Riverside/6979-Palm-Ct-92506/unit-105B/home/4978289,CRMLS,IV24187240,N,Y,33.9468468,-117.4022952
MLS Listing,,Vacant Land,0 Road Runner Ridge Dr,Riverside,CA,92503,62000,,,252 - Riverside,,7841,,18,,,Active,,,https://www.redfin.com/CA/Riverside/Road-Runner-Rdg-92503/home/171388784,CRMLS,IG24180495,N,Y,33.874999,-117.437476
MLS Listing,,Multi-Family (2-4 Unit),7460 Potomac St,Riverside,CA,92504,748000,4,2.0,252 - Riverside,1647,7841,1953,18,454,,Active,,,https://www.redfin.com/CA/Riverside/7460-Potomac-St-92504/home/4991172,CRMLS,IV24173108,N,Y,33.9408157,-117.4076601
MLS Listing,,Single Family Residential,9659 Tuco Ln,Riverside,CA,92508,750000,4,3.0,252 - Riverside,2227,5663,2022,39,337,200,Active,September-21-2024 12:00 PM,September-21-2024 03:00 PM,https://www.redfin.com/CA/Riverside/9659-Tuco-Ln-92508/home/181201183,CRMLS,OC24152418,N,Y,33.8752012,-117.3298692
MLS Listing,,Single Family Residential,7906 Montecito Ln,Riverside,CA,92507,717800,4,2.0,252 - Riverside,1781,7597,2020,46,403,,Active,,,https://www.redfin.com/CA/Riverside/7906-Montecito-Ln-92507/home/173394936,CRMLS,IV24159320,N,Y,34.0059814,-117.293903
MLS Listing,,Single Family Residential,16550 Catalonia Dr,Riverside,CA,92504,1620000,5,4.5,252 - Riverside,4815,43124,2006,54,336,75,Active,,,https://www.redfin.com/CA/Riverside/16550-Catalonia-Dr-92504/home/12500306,CRMLS,IV24148879,N,Y,33.8650744,-117.373835
MLS Listing,,Single Family Residential,20202 Dayton St,Riverside,CA,92508,799900,4,3.0,252 - Riverside,3098,10019,2004,87,258,55,Active,,,https://www.redfin.com/CA/Riverside/20202-Dayton-St-92508/home/6491285,CRMLS,IV24121202,N,Y,33.8981617,-117.3097296
MLS Listing,,Single Family Residential,9451 53rd St,Jurupa Valley,CA,92509,715000,4,2.0,251 - Jurupa Valley,1420,16988,1967,1,504,,Pre On-Market,September-29-2024 10:00 AM,September-29-2024 01:00 PM,https://www.redfin.com/CA/Jurupa-Valley/9451-53rd-St-92509/home/4852540,CRMLS,IG24186577,N,Y,33.9911266,-117.490805
MLS Listing,,Single Family Residential,8933 Delano Dr,Riverside,CA,92503,590000,3,2.0,252 - Riverside,1265,8276,1958,1,466,,Pre On-Market,September-21-2024 11:00 AM,September-21-2024 02:00 PM,https://www.redfin.com/CA/Riverside/8933-Delano-Dr-92503/home/4915278,CRMLS,IV24192481,N,Y,33.9370052,-117.4447266
MLS Listing,,Single Family Residential,13852 Grapefruit Ct,Riverside,CA,92503,1300000,5,3.5,252 - Riverside,4644,13068,2016,1,280,158,Pre On-Market,September-21-2024 12:00 PM,September-21-2024 03:00 PM,https://www.redfin.com/CA/Riverside/13852-Grapefruit-Ct-92503/home/112839693,CRMLS,IV24191923,N,Y,33.8740735,-117.4196199
MLS Listing,,Single Family Residential,8701 Ouida Dr,Riverside,CA,92503,549999,3,2.0,252 - Riverside,1838,6534,1962,1,299,,Pre On-Market,September-21-2024 12:00 PM,September-21-2024 02:00 PM,https://www.redfin.com/CA/Riverside/8701-Ouida-Dr-92503/home/4919125,CRMLS,SW24192818,N,Y,33.9332005,-117.4356557
MLS Listing,,Single Family Residential,7858 Sherry Ln,Jurupa Valley,CA,92509,1750000,5,5.0,251 - Jurupa Valley,4000,29185,1979,1,438,,Pre On-Market,,,https://www.redfin.com/CA/Jurupa-Valley/7858-Sherry-Ln-92509/home/4861053,CRMLS,CV24192299,N,Y,34.0066337,-117.4549232
MLS Listing,,Single Family Residential,622 W Main St,Riverside,CA,92507,750000,5,2.5,252 - Riverside,1604,21780,1971,1,468,,Pre On-Market,,,https://www.redfin.com/CA/Riverside/622-W-Main-St-92507/home/5048923,CRMLS,IG24191723,N,Y,34.0190584,-117.3249612
MLS Listing,,Single Family Residential,3839 Wayne Ct,Riverside,CA,92504,689000,3,2.0,252 - Riverside,1894,10019,1950,1,364,,Active,,,https://www.redfin.com/CA/Riverside/3839-Wayne-Ct-92504/home/4921888,CRMLS,CV24185868,N,Y,33.9322838,-117.4276441
MLS Listing,,Single Family Residential,12292 Sandy Creek Dr,Riverside,CA,92503,620000,3,2.5,252 - Riverside,1757,8276,1991,1,353,,Active,,,https://www.redfin.com/CA/Riverside/12292-Sandy-Creek-Dr-92503/home/4754878,CRMLS,OC24189725,N,Y,33.8826138,-117.4950572
MLS Listing,,Single Family Residential,3253 Winnebago Ln,Riverside,CA,92503,725000,4,3.0,252 - Riverside,2126,5663,1978,1,341,,Active,,,https://www.redfin.com/CA/Riverside/3253-Winnebago-Ln-92503/home/4760271,CRMLS,EV24191230,N,Y,33.9026541,-117.4554076
MLS Listing,,Single Family Residential,17536 Fairbreeze Ct,Riverside,CA,92504,1795000,4,4.0,252 - Riverside,4526,40075,2007,1,397,,Active,September-21-2024 11:00 AM,September-21-2024 03:00 PM,https://www.redfin.com/CA/Riverside/17536-Fairbreeze-Ct-92504/home/21952054,CRMLS,SW24187578,N,Y,33.8645806,-117.3579489
MLS Listing,,Condo/Co-op,6979 Palm Ct Unit 107B,Riverside,CA,92506,325000,2,2.0,252 - Riverside,1005,1307,1959,1,323,446,Active,,,https://www.redfin.com/CA/Riverside/6979-Palm-Ct-92506/unit-107B/home/4978317,CRMLS,IV24177393,N,Y,33.9468468,-117.4022952
MLS Listing,,Single Family Residential,5392 Walter St,Riverside,CA,92504,485000,3,2.0,252 - Riverside,1141,6534,1955,1,425,,Active,,,https://www.redfin.com/CA/Riverside/5392-Walter-St-92504/home/4905252,CRMLS,IG24190573,N,Y,33.9545976,-117.4206756
MLS Listing,,Mobile/Manufactured Home,3883 Buchanan St spc 54,Riverside,CA,92503,129555,2,2.0,Sierra Pines,,,1976,2,,,Active,,,https://www.redfin.com/CA/Riverside/3883-Buchanan-St-92503/unit-54/home/164627707,CRMLS,IG24188662,N,Y,33.8926991,-117.4991579
MLS Listing,,Mobile/Manufactured Home,6130 Camino Real #251,Jurupa Valley,CA,92509,119999,2,2.0,Jurupa Cascade,1296,,1973,2,93,,Active,,,https://www.redfin.com/CA/Jurupa-Valley/6130-Camino-Real-92509/unit-251/home/161194793,CRMLS,IG24192020,N,Y,33.9774071,-117.4501887
MLS Listing,,Mobile/Manufactured Home,15820 Winchester Way,Woodcrest,CA,92508,390000,2,1.0,252 - Riverside,800,1347223680,1968,2,488,,Active,,,https://www.redfin.com/CA/Riverside/15820-Winchester-Way-92508/home/5082389,CRMLS,IV24191640,N,Y,33.889866,-117.3383657
MLS Listing,,Single Family Residential,5536 Hardwicke Dr,Riverside,CA,92504,725000,4,2.5,252 - Riverside,2360,6534,2007,2,307,,Pre On-Market,September-21-2024 01:00 AM,September-21-2024 03:00 AM,https://www.redfin.com/CA/Riverside/5536-Hardwick-Dr-92504/home/12274768,CRMLS,IV24190534,N,Y,33.9693457,-117.4013569
MLS Listing,,Single Family Residential,6541 Hemingway Dr,Riverside,CA,92506,695000,3,2.5,252 - Riverside,1594,10454,1988,2,436,,Active,,,https://www.redfin.com/CA/Riverside/6541-Hemingway-Dr-92506/home/5040460,CRMLS,IV24191753,N,Y,33.932194,-117.3343027
MLS Listing,,Single Family Residential,6974 New Ridge Dr,Riverside,CA,92506,779900,5,3.0,252 - Riverside,2323,20038,1989,3,336,,Active,,,https://www.redfin.com/CA/Riverside/6974-New-Ridge-Dr-92506/home/5093921,CRMLS,SW24190918,N,Y,33.9240169,-117.3324433
MLS Listing,,Single Family Residential,9917 Sharon Ave,Riverside,CA,92503,688000,4,2.0,252 - Riverside,1571,9583,1984,3,438,,Active,September-21-2024 11:00 AM,September-21-2024 05:00 PM,https://www.redfin.com/CA/Riverside/9917-Sharon-Ave-92503/home/4790670,CRMLS,PW24191692,N,Y,33.9222533,-117.4573687
MLS Listing,,Single Family Residential,7166 Orchard St,Riverside,CA,92504,900000,4,2.5,252 - Riverside,1716,21780,1946,3,524,,Active,,,https://www.redfin.com/CA/Riverside/7166-Orchard-St-92504/home/4992621,CRMLS,TR24191611,N,Y,33.9414571,-117.400586
MLS Listing,,Single Family Residential,16885 Ponderosa Ln,Riverside,CA,92504,789900,3,2.0,252 - Riverside,1592,37897,1965,3,496,,Active,,,https://www.redfin.com/CA/Riverside/16885-Ponderosa-Ln-92504/home/5107056,CRMLS,SW24189563,N,Y,33.8759925,-117.3681684
MLS Listing,,Single Family Residential,9503 Orleans Ln,Riverside,CA,92508,825000,5,4.5,252 - Riverside,3491,11761,2006,3,236,30,Active,,,https://www.redfin.com/CA/Riverside/9503-Orleans-Ln-92508/home/12275494,CRMLS,IV24191489,N,Y,33.8781812,-117.338346
MLS Listing,,Single Family Residential,7772 Casa Blanca St,Riverside,CA,92504,599000,4,3.0,Riverside,1296,5663,1979,3,462,,Active,,,https://www.redfin.com/CA/Riverside/7772-Casa-Blanca-St-92504/home/4993006,TheMLS,24-439777,N,Y,33.9311125,-117.4079277
MLS Listing,,Single Family Residential,3388 Cande Way,Riverside,CA,92503,560000,3,2.5,252 - Riverside,1484,2178,2006,3,377,225,Active,,,https://www.redfin.com/CA/Riverside/3388-Cande-Way-92503/home/8165427,CRMLS,TR24188586,N,Y,33.9220072,-117.4270454
MLS Listing,,Single Family Residential,1775 Julia Way,Riverside,CA,92501,639000,4,2.5,252 - Riverside,2504,3485,2007,4,255,156,Active,,,https://www.redfin.com/CA/Riverside/1775-Julia-Way-92501/home/12270944,CRMLS,IV24191367,N,Y,34.0060693,-117.3776059
MLS Listing,,Condo/Co-op,1315 Massachusetts Ave #101,Riverside,CA,92507,255000,1,1.0,252 - Riverside,604,598,1986,4,422,399,Active,,,https://www.redfin.com/CA/Riverside/1315-Massachusetts-Ave-92507/unit-101/home/12493567,CRMLS,TR24191354,N,Y,33.98757,-117.3406071
MLS Listing,,Single Family Residential,2493 Northbend St,Riverside,CA,92501,576000,2,1.0,252 - Riverside,932,11761,1914,4,618,,Active,,,https://www.redfin.com/CA/Riverside/2493-Northbend-St-92501/home/4928023,CRMLS,WS24190611,N,Y,33.9948376,-117.3693179
MLS Listing,,Single Family Residential,20372 Crooked Branch St,Riverside,CA,92507,698000,9,3.5,252 - Riverside,3234,7405,2015,4,216,,Active,,,https://www.redfin.com/CA/Riverside/20372-Crooked-Branch-St-92507/home/110017613,CRMLS,AR24191270,N,Y,34.0105883,-117.3071153
MLS Listing,,Single Family Residential,3056 Gertrude St,Riverside,CA,92506,599999,3,1.0,252 - Riverside,1092,6098,1954,4,549,,Active,September-21-2024 10:00 AM,September-21-2024 02:00 PM,https://www.redfin.com/CA/Riverside/3056-Gertrude-St-92506/home/5007163,CRMLS,EV24189117,N,Y,33.9413986,-117.3837497
MLS Listing,,Single Family Residential,8377 Cypress Ave,Riverside,CA,92503,9999000,3,1.0,252 - Riverside,1130,9148,1945,4,8849,,Active,,,https://www.redfin.com/CA/Riverside/8377-Cypress-Ave-92503/home/4805266,CRMLS,PW24191182,N,Y,33.9431194,-117.4631193
MLS Listing,,Single Family Residential,6309 Catspaw Dr,Riverside,CA,92505,649000,3,2.0,252 - Riverside,1209,11326,1985,4,537,,Active,,,https://www.redfin.com/CA/Riverside/6309-Catspaw-Dr-92505/home/4802040,CRMLS,IG24191169,N,Y,33.9432256,-117.5059626
MLS Listing,,Single Family Residential,5817 Royale Pl,Riverside,CA,92506,1289000,4,3.5,252 - Riverside,3605,25265,1992,4,358,,Active,,,https://www.redfin.com/CA/Riverside/5817-Royale-Pl-92506/home/5022474,CRMLS,IV24188663,N,Y,33.9439834,-117.3617938
MLS Listing,,Single Family Residential,3245 Chase Rd,Riverside,CA,92501,679000,3,2.0,252 - Riverside,1250,6970,2000,4,543,,Active,,,https://www.redfin.com/CA/Riverside/3245-Chase-Rd-92501/home/6277932,CRMLS,CV24191135,N,Y,34.0084301,-117.3490056
MLS Listing,,Vacant Land,0-Lot 25 Spalding Ave,Riverside,CA,92508,175000,,,252 - Riverside,,36155,,4,,,Active,,,https://www.redfin.com/CA/Unknown/0-Lot-25-Spalding-Ave-92508/home/192545423,CRMLS,IV24191086,N,Y,33.863406,-117.329252
MLS Listing,,Vacant Land,19165 Spalding Ave,Riverside,CA,92508,225000,,,252 - Riverside,,36155,,4,,,Active,,,https://www.redfin.com/CA/Riverside/19165-Spalding-Ave-92508/home/5088321,CRMLS,IV24190981,N,Y,33.862753,-117.328614
MLS Listing,,Single Family Residential,3625 Ross St,Riverside,CA,92503,649900,4,2.0,252 - Riverside,1187,6534,1955,4,548,,Active,,,https://www.redfin.com/CA/Riverside/3625-Ross-St-92503/home/5001830,CRMLS,CV24190962,N,Y,33.9123801,-117.4534667
MLS Listing,,Single Family Residential,8561 Woodrose St,Jurupa Valley,CA,92509,613518,3,2.5,251 - Jurupa Valley,1583,3936,2024,4,388,158,Active,,,https://www.redfin.com/CA/Jurupa-Valley/8561-Woodrose-St-92509/home/191918232,CRMLS,SW24190827,N,Y,33.970368,-117.46709
MLS Listing,,Mobile/Manufactured Home,3319 Avalon #1,Jurupa Valley,CA,92509,139900,2,1.0,Avalon Mobile Home Park,,,2024,4,,,Active,,,https://www.redfin.com/CA/Riverside/3319-Avalon-St-92509/unit-1/home/192541432,CRMLS,OC24190403,N,Y,34.0030395,-117.4066855
MLS Listing,,Single Family Residential,9751 Indiana Ave,Riverside,CA,92503,549000,3,2.0,252 - Riverside,1128,8712,1958,4,487,,Active,,,https://www.redfin.com/CA/Riverside/9751-Indiana-Ave-92503/home/5002340,CRMLS,IV24182563,N,Y,33.9116823,-117.4462555
MLS Listing,,Single Family Residential,19145 Erickson Way,Riverside,CA,92508,849900,4,2.5,252 - Riverside,3288,8712,2001,4,258,,Active,,,https://www.redfin.com/CA/Riverside/19145-Erickson-Way-92508/home/6401290,CRMLS,IV24177573,N,Y,33.9038192,-117.3300986
MLS Listing,,Condo/Co-op,375 Central Ave #29,Riverside,CA,92507,360000,1,1.0,252 - Riverside,740,,1997,4,486,350,Active,,,https://www.redfin.com/CA/Riverside/375-Central-Ave-92507/unit-29/home/6690431,CRMLS,OC24186314,N,Y,33.9555352,-117.3196704
MLS Listing,,Single Family Residential,4579 Sierra St,Riverside,CA,92504,500000,2,2.0,699 - Not Defined,984,6098,1949,5,508,,Active,,,https://www.redfin.com/CA/Riverside/4579-Sierra-St-92504/home/4979378,CRMLS,SW24190548,N,Y,33.9501172,-117.4024911
MLS Listing,,Single Family Residential,5433 Sunset Ridge Dr,Jurupa Valley,CA,92509,1070000,4,4.0,252 - Riverside,3311,23522,2005,5,323,,Active,,,https://www.redfin.com/CA/Jurupa-Valley/5433-Sunset-Ridge-Dr-92509/home/8165196,CRMLS,PW24185352,N,Y,33.9895054,-117.4672009
MLS Listing,,Single Family Residential,16270 Highgate Dr,Riverside,CA,92503,1175000,4,3.5,252 - Riverside,3904,20909,2003,5,301,185,Active,,,https://www.redfin.com/CA/Riverside/16270-Highgate-Dr-92503/home/6526908,CRMLS,EV24190318,N,Y,33.8832397,-117.4666525
MLS Listing,,Single Family Residential,9249 san Rafael Arcangel l Ln,Riverside,CA,92508,735000,4,3.5,252 - Riverside,2700,7405,2005,5,272,,Active,September-22-2024 01:00 PM,September-22-2024 03:00 PM,https://www.redfin.com/CA/Riverside/9249-San-Rafael-Arcangel-Ln-92508/home/6611587,CRMLS,CV24187716,N,Y,33.8825064,-117.3147631
MLS Listing,,Single Family Residential,8633 Chifney Ln,Jurupa Valley,CA,92509,739000,4,2.0,251 - Jurupa Valley,1809,20038,1985,5,409,,Active,,,https://www.redfin.com/CA/Jurupa-Valley/8633-Chifney-Ln-92509/home/4845172,CRMLS,SR24185593,N,Y,33.9878945,-117.4718197
MLS Listing,,Single Family Residential,3153 Tyler St,Riverside,CA,92503,640000,3,2.0,252 - Riverside,1178,7405,1979,5,543,,Active,,,https://www.redfin.com/CA/Riverside/3153-Tyler-St-92503/home/5005081,CRMLS,IV24190409,N,Y,33.9022459,-117.4530005
MLS Listing,,Single Family Residential,5844 Montgomery St,Riverside,CA,92503,450000,2,1.0,252 - Riverside,830,9583,1954,5,542,,Active,,,https://www.redfin.com/CA/Riverside/5844-Montgomery-St-92503/home/4806904,CRMLS,CV24142730,N,Y,33.9409972,-117.4572607
MLS Listing,,Condo/Co-op,7006 Seville Way,Riverside,CA,92504,550000,3,3.0,252 - Riverside,2160,1742,1979,5,255,415,Active,,,https://www.redfin.com/CA/Riverside/7006-Seville-Way-92504/home/5010942,CRMLS,SW24188511,N,Y,33.9284597,-117.385888
MLS Listing,,Single Family Residential,20769 Rosedale Dr,Riverside,CA,92508,785000,4,3.0,252 - Riverside,2385,6970,1998,5,329,,Active,,,https://www.redfin.com/CA/Riverside/20769-Rosedale-Dr-92508/home/5156345,CRMLS,IV24189780,N,Y,33.8895355,-117.2963538
MLS Listing,,Single Family Residential,9253 Sunridge Dr,Riverside,CA,92508,725000,5,3.0,252 - Riverside,2079,7841,1992,5,349,,Active,September-21-2024 11:00 AM,September-21-2024 01:00 PM,https://www.redfin.com/CA/Riverside/9253-Sunridge-Dr-92508/home/5091976,CRMLS,IV24188570,N,Y,33.8820845,-117.3291774
MLS Listing,,Single Family Residential,20121 Whiterock,Riverside,CA,92508,710000,4,2.5,252 - Riverside,2028,7405,1991,5,350,,Active,,,https://www.redfin.com/CA/Riverside/20121-Whiterock-Ln-92508/home/5150807,CRMLS,IV24186401,N,Y,33.8922041,-117.3114381
MLS Listing,,Single Family Residential,3264 Nez Perce Trl,Riverside,CA,92503,645000,3,2.0,252 - Riverside,1408,7405,1985,5,458,,Active,,,https://www.redfin.com/CA/Riverside/3264-Nez-Perce-Trl-92503/home/4763928,CRMLS,PW24187347,N,Y,33.9014409,-117.4579497
MLS Listing,,Mobile/Manufactured Home,4080 Pedley Rd #19,Jurupa Valley,CA,92509,164999,3,2.0,Bravo Estates,1440,,1999,5,115,,Active,,,https://www.redfin.com/CA/Jurupa-Valley/4080-Pedley-Rd-92509/unit-19/home/6330510,CRMLS,IG24187505,N,Y,34.0148804,-117.4737572
MLS Listing,,Single Family Residential,19406 Allenhurst St,Riverside,CA,92508,725000,3,2.0,252 - Riverside,1906,7405,2001,5,380,,Active,,,https://www.redfin.com/CA/Riverside/19406-Allenhurst-St-92508/home/6394293,CRMLS,IV24178406,N,Y,33.8997171,-117.3224109
MLS Listing,,Townhouse,3542 Ethereal Ct,Riverside,CA,92503,599999,3,2.5,252 - Riverside,1815,,2006,5,331,221,Active,,,https://www.redfin.com/CA/Riverside/3542-Ethereal-Ct-92503/home/17320692,CRMLS,IG24188050,N,Y,33.8879967,-117.4957872
MLS Listing,,Single Family Residential,8947 Greenlawn St,Riverside,CA,92508,950000,4,3.0,252 - Riverside,3270,7405,1997,5,291,,Active,,,https://www.redfin.com/CA/Riverside/8947-Greenlawn-St-92508/home/5156998,CRMLS,CV24181294,N,Y,33.8892921,-117.2930062
MLS Listing,,Single Family Residential,21192 Telegraph Rd,Riverside,CA,92507,749000,6,4.0,252 - Riverside,2527,7257,2021,5,296,,Active,,,https://www.redfin.com/CA/Riverside/21192-Telegraph-Rd-92507/home/173394930,CRMLS,IV24184945,N,Y,34.007435,-117.292709
MLS Listing,,Single Family Residential,4435 Estrada Dr,Jurupa Valley,CA,92509,579000,4,2.0,251 - Jurupa Valley,1532,8276,1980,5,378,,Active,,,https://www.redfin.com/CA/Jurupa-Valley/4435-Estrada-Dr-92509/home/4882779,CRMLS,PW24178215,N,Y,33.9954187,-117.4328286
MLS Listing,,Single Family Residential,4992 Red Rock Ave,Riverside,CA,92503,579000,4,2.0,252 - Riverside,1568,10890,1978,6,369,,Active,,,https://www.redfin.com/CA/Riverside/4992-Red-Rock-Ave-92503/home/4809993,CRMLS,IG24189420,N,Y,33.9302333,-117.4637939
MLS Listing,,Single Family Residential,8871 San Vicente Ave,Riverside,CA,92503,570000,3,2.0,252 - Riverside,1278,7405,1958,6,446,,Active,,,https://www.redfin.com/CA/Riverside/8871-San-Vicente-Ave-92503/home/4915334,CRMLS,IG24189499,N,Y,33.9389909,-117.4447054
MLS Listing,,Mobile/Manufactured Home,12149 Indiana Ave #31,Riverside,CA,92503,105000,2,1.0,Palm Terrace,,479160,1977,6,,,Active,,,https://www.redfin.com/CA/Riverside/12149-Indiana-Ave-92503/unit-31/home/3171202,CRMLS,SW24182942,N,Y,33.8883807,-117.4936066
MLS Listing,,Single Family Residential,7163 Bodewin Ct,Riverside,CA,92506,4900000,5,8.0,252 - Riverside,17709,81022,2001,6,277,369,Active,,,https://www.redfin.com/CA/Riverside/7163-Bodewin-Ct-92506/home/5025678,CRMLS,IV24189378,N,Y,33.9223876,-117.3605301
MLS Listing,,Single Family Residential,1318 Kirkmichael Cir,Riverside,CA,92507,799500,4,3.0,252 - Riverside,2467,7841,1998,6,324,,Active,,,https://www.redfin.com/CA/Riverside/1318-Kirkmichael-Cir-92507/home/5055048,CRMLS,SW24179251,N,Y,33.952565,-117.3113651
MLS Listing,,Single Family Residential,5384 Dahlia Ln,Riverside,CA,92507,549900,3,3.0,252 - Riverside,1688,2178,1973,6,326,425,Active,,,https://www.redfin.com/CA/Riverside/5384-Dahlia-Ln-92507/home/5043728,CRMLS,IV24187807,N,Y,33.9556474,-117.328466
MLS Listing,,Single Family Residential,5619 Carson Rd,Riverside,CA,92506,649999,3,2.0,252 - Riverside,1600,9583,1954,6,406,,Active,,,https://www.redfin.com/CA/Riverside/5619-Carson-Rd-92506/home/4965740,CRMLS,IV24188943,N,Y,33.9503784,-117.3769217
MLS Listing,,Condo/Co-op,10654 White Oak Dr,Riverside,CA,92505,365000,2,1.5,252 - Riverside,1069,1069,1973,6,341,300,Active,,,https://www.redfin.com/CA/Riverside/10654-White-Oak-Dr-92505/home/4760141,CRMLS,IG24188174,N,Y,33.9046705,-117.4653977
MLS Listing,,Vacant Land,0 Roberts Rd,Woodcrest,CA,92508,1595000,,,699 - Not Defined,,1153903,,6,,,Active,,,https://www.redfin.com/CA/Woodcrest/Unknown-92508/home/142756260,CRMLS,OC24189173,N,Y,33.899881,-117.353693
MLS Listing,,Single Family Residential,2307 Prince Albert Dr,Riverside,CA,92507,700000,3,2.0,252 - Riverside,1783,13068,1955,6,393,,Active,,,https://www.redfin.com/CA/Riverside/2307-Prince-Albert-Dr-92507/home/4961143,CRMLS,PW24188052,N,Y,33.9638238,-117.3596102
MLS Listing,,Single Family Residential,7820 Summit St,Riverside,CA,92504,1800000,4,4.0,252 - Riverside,3395,94961,1978,6,530,,Active,,,https://www.redfin.com/CA/Riverside/7820-Summit-St-92504/home/5021079,CRMLS,IV24187725,N,Y,33.9093626,-117.391784
MLS Listing,,Single Family Residential,10140 Leucadia Ln,Riverside,CA,92503,568000,4,2.0,699 - Not Defined,1556,5227,1976,6,365,27,Active,,,https://www.redfin.com/CA/Riverside/10140-Leucadia-Ln-92503/home/4821525,CRMLS,GD24186117,N,Y,33.9542118,-117.4762799
MLS Listing,,Single Family Residential,5263 35th St,Jurupa Valley,CA,92509,525000,3,1.0,251 - Jurupa Valley,650,7405,1942,6,808,,Active,,,https://www.redfin.com/CA/Jurupa-Valley/5263-35th-St-92509/home/4873478,CRMLS,IV24189071,N,Y,33.9957633,-117.3960241
MLS Listing,,Vacant Land,0 Four Winds Dr,Riverside,CA,92503,145000,,,252 - Riverside,,8276,,6,,,Active,,,https://www.redfin.com/CA/Riverside/Four-Winds-Dr-92503/home/108493814,CRMLS,IV24189050,N,Y,33.87871,-117.414832
MLS Listing,,Multi-Family (2-4 Unit),7614 Fern St,Riverside,CA,92504,750000,5,2.0,252 - Riverside,1665,7841,1940,6,450,,Active,,,https://www.redfin.com/CA/Riverside/7614-Fern-St-92504/home/4994193,CRMLS,CV24188936,N,Y,33.9291652,-117.4026298
MLS Listing,,Single Family Residential,14306 Martin Pl,Riverside,CA,92503,669000,3,2.0,252 - Riverside,1706,8712,1987,6,392,,Active,,,https://www.redfin.com/CA/Riverside/14306-Martin-Pl-92503/home/5100559,CRMLS,IV24188877,N,Y,33.8818618,-117.4133138
MLS Listing,,Single Family Residential,19988 Lanceleaf Ct,Riverside,CA,92508,659990,3,2.0,252 - Riverside,1470,9641,2025,6,449,228,Active,,,https://www.redfin.com/CA/Riverside/19988-Lanceleaf-Ct-92508/home/191921979,CRMLS,IV24188820,N,Y,33.8745378,-117.3141288
MLS Listing,,Single Family Residential,19976 Lanceleaf Ct,Riverside,CA,92508,657990,3,2.0,252 - Riverside,1548,5952,2024,6,425,228,Active,,,https://www.redfin.com/CA/Riverside/19976-Lanceleaf-Ct-92508/home/191921978,CRMLS,IV24188802,N,Y,33.8746054,-117.3143521
MLS Listing,,Mobile/Manufactured Home,9391 California Ave #80,Riverside,CA,92503,115000,2,2.0,Riverside Country Club Mobile Home Park,1560,,1973,6,74,,Active,,,https://www.redfin.com/CA/Riverside/9391-California-Ave-92503/unit-80/home/18483277,CRMLS,IG24188758,N,Y,33.9293046,-117.4513158
MLS Listing,,Single Family Residential,19952 Lanceleaf Ct,Riverside,CA,92508,683990,3,2.0,252 - Riverside,1882,5942,2025,6,363,228,Active,,,https://www.redfin.com/CA/Riverside/19952-Lanceleaf-Ct-92508/home/191921976,CRMLS,IV24188752,N,Y,33.874605,-117.3147077
MLS Listing,,Single Family Residential,7060 Fireside Dr,Riverside,CA,92506,729000,4,2.5,252 - Riverside,2058,11326,1976,6,354,,Active,,,https://www.redfin.com/CA/Riverside/7060-Fireside-Dr-92506/home/5010713,CRMLS,IV24184363,N,Y,33.9256529,-117.3849311
MLS Listing,,Single Family Residential,19964 Lanceleaf Ct,Riverside,CA,92508,706990,4,2.0,252 - Riverside,2026,5944,2025,6,349,228,Active,,,https://www.redfin.com/CA/Riverside/19964-Lanceleaf-Ct-92508/home/191921977,CRMLS,IV24188757,N,Y,33.8746061,-117.3145301
MLS Listing,,Single Family Residential,17821 Morning Rock Cir,Riverside,CA,92503,849900,4,3.0,252 - Riverside,1921,10890,1998,6,442,109,Active,,,https://www.redfin.com/CA/Riverside/17821-Morning-Rock-Cir-92503/home/4772644,CRMLS,CV24186761,N,Y,33.8610344,-117.4566712
MLS Listing,,Single Family Residential,5420 Lewis Ave,Riverside,CA,92503,550000,3,1.0,252 - Riverside,954,6970,1957,7,577,,Active,,,https://www.redfin.com/CA/Riverside/5420-Lewis-Ave-92503/home/4794338,CRMLS,IG24188582,N,Y,33.9358776,-117.4742419
MLS Listing,,Single Family Residential,3260 Layton Ct,Riverside,CA,92503,649900,3,2.0,252 - Riverside,1215,7405,1964,7,535,,Active,,,https://www.redfin.com/CA/Riverside/3260-Layton-Ct-92503/home/4701966,CRMLS,CV24187698,N,Y,33.8911153,-117.4762191
MLS Listing,,Condo/Co-op,1000 Central Ave #16,Riverside,CA,92507,338000,2,2.0,252 - Riverside,1025,871,1975,7,330,370,Active,,,https://www.redfin.com/CA/Riverside/1000-Central-Ave-92507/unit-16/home/5048530,CRMLS,WS24187745,N,Y,33.9541424,-117.3326192
MLS Listing,,Single Family Residential,6470 Dorinda Dr,Riverside,CA,92503,579900,4,2.0,252 - Riverside,1811,7405,1967,7,320,,Active,,,https://www.redfin.com/CA/Riverside/6470-Dorinda-Dr-92503/home/4818302,CRMLS,CV24186519,N,Y,33.9483402,-117.4713972
MLS Listing,,Single Family Residential,9389 Delfern Ln,Jurupa Valley,CA,92509,385000,6,2.0,251 - Jurupa Valley,1821,7841,1987,7,211,,Active,,,https://www.redfin.com/CA/Jurupa-Valley/9389-Delfern-Ln-92509/home/4859235,CRMLS,IG24186594,N,Y,34.0088083,-117.4889143
MLS Listing,,Single Family Residential,1605 Via Vista Dr,Riverside,CA,92506,825000,5,3.0,252 - Riverside,2609,8712,1960,7,316,,Active,,,https://www.redfin.com/CA/Riverside/1605-Via-Vista-Dr-92506/home/5040279,CRMLS,CV24187955,N,Y,33.9330448,-117.3467264
MLS Listing,,Condo/Co-op,554 Via Zapata,Riverside,CA,92507,699900,3,2.0,252 - Riverside,2230,6098,1980,7,314,399,Active,,,https://www.redfin.com/CA/Riverside/554-Via-Zapata-92507/home/5043795,CRMLS,IG24187844,N,Y,33.9487051,-117.325258
MLS Listing,,Single Family Residential,6091 Bonhill St,Jurupa Valley,CA,92509,585000,3,2.0,251 - Jurupa Valley,1118,9583,1966,7,523,,Active,,,https://www.redfin.com/CA/Jurupa-Valley/6091-Bonhill-St-92509/home/4895699,CRMLS,IG24176299,N,Y,33.9887771,-117.4267728
MLS Listing,,Single Family Residential,7755 Lakeside Dr,Jurupa Valley,CA,92509,849000,4,3.0,251 - Jurupa Valley,2555,20038,1968,8,332,,Active,,,https://www.redfin.com/CA/Jurupa-Valley/7755-Lakeside-Dr-92509/home/4889791,CRMLS,IV24187686,N,Y,33.9852541,-117.4513742
MLS Listing,,Single Family Residential,2270 Mt Vernon Ave,Riverside,CA,92507,900000,1,1.0,252 - Riverside,1054,189050,1951,8,854,,Active,,,https://www.redfin.com/CA/Riverside/2270-Mt-Vernon-Ave-92507/home/5055334,CRMLS,SW24187690,N,Y,33.9908286,-117.3128329
MLS Listing,,Single Family Residential,4706 Rosewood Pl,Riverside,CA,92506,750000,3,1.0,Riverside,1534,17424,1950,8,489,,Active,,,https://www.redfin.com/CA/Riverside/4706-Rosewood-Pl-92506/home/4948363,TheMLS,24-437789,N,Y,33.9679037,-117.3997933
MLS Listing,,Single Family Residential,8313 Yearling Way,Jurupa Valley,CA,92509,740000,4,3.0,251 - Jurupa Valley,2132,9148,1980,8,347,,Active,,,https://www.redfin.com/CA/Jurupa-Valley/8313-Yearling-Way-92509/home/4848697,CRMLS,IV24162583,N,Y,33.9773391,-117.465062
MLS Listing,,Single Family Residential,114 Bracebridge Rd,Riverside,CA,92506,749000,4,3.0,252 - Riverside,2224,8712,1988,8,337,,Pre On-Market,,,https://www.redfin.com/CA/Riverside/114-Bracebridge-Rd-92506/home/5103537,CRMLS,IV24186856,N,Y,33.9202338,-117.330751
MLS Listing,,Single Family Residential,1487 Rosehill Dr,Riverside,CA,92507,735500,3,2.0,252 - Riverside,1421,9148,1962,8,518,,Active,,,https://www.redfin.com/CA/Riverside/1487-Rosehill-Dr-92507/home/5045345,CRMLS,IV24187555,N,Y,33.9606709,-117.3438585
MLS Listing,,Single Family Residential,16926 Mcallister St,Riverside,CA,92503,699000,3,2.5,699 - Not Defined,1771,15682,2024,8,395,,Pre On-Market,September-21-2024 09:00 AM,September-21-2024 01:00 PM,https://www.redfin.com/CA/Riverside/16926-McAllister-St-92503/home/62772444,CRMLS,IV24185869,N,Y,33.872853,-117.435704
MLS Listing,,Single Family Residential,3359 Celeste Dr,Riverside,CA,92507,658000,4,3.0,252 - Riverside,1709,8712,1962,8,385,,Active,,,https://www.redfin.com/CA/Riverside/3359-Celeste-Dr-92507/home/5036677,CRMLS,OC24187461,N,Y,33.9823908,-117.3219586
MLS Listing,,Mobile/Manufactured Home,79 Round Table Dr,Riverside,CA,92507,130000,2,2.0,Riverside,1344,,1970,8,97,,Active,,,https://www.redfin.com/CA/Riverside/79-Round-Table-Dr-92507/home/6498204,TheMLS,24-434529,N,Y,33.988929,-117.3468646
MLS Listing,,Single Family Residential,5480 Beach St,Jurupa Valley,CA,92509,699000,2,2.0,251 - Jurupa Valley,1102,31799,1947,8,634,,Active,,,https://www.redfin.com/CA/Jurupa-Valley/5480-Beach-St-92509/home/6309440,CRMLS,OC24187299,N,Y,33.9880489,-117.494655
MLS Listing,,Townhouse,12917 Via Napoi,Riverside,CA,92503,550000,3,2.5,252 - Riverside,1300,,1992,8,423,353,Active,September-21-2024 11:00 AM,September-21-2024 01:00 PM,https://www.redfin.com/CA/Riverside/12917-Via-Napoi-92503/home/4755205,CRMLS,IG24187072,N,Y,33.8831423,-117.510113
MLS Listing,,Multi-Family (2-4 Unit),1936 W Linden St,Riverside,CA,92507,1200000,16,16.0,252 - Riverside,3000,11761,1950,8,400,,Active,,,https://www.redfin.com/CA/Riverside/1936-W-Linden-St-92507/home/4934853,CRMLS,IG24187095,N,Y,33.9791636,-117.3535943
MLS Listing,,Single Family Residential,8054 Armagosa Dr,Riverside,CA,92508,899999,4,2.5,252 - Riverside,3098,22651,2002,8,291,275,Active,,,https://www.redfin.com/CA/Riverside/8054-Armagosa-Dr-92508/home/6400154,CRMLS,IV24176997,N,Y,33.9036215,-117.3349452
MLS Listing,,Vacant Land,7925 Featherstone Ct,Riverside,CA,92506,470000,,,252 - Riverside,,23522,,8,,100,Active,,,https://www.redfin.com/CA/Riverside/7925-Featherstone-Ct-92506/home/167229435,CRMLS,IV24187016,N,Y,33.9083789,-117.3680512
MLS Listing,,Vacant Land,7955 Featherstone Ct,Riverside,CA,92506,435000,,,252 - Riverside,,27443,,8,,100,Active,,,https://www.redfin.com/CA/Riverside/7955-Featherstone-Ct-92506/home/167229432,CRMLS,IV24187007,N,Y,33.907265,-117.367861
MLS Listing,,Vacant Land,7928 Featherstone Ct,Riverside,CA,92506,440000,,,252 - Riverside,,19166,,8,,100,Active,,,https://www.redfin.com/CA/Riverside/7928-Featherstone-Ct-92506/home/167229429,CRMLS,IV24187012,N,Y,33.9081336,-117.3674774
MLS Listing,,Single Family Residential,175 Goldfinch Ln,Riverside,CA,92507,699900,3,3.0,252 - Riverside,1646,20473,1988,8,425,,Active,,,https://www.redfin.com/CA/Riverside/175-Goldfinch-Ln-92507/home/5050046,CRMLS,CV24186874,N,Y,34.0129518,-117.315255
MLS Listing,,Single Family Residential,2521 Pennsylvania Ave,Riverside,CA,92507,558000,3,2.0,252 - Riverside,1519,6970,1960,8,367,,Active,,,https://www.redfin.com/CA/Riverside/2521-Pennsylvania-Ave-92507/home/4957514,CRMLS,IV24186882,N,Y,33.9684802,-117.3641706
MLS Listing,,Single Family Residential,4165 Sequoia St,Riverside,CA,92503,649900,3,2.0,252 - Riverside,1218,10019,1955,8,534,,Active,,,https://www.redfin.com/CA/Riverside/4165-Sequoia-St-92503/home/4790584,CRMLS,CV24180519,N,Y,33.9250944,-117.4528539
MLS Listing,,Single Family Residential,2433 Pleasant St,Riverside,CA,92507,499000,3,2.0,252 - Riverside,1310,6970,1950,8,381,,Active,,,https://www.redfin.com/CA/Riverside/2433-Pleasant-St-92507/home/4959720,CRMLS,OC24186767,N,Y,33.9674694,-117.3622263
MLS Listing,,Single Family Residential,17331 Cross Creek Ln,Riverside,CA,92503,1165000,5,3.5,252 - Riverside,4225,10454,2002,8,276,183,Active,,,https://www.redfin.com/CA/Riverside/17331-Cross-Creek-Ln-92503/home/6338848,CRMLS,IV24186598,N,Y,33.8689923,-117.4436722
MLS Listing,,Single Family Residential,889 Highridge St,Riverside,CA,92506,1599990,5,4.5,252 - Riverside,4404,25265,2004,8,363,,Active,,,https://www.redfin.com/CA/Riverside/889-Highridge-St-92506/home/6493687,CRMLS,IG24184116,N,Y,33.9055337,-117.3657447
MLS Listing,,Vacant Land,7282 Magnon Ct,Riverside,CA,92506,575000,,,252 - Riverside,,90605,,8,,,Active,,,https://www.redfin.com/CA/Riverside/7282-Magnon-Ct-92506/home/171535314,CRMLS,CV24186744,N,Y,33.919601,-117.349303
MLS Listing,,Single Family Residential,19543 Fortunello Ave,Riverside,CA,92508,770000,4,3.0,252 - Riverside,2532,5227,2018,9,304,145,Active,,,https://www.redfin.com/CA/Riverside/19543-Fortunello-Ave-92508/home/167242357,CRMLS,TR24186607,N,Y,33.901498,-117.3203727
MLS Listing,,Mobile/Manufactured Home,3500 Buchanan St #173,Riverside,CA,92503,149999,2,2.0,VILLA MAGNOLIA,1856,,1979,9,81,,Active,,,https://www.redfin.com/CA/Riverside/3500-Buchanan-St-92503/unit-173/home/3171206,CRMLS,IV24186027,N,Y,33.8865234,-117.4952988
MLS Listing,,Mobile/Manufactured Home,6130 Camino Real #198,Jurupa Valley,CA,92509,160000,3,2.0,Jurupa Hills Cascase,1300,,2000,9,123,,Active,,,https://www.redfin.com/CA/Jurupa-Valley/6130-Camino-Real-92509/unit-198/home/6330949,CRMLS,EV24181804,N,Y,33.9774071,-117.4501887
MLS Listing,,Condo/Co-op,7933 Griffith Peak St,Riverside,CA,92507,559999,4,2.0,252 - Riverside,1702,,2019,9,329,192,Active,,,https://www.redfin.com/CA/Riverside/7933-Griffith-Peak-St-92507/home/173395023,CRMLS,IV24184677,N,Y,34.0059024,-117.3133487
MLS Listing,,Single Family Residential,17504 Krameria Ave,Riverside,CA,92504,849000,3,2.5,252 - Riverside,1876,63162,1973,9,453,,Pre On-Market,,,https://www.redfin.com/CA/Riverside/17504-Krameria-Ave-92504/home/52410996,CRMLS,OC24186267,N,Y,33.8804579,-117.3571556
MLS Listing,,Condo/Co-op,1315 Massachusetts Ave #201,Riverside,CA,92507,245000,1,1.0,252 - Riverside,604,,1986,10,406,419,Active,,,https://www.redfin.com/CA/Riverside/1315-Massachusetts-Ave-92507/unit-201/home/12496332,CRMLS,IV24186144,N,Y,33.98757,-117.3406071
MLS Listing,,Single Family Residential,4449 13th St,Riverside,CA,92501,499900,2,1.0,252 - Riverside,1263,8712,1910,10,396,,Active,,,https://www.redfin.com/CA/Riverside/4449-13th-St-92501/home/4941638,CRMLS,IV24182537,N,Y,33.9814089,-117.3864964
MLS Listing,,Single Family Residential,17525 Country Manor Ln,Riverside,CA,92508,1450000,5,3.5,252 - Riverside,3988,326700,2007,10,364,,Active,,,https://www.redfin.com/CA/Riverside/17525-Country-Manor-Ln-92508/home/12246745,CRMLS,IV24186190,N,Y,33.8960402,-117.3560849
MLS Listing,,Condo/Co-op,1317 Massachusetts Ave #205,Riverside,CA,92507,270000,1,1.0,252 - Riverside,640,295336,1986,10,422,427,Active,,,https://www.redfin.com/CA/Riverside/1317-Massachusetts-Ave-92507/unit-205/home/12500513,CRMLS,WS24186130,N,Y,33.9877926,-117.3406591
MLS Listing,,Condo/Co-op,7079 Poco Senda,Riverside,CA,92504,550000,3,2.5,252 - Riverside,1944,,1974,10,283,415,Active,,,https://www.redfin.com/CA/Riverside/7079-Poco-Senda-92504/home/5007508,CRMLS,TR24185130,N,Y,33.9290702,-117.3879884
MLS Listing,,Condo/Co-op,2757 Persimmon Pl,Riverside,CA,92506,570000,3,2.0,252 - Riverside,1570,,1976,10,363,410,Active,,,https://www.redfin.com/CA/Riverside/2757-Persimmon-Pl-92506/home/4967285,CRMLS,IG24178231,N,Y,33.9506608,-117.3717434
MLS Listing,,Single Family Residential,1405 Trenton Dr,Riverside,CA,92506,1050000,5,3.0,252 - Riverside,2776,20473,1967,10,378,,Active,,,https://www.redfin.com/CA/Riverside/1405-Trenton-Dr-92506/home/5048268,CRMLS,SW24185835,N,Y,33.9467822,-117.3430202
MLS Listing,,Single Family Residential,1267 Gazania Cir,Riverside,CA,92501,660000,4,3.0,252 - Riverside,1779,6970,1987,11,371,,Active,,,https://www.redfin.com/CA/Riverside/1267-Gazania-Cir-92501/home/4923833,CRMLS,IV24164759,N,Y,34.0023609,-117.3568125
MLS Listing,,Single Family Residential,16331 Bridgton Cir,Riverside,CA,92503,980000,3,2.5,252 - Riverside,3287,17424,2007,11,298,50,Active,,,https://www.redfin.com/CA/Riverside/16331-Bridgton-Cir-92503/home/12270506,CRMLS,TR24185168,N,Y,33.8827873,-117.4509721
MLS Listing,,Single Family Residential,2460 Carlton Pl,Riverside,CA,92507,615000,5,2.0,252 - Riverside,2102,9583,1953,11,293,,Active,,,https://www.redfin.com/CA/Riverside/2460-Carlton-Pl-92507/home/4959910,CRMLS,IV24185162,N,Y,33.9648118,-117.363004
MLS Listing,,Single Family Residential,8515 Gramercy Pl,Riverside,CA,92503,548800,3,1.5,252 - Riverside,1014,8276,1957,11,541,,Active,,,https://www.redfin.com/CA/Riverside/8515-Gramercy-Pl-92503/home/4808361,CRMLS,IV24185546,N,Y,33.9374835,-117.4641782
MLS Listing,,Vacant Land,0 Avenida Michaelinda,Jurupa Valley,CA,92509,819000,,,251 - Jurupa Valley,,406415,,11,,,Active,,,https://www.redfin.com/CA/Jurupa-Valley/Pinto-St-92509/home/192402416,CRMLS,IV24182336,N,Y,33.99252,-117.435069
MLS Listing,,Single Family Residential,1441 Edelweiss Ave,Riverside,CA,92501,675000,4,3.0,252 - Riverside,1860,7841,1988,11,363,,Active,,,https://www.redfin.com/CA/Riverside/1441-Edelweiss-Ave-92501/home/4923789,CRMLS,BB24184471,N,Y,34.0014916,-117.3585693
MLS Listing,,Mobile/Manufactured Home,4000 Pierce St #150,Riverside,CA,92505,88888,2,2.0,Riverside Meadows,1152,,1975,11,77,,Active,,,https://www.redfin.com/CA/Riverside/4000-Pierce-St-92505/unit-150/home/3270083,CRMLS,IV24185216,N,Y,33.8994231,-117.497454
MLS Listing,,Single Family Residential,7872 Northrop Dr,Riverside,CA,92508,789999,5,3.0,252 - Riverside,2676,7841,2000,11,295,,Active,,,https://www.redfin.com/CA/Riverside/7872-Northrop-Dr-92508/home/6278379,CRMLS,EV24177870,N,Y,33.9091947,-117.3219776
MLS Listing,,Single Family Residential,17053 Doria Ct,Riverside,CA,92503,1200000,4,2.5,252 - Riverside,3566,14375,2021,11,337,196,Active,,,https://www.redfin.com/CA/Riverside/17053-Doria-Ct-92503/home/170631589,CRMLS,SW24181415,N,Y,33.8710085,-117.4207309
MLS Listing,,Single Family Residential,7777 Willow Ave,Riverside,CA,92504,565000,2,1.0,252 - Riverside,794,6970,1950,12,712,,Pre On-Market,,,https://www.redfin.com/CA/Riverside/7777-Willow-Ave-92504/home/4986114,CRMLS,IG24185182,N,Y,33.9430026,-117.4181881
MLS Listing,,Single Family Residential,6520 Dorinda Dr,Riverside,CA,92503,530000,3,2.0,252 - Riverside,1161,6534,1967,12,457,,Active,,,https://www.redfin.com/CA/Riverside/6520-Dorinda-Dr-92503/home/4818313,CRMLS,IV24185122,N,Y,33.949068,-117.4714108
MLS Listing,,Single Family Residential,8745 San Vicente Ave,Riverside,CA,92503,599000,3,2.0,252 - Riverside,1134,6098,1959,12,528,,Active,,,https://www.redfin.com/CA/Riverside/8745-San-Vicente-Ave-92503/home/4915322,CRMLS,RS24185124,N,Y,33.9402533,-117.4424942
MLS Listing,,Single Family Residential,6555 Norwood,Riverside,CA,92505,679995,3,2.0,252 - Riverside,1104,14810,1957,12,616,,Active,,,https://www.redfin.com/CA/Riverside/6555-Norwood-Ave-92505/home/4815675,CRMLS,CV24185007,N,Y,33.9466576,-117.4851317
MLS Listing,,Single Family Residential,16020 Little Ct,Riverside,CA,92508,769000,4,2.5,252 - Riverside,2902,21780,2003,12,265,,Active,,,https://www.redfin.com/CA/Riverside/16020-Little-Ct-92508/home/5087829,CRMLS,SW24184515,N,Y,33.8867498,-117.344847
MLS Listing,,Mobile/Manufactured Home,18290 Northstar Ave,Riverside,CA,92508,619900,3,2.0,252 - Riverside,1344,60984,2016,12,461,,Active,,,https://www.redfin.com/CA/Riverside/18290-Northstar-Ave-92508/home/5251977,CRMLS,IV24184218,N,Y,33.8541989,-117.3157771
MLS Listing,,Multi-Family (2-4 Unit),4819 Tyler St,Riverside,CA,92503,1200000,,,252 - Riverside,2592,18295,1926,12,463,,Pre On-Market,,,https://www.redfin.com/CA/Riverside/4819-Tyler-St-92503/home/4796041,CRMLS,IV24177934,N,Y,33.928499,-117.4739593
MLS Listing,,Single Family Residential,17961 Aloe Ln,Riverside,CA,92503,875000,5,3.0,252 - Riverside,2642,7841,2002,12,331,173,Active,,,https://www.redfin.com/CA/Riverside/17961-Aloe-Ln-92503/home/6420701,CRMLS,IG24184187,N,Y,33.8590363,-117.4415729
MLS Listing,,Single Family Residential,6738 Jerome St,Riverside,CA,92504,699999,4,2.0,252 - Riverside,1328,6534,1954,12,527,,Active,,,https://www.redfin.com/CA/Riverside/6738-Jerome-St-92504/home/4906478,CRMLS,SW24179522,N,Y,33.9507842,-117.4240966
MLS Listing,,Single Family Residential,5520 Wentworth Dr,Riverside,CA,92505,769999,4,2.0,252 - Riverside,1942,8712,1965,13,396,,Active,,,https://www.redfin.com/CA/Riverside/5520-Wentworth-Dr-92505/home/4764200,CRMLS,IG24183751,N,Y,33.9273974,-117.5099095
MLS Listing,,Single Family Residential,4584 Marmian Way,Riverside,CA,92506,549999,2,1.0,252 - Riverside,735,7841,1946,13,748,,Active,,,https://www.redfin.com/CA/Riverside/4584-Marmian-Way-92506/home/4979352,CRMLS,IV24183276,N,Y,33.9513997,-117.4026331
MLS Listing,,Single Family Residential,1454 Sutherland Dr,Riverside,CA,92507,660000,3,2.5,252 - Riverside,1555,4356,1999,13,424,,Active,,,https://www.redfin.com/CA/Riverside/1454-Sutherland-Dr-92507/home/5072291,CRMLS,OC24184006,N,Y,33.9426835,-117.3071086
MLS Listing,,Townhouse,802 Via Zapata,Riverside,CA,92507,695000,3,2.0,252 - Riverside,1764,2178,1969,13,394,435,Pre On-Market,,,https://www.redfin.com/CA/Riverside/802-Via-Zapata-92507/home/5043819,CRMLS,EV24183782,N,Y,33.9514997,-117.328972
MLS Listing,,Single Family Residential,8687 Maroon Peak Way,Riverside,CA,92508,779900,5,2.5,252 - Riverside,2631,9148,2001,13,296,132,Active,,,https://www.redfin.com/CA/Riverside/8687-Maroon-Peak-Way-92508/home/6394734,CRMLS,IG24183551,N,Y,33.8936937,-117.3244412
MLS Listing,,Single Family Residential,16921 Blue Bird Pl,Riverside,CA,92503,990000,4,3.0,252 - Riverside,3455,7841,2006,13,287,180,Active,,,https://www.redfin.com/CA/Riverside/16921-Blue-Bird-Pl-92503/home/12268392,CRMLS,CV24183571,N,Y,33.8739581,-117.4805133
MLS Listing,,Mobile/Manufactured Home,4041 Pedley Rd #149,Riverside,CA,92509,215000,4,2.0,Bravo Mobile Home Park,1580,,2024,13,136,,Active,,,https://www.redfin.com/CA/Jurupa-Valley/4041-Pedley-Rd-92509/unit-149/home/6659649,CRMLS,EV24183463,N,Y,34.0144436,-117.4783442
MLS Listing,,Single Family Residential,9506 Newbridge Dr,Riverside,CA,92508,878000,5,4.0,252 - Riverside,3615,10890,2005,13,243,35,Active,,,https://www.redfin.com/CA/Riverside/9506-Newbridge-Dr-92508/home/8165819,CRMLS,IV24183096,N,Y,33.8780176,-117.3359779
MLS Listing,,Single Family Residential,5741 El Palomino Dr,Jurupa Valley,CA,92509,625000,3,2.0,251 - Jurupa Valley,1502,8712,1991,13,416,180,Active,,,https://www.redfin.com/CA/Jurupa-Valley/5741-El-Palomino-Dr-92509/home/4850487,CRMLS,IG24182632,N,Y,33.9840589,-117.4548646
MLS Listing,,Single Family Residential,17708 Mcdowell Valley Dr,Riverside,CA,92503,1196327,4,4.5,252 - Riverside,4336,10132,2024,13,276,277,Active,,,https://www.redfin.com/CA/Riverside/17708-McDowell-Valley-Dr-92503/home/192222817,CRMLS,IV24183139,N,Y,33.8639385,-117.4354905
MLS Listing,,Single Family Residential,17720 Mcdowell Valley Dr,Riverside,CA,92503,1158197,4,4.5,252 - Riverside,3873,12816,2024,13,299,277,Active,,,https://www.redfin.com/CA/Riverside/17720-McDowell-Valley-Dr-92503/home/192212148,CRMLS,IV24183123,N,Y,33.8636894,-117.4354981
MLS Listing,,Single Family Residential,9279 52nd St,Jurupa Valley,CA,92509,649900,5,4.0,251 - Jurupa Valley,1299,12197,1946,13,500,,Active,,,https://www.redfin.com/CA/Jurupa-Valley/9279-52nd-St-92509/home/4852688,CRMLS,PW24183008,N,Y,33.9930801,-117.4865169
MLS Listing,,Single Family Residential,20559 Leticia Cir,Riverside,CA,92507,674900,4,2.0,252 - Riverside,1749,9060,2022,13,386,,Active,,,https://www.redfin.com/CA/Riverside/20559-Leticia-Cir-92507/home/173395235,CRMLS,IV24178300,N,Y,34.007263,-117.303595
MLS Listing,,Single Family Residential,9775 Edenbrook Dr,Riverside,CA,92503,559910,3,2.5,252 - Riverside,1598,2614,2006,14,350,252,Active,,,https://www.redfin.com/CA/Riverside/9775-Edenbrook-Dr-92503/home/6690324,CRMLS,IV24182960,N,Y,33.9262032,-117.4546928
MLS Listing,,Mobile/Manufactured Home,21875 Eucalyptus Ave #24,Moreno Valley,CA,92553,135000,3,1.0,edgelane,992,,1966,14,136,,Active,,,https://www.redfin.com/CA/Moreno-Valley/21875-Eucalyptus-Ave-92553/unit-24/home/188574785,CRMLS,IV24181990,N,Y,33.9312086,-117.2810182
MLS Listing,,Single Family Residential,8849 Glencoe Dr,Riverside,CA,92503,559000,3,1.5,252 - Riverside,1057,6534,1957,14,529,,Active,,,https://www.redfin.com/CA/Riverside/8849-Glencoe-Dr-92503/home/4910499,CRMLS,CV24182963,N,Y,33.9404694,-117.4453468
MLS Listing,,Condo/Co-op,375 Central Ave #91,Riverside,CA,92507,440000,2,2.0,252 - Riverside,1121,,1997,14,393,380,Active,,,https://www.redfin.com/CA/Riverside/375-Central-Ave-92507/unit-91/home/8165628,CRMLS,CV24181989,N,Y,33.9555352,-117.3196704
MLS Listing,,Vacant Land,2935 Galaxie Heights Rd,Riverside,CA,92507,325000,,,252 - Riverside,,49223,,14,,,Active,,,https://www.redfin.com/CA/Riverside/2935-Galaxie-Hts-Rd-92507/home/22759196,CRMLS,IV24182919,N,Y,33.986313,-117.310063
MLS Listing,,Single Family Residential,2607 Chauncy Pl,Riverside,CA,92506,1595000,4,2.5,252 - Riverside,3244,21780,1987,14,492,,Active,,,https://www.redfin.com/CA/Riverside/2607-Chauncy-Pl-92506/home/5019391,CRMLS,IV24182821,N,Y,33.9435304,-117.367297
MLS Listing,,Single Family Residential,4964 Wilton Pl,Riverside,CA,92504,677000,4,1.0,252 - Riverside,1563,9583,1952,14,433,,Active,,,https://www.redfin.com/CA/Riverside/4964-Wilton-Pl-92504/home/4946658,CRMLS,IG24181748,N,Y,33.964815,-117.410085
MLS Listing,,Mobile/Manufactured Home,8 Roundtable Dr,Riverside,CA,92507,99000,2,1.0,KING ARTHUR STATES,900,,1969,14,110,,Active,,,https://www.redfin.com/CA/Riverside/8-Round-Table-Dr-92507/home/192351623,CRMLS,EV24181592,N,Y,33.9852173,-117.3444157
MLS Listing,,Single Family Residential,9415 Kentfield Ct,Riverside,CA,92508,775950,5,3.0,252 - Riverside,3186,6970,2005,14,244,33,Active,,,https://www.redfin.com/CA/Riverside/9415-Kentfield-Ct-92508/home/8165721,CRMLS,CV24182624,N,Y,33.8796226,-117.333209
MLS Listing,,Mobile/Manufactured Home,3500 Buchanan St #31,Riverside,CA,92503,144900,2,2.0,Villa Magnolia,1464,,1976,14,99,,Active,,,https://www.redfin.com/CA/Riverside/3500-Buchanan-St-92503/unit-31/home/3278109,CRMLS,IG24181873,N,Y,33.8852261,-117.4991363
MLS Listing,,Single Family Residential,18860 Mariposa Dr,Riverside,CA,92508,1400000,6,5.0,SRCAR - Southwest Riverside County,5200,43560,2023,14,269,,Active,,,https://www.redfin.com/CA/Riverside/18860-Mariposa-Ave-92508/home/62770647,CRMLS,SW24182149,N,Y,33.873643,-117.334098
MLS Listing,,Single Family Residential,5910 Victoria Ave,Riverside,CA,92506,1349900,5,3.5,252 - Riverside,3493,15682,1961,14,386,,Active,,,https://www.redfin.com/CA/Riverside/5910-Victoria-Ave-92506/home/5010511,CRMLS,IV24182673,N,Y,33.9448939,-117.3701083
MLS Listing,,Condo/Co-op,7386 Hawkeye Ridge Rd,Jurupa Valley,CA,92509,635000,4,3.0,251 - Jurupa Valley,2357,2500,2020,14,269,176,Active,,,https://www.redfin.com/CA/Jurupa-Valley/7386-Hawkeye-Ridge-Rd-92509/home/170270455,CRMLS,CV24182401,N,Y,34.0156691,-117.4466111
MLS Listing,,Multi-Family (2-4 Unit),4202 9th St,Riverside,CA,92501,669000,2,2.0,252 - Riverside,1344,5227,1953,14,498,,Active,,,https://www.redfin.com/CA/Riverside/4202-9th-St-92501/home/4941318,CRMLS,IG24182201,N,Y,33.9835833,-117.3813169
MLS Listing,,Vacant Land,0 INDIAN HILL Rd,Riverside,CA,92501,475000,,,252 - Riverside,,111078,,14,,,Active,,,https://www.redfin.com/CA/Riverside/Indian-Hill-Rd-92501/home/144910171,CRMLS,IG24181665,N,Y,33.990845,-117.381815
MLS Listing,,Single Family Residential,8378 Running Gait Ln,Jurupa Valley,CA,92509,950000,5,3.0,251 - Jurupa Valley,3400,26136,1997,14,279,,Active,,,https://www.redfin.com/CA/Jurupa-Valley/8378-Running-Gait-Ln-92509/home/4850351,CRMLS,TR24181214,N,Y,33.984939,-117.4666588
MLS Listing,,Condo/Co-op,1114 W Blaine St #207,Riverside,CA,92507,340000,1,1.0,252 - Riverside,616,,1987,14,552,311,Active,,,https://www.redfin.com/CA/Riverside/1114-W-Blaine-St-92507/unit-207/home/6690424,CRMLS,IG24180747,N,Y,33.9819312,-117.3357689
MLS Listing,,Single Family Residential,2262 Rockwell Rd,Riverside,CA,92506,2300000,4,3.5,252 - Riverside,4880,40946,2000,14,471,,Active,,,https://www.redfin.com/CA/Riverside/2262-Rockwell-Rd-92506/home/5019058,CRMLS,IV24175258,N,Y,33.9248353,-117.3789456
MLS Listing,,Single Family Residential,6211 Country View Ln,Riverside,CA,92504,540000,2,2.0,252 - Riverside,1039,6534,1984,15,520,,Active,,,https://www.redfin.com/CA/Riverside/6211-Country-View-Ln-92504/home/4908336,CRMLS,CV24163576,N,Y,33.95949,-117.42397
MLS Listing,,Single Family Residential,3519 La Ciotat Way,Riverside,CA,92501,462800,3,1.5,252 - Riverside,1081,10454,1959,15,428,,Active,,,https://www.redfin.com/CA/Riverside/3519-La-Ciotat-Way-92501/home/5028860,CRMLS,IG24181136,N,Y,34.0148278,-117.3489659
MLS Listing,,Single Family Residential,6345 Foster Dr,Riverside,CA,92506,750000,4,2.0,252 - Riverside,1851,10454,1977,16,405,,Active,,,https://www.redfin.com/CA/Riverside/6345-Foster-Dr-92506/home/5010583,CRMLS,SW24160004,N,Y,33.938737,-117.3772212
MLS Listing,,Mobile/Manufactured Home,4080 Pedley Rd #98,Jurupa Valley,CA,92509,169999,3,2.0,Bravo Estates,1440,,1986,16,118,,Active,,,https://www.redfin.com/CA/Jurupa-Valley/4080-Pedley-Rd-92509/unit-98/home/3236838,CRMLS,SW24181452,N,Y,34.0148804,-117.4737572
MLS Listing,,Single Family Residential,2937-2935 Date St,Riverside,CA,92507,1079000,4,3.0,252 - Riverside,2110,7841,2023,16,511,,Active,,,https://www.redfin.com/CA/Riverside/2937-Date-St-92507/home/187419812,CRMLS,IV24181395,N,Y,33.96638,-117.372588
MLS Listing,,Single Family Residential,9527 Stirrup St,Jurupa Valley,CA,92509,748888,4,2.0,251 - Jurupa Valley,1702,25700,1978,16,440,,Active,,,https://www.redfin.com/CA/Jurupa-Valley/9527-Stirrup-St-92509/home/4839336,CRMLS,TR24181405,N,Y,33.9801982,-117.4923433
MLS Listing,,Single Family Residential,7341 Garnet Ridge Rd,Jurupa Valley,CA,92509,569900,5,3.5,251 - Jurupa Valley,2101,2500,2018,16,271,176,Active,,,https://www.redfin.com/CA/Jurupa-Valley/7341-Garnet-Ridge-Rd-92509/home/170626433,CRMLS,DW24181066,N,Y,34.0169044,-117.4461178
MLS Listing,,Single Family Residential,5800 Arlington Ave,Riverside,CA,92504,550000,3,1.0,252 - Riverside,1176,6534,1900,16,468,,Active,,,https://www.redfin.com/CA/Riverside/5800-Arlington-Ave-92504/home/4983007,CRMLS,CV24181392,N,Y,33.9457421,-117.4295525
MLS Listing,,Single Family Residential,4249 Tewa Way,Jurupa Valley,CA,92509,615000,4,2.5,251 - Jurupa Valley,1831,4792,2002,16,336,40,Active,,,https://www.redfin.com/CA/Jurupa-Valley/4249-Tewa-Way-92509/home/4878757,CRMLS,OC24167094,N,Y,33.9854693,-117.4035108
MLS Listing,,Single Family Residential,16158 Blue Haven Ct,Riverside,CA,92503,810000,4,2.5,252 - Riverside,2217,4356,2000,17,365,100,Active,,,https://www.redfin.com/CA/Riverside/16158-Blue-Haven-Ct-92503/home/4755128,CRMLS,SW24181289,N,Y,33.8850414,-117.4891774
MLS Listing,,Single Family Residential,2554 Flanders Rd,Riverside,CA,92507,689000,4,2.5,252 - Riverside,1914,7841,1961,17,360,,Active,,,https://www.redfin.com/CA/Riverside/2554-Flanders-Rd-92507/home/5035152,CRMLS,DW24181207,N,Y,33.9892667,-117.3235197
MLS Listing,,Single Family Residential,19381 John F Kennedy Dr,Riverside,CA,92508,799900,4,3.0,252 - Riverside,2980,8712,2001,17,268,,Active,,,https://www.redfin.com/CA/Riverside/19381-John-F-Kennedy-Dr-92508/home/6400429,CRMLS,IV24180319,N,Y,33.9021507,-117.3238362
MLS Listing,,Single Family Residential,6528 Marguerita Ave,Riverside,CA,92506,659900,3,2.0,252 - Riverside,1654,7841,1954,17,399,,Active,,,https://www.redfin.com/CA/Riverside/6528-Marguerita-Ave-92506/home/5007158,CRMLS,OC24180977,N,Y,33.942262,-117.3837425
MLS Listing,,Condo/Co-op,2891 Canyon Crest Dr #48,Riverside,CA,92507,325000,1,1.0,252 - Riverside,752,,1975,17,432,415,Active,,,https://www.redfin.com/CA/Riverside/2891-Canyon-Crest-Dr-92507/unit-48/home/5033614,CRMLS,IV24181041,N,Y,33.9882607,-117.3317449
MLS Listing,,Single Family Residential,17161 Blue Lake Ct,Riverside,CA,92503,1399900,5,5.0,252 - Riverside,4425,15682,2019,17,316,125,Pre On-Market,,,https://www.redfin.com/CA/Riverside/17161-Blue-Lake-Ct-92503/home/173396027,CRMLS,OC24180836,N,Y,33.8691252,-117.422542
MLS Listing,,Mobile/Manufactured Home,17805 Brazier Dr,Riverside,CA,92508,640000,5,4.0,252 - Riverside,2560,49658,2006,17,250,,Active,,,https://www.redfin.com/CA/Riverside/17805-Brazier-Dr-92508/home/22777331,CRMLS,IV24180407,N,Y,33.8607052,-117.3370286
MLS Listing,,Single Family Residential,2071 Prince Albert Dr,Riverside,CA,92507,839999,4,2.0,252 - Riverside,2312,9148,1960,18,363,,Active,,,https://www.redfin.com/CA/Riverside/2071-Prince-Albert-Dr-92507/home/4961204,CRMLS,IV24180657,N,Y,33.9639613,-117.3565935
MLS Listing,,Single Family Residential,4146 Campbell St,Jurupa Valley,CA,92509,729900,4,2.0,251 - Jurupa Valley,2114,14810,1949,18,345,,Active,,,https://www.redfin.com/CA/Jurupa-Valley/4146-Campbell-St-92509/home/4857731,CRMLS,CV24180618,N,Y,34.0126388,-117.4936571
MLS Listing,,Single Family Residential,6059 Alicante Ave,Jurupa Valley,CA,92509,787000,3,2.0,251 - Jurupa Valley,1773,20473,1948,18,444,,Active,,,https://www.redfin.com/CA/Jurupa-Valley/6059-Alicante-Ave-92509/home/4864420,CRMLS,IG24180481,N,Y,34.0332058,-117.3950021
MLS Listing,,Condo/Co-op,6979 Palm Ct Unit 346N,Riverside,CA,92506,320000,2,2.0,252 - Riverside,1185,1307,1959,18,270,430,Active,,,https://www.redfin.com/CA/Riverside/6979-Palm-Ct-92506/unit-346N/home/4978603,CRMLS,IV24180460,N,Y,33.9468468,-117.4022952
MLS Listing,,Single Family Residential,4683 Trailmore Ct,Riverside,CA,92505,679000,4,3.0,252 - Riverside,2124,4356,2001,18,320,223,Active,,,https://www.redfin.com/CA/Riverside/4683-Trailmore-Ct-92505/home/6399222,CRMLS,OC24179483,N,Y,33.9146357,-117.4910099
MLS Listing,,Single Family Residential,2158 Buckskin Pl,Riverside,CA,92506,930000,5,3.0,252 - Riverside,2616,10890,1974,19,356,,Active,,,https://www.redfin.com/CA/Riverside/2158-Buckskin-Pl-92506/home/5022598,CRMLS,IG24177878,N,Y,33.9434677,-117.354909
MLS Listing,,Single Family Residential,4323 Exmoor Ct,Jurupa Valley,CA,92509,720500,3,2.0,251 - Jurupa Valley,1621,7405,2002,19,444,40,Active,,,https://www.redfin.com/CA/Jurupa-Valley/4323-Exmoor-Ct-92509/home/4876963,CRMLS,SW24178673,N,Y,33.9850383,-117.4065868
MLS Listing,,Single Family Residential,4946 Sawgrass Ct,Riverside,CA,92504,634900,3,2.5,252 - Riverside,2098,2614,2007,19,303,170,Active,,,https://www.redfin.com/CA/Riverside/4946-Sawgrass-Ct-92504/home/17335746,CRMLS,CV24179581,N,Y,33.9589804,-117.4112053
MLS Listing,,Single Family Residential,19273 El Gallo St,Riverside,CA,92508,769990,5,3.0,252 - Riverside,2519,5697,2024,19,306,196,Active,,,https://www.redfin.com/CA/Riverside/19273-El-Gallo-St-92508/home/191922043,CRMLS,IV24179518,N,Y,33.875773,-117.3266771
MLS Listing,,Single Family Residential,19280 El Gallo,Riverside,CA,92508,660990,3,2.0,252 - Riverside,1618,4893,2024,19,409,196,Active,,,https://www.redfin.com/CA/Riverside/19280-El-Gallo-St-92508/home/191922036,CRMLS,IV24179506,N,Y,33.8762072,-117.3265724
MLS Listing,,Single Family Residential,9649 Corcovado Way,Riverside,CA,92508,732990,5,3.0,252 - Riverside,2519,4392,2024,19,291,196,Active,,,https://www.redfin.com/CA/Riverside/9649-Corcovado-Way-92508/home/191922020,CRMLS,IV24179491,N,Y,33.875444,-117.3289254
MLS Listing,,Single Family Residential,19250 El Gallo St,Riverside,CA,92508,753798,4,3.0,252 - Riverside,2218,4685,2024,19,340,196,Active,,,https://www.redfin.com/CA/Riverside/19250-El-Gallo-St-92508/home/191922034,CRMLS,IV24179477,N,Y,33.876191,-117.3269761
MLS Listing,,Single Family Residential,9657 Corcovado Way,Riverside,CA,92508,698990,3,2.5,252 - Riverside,2218,4296,2024,19,315,196,Active,,,https://www.redfin.com/CA/Riverside/9657-Corcovado-Way-92508/home/191922019,CRMLS,IV24179437,N,Y,33.8753074,-117.3289266
MLS Listing,,Single Family Residential,8794 Redcliff Pl,Riverside,CA,92508,778000,4,2.5,252 - Riverside,2834,6970,2002,19,275,132,Active,,,https://www.redfin.com/CA/Riverside/8794-Redcliff-Pl-92508/home/6395201,CRMLS,IV24179324,N,Y,33.8910712,-117.3222483
MLS Listing,,Single Family Residential,8041 Townsend Dr,Jurupa Valley,CA,92509,658888,3,2.5,251 - Jurupa Valley,1688,6098,1985,19,390,,Active,,,https://www.redfin.com/CA/Jurupa-Valley/8041-Townsend-Dr-92509/home/4842816,CRMLS,CV24179211,N,Y,33.9740788,-117.4585299
MLS Listing,,Single Family Residential,5005 Alta Mira Way,Riverside,CA,92505,800000,3,3.0,252 - Riverside,2915,13068,1989,19,274,,Active,,,https://www.redfin.com/CA/Riverside/5005-Alta-Mira-Way-92505/home/4775902,CRMLS,IV24177566,N,Y,33.9156307,-117.5051174
MLS Listing,,Mobile/Manufactured Home,905 La Cadena #12,Riverside,CA,92501,35000,2,1.0,Aloha Mobile Home Park,650,,1980,19,54,,Active,,,https://www.redfin.com/CA/Riverside/905-W-La-Cadena-Dr-92501/unit-12/home/192104370,CRMLS,EV24169011,N,Y,34.0062263,-117.3496881
MLS Listing,,Vacant Land,640 Pinnacle Ridge Rd,Riverside,CA,92506,470000,,,252 - Riverside,,33106,,20,,197,Active,,,https://www.redfin.com/CA/Riverside/640-Pinnacle-Ridge-Rd-92506/home/18983734,CRMLS,CV24178933,N,Y,33.92001,-117.358448
MLS Listing,,Single Family Residential,1825 Enterprise Ave,Riverside,CA,92507,674900,3,2.0,252 - Riverside,1505,8276,2024,20,448,,Active,,,https://www.redfin.com/CA/Riverside/1825-Enterprise-Ave-92507/home/192275732,CRMLS,IV24178367,N,Y,33.9711711,-117.3511537
MLS Listing,,Single Family Residential,2337 Elsinore Rd,Riverside,CA,92506,829000,4,2.5,252 - Riverside,1932,11761,1959,20,429,,Active,,,https://www.redfin.com/CA/Riverside/2337-Elsinore-Rd-92506/home/4961536,CRMLS,IV24179095,N,Y,33.9575907,-117.3626429
MLS Listing,,Vacant Land,5680 34th St,Jurupa Valley,CA,92509,2750000,,,251 - Jurupa Valley,,104980,,20,,,Active,,,https://www.redfin.com/CA/Jurupa-Valley/5680-34th-St-92509/home/52413099,CRMLS,IG24176521,N,Y,34.0016618,-117.4060076
MLS Listing,,Single Family Residential,18333 Lakepointe Dr,Riverside,CA,92503,1650000,5,4.5,252 - Riverside,5411,16117,2006,20,305,158,Active,,,https://www.redfin.com/CA/Riverside/18333-Lakepointe-Dr-92503/home/8163310,CRMLS,PW24178975,N,Y,33.8707585,-117.4695341
MLS Listing,,Vacant Land,8804 Jurupa Rd,Jurupa Valley,CA,92509,2800000,,,251 - Jurupa Valley,,94532,,20,,,Active,,,https://www.redfin.com/CA/Jurupa-Valley/8804-Jurupa-Rd-92509/home/22727284,CRMLS,EV24178896,N,Y,33.998767,-117.476227
MLS Listing,,Single Family Residential,5595 Via Escalante,Jurupa Valley,CA,92509,749900,4,3.0,251 - Jurupa Valley,2037,20909,1998,20,368,,Active,,,https://www.redfin.com/CA/Jurupa-Valley/5595-Via-Escalante-92509/home/4894272,CRMLS,CV24157180,N,Y,33.9865449,-117.4395756
MLS Listing,,Single Family Residential,1760 Century Ave,Riverside,CA,92506,749000,3,3.0,252 - Riverside,2219,9148,1987,20,338,,Active,,,https://www.redfin.com/CA/Riverside/1760-Century-Ave-92506/home/5024526,CRMLS,IV24175769,N,Y,33.9364049,-117.3503865
MLS Listing,,Single Family Residential,5716 Newton St,Riverside,CA,92509,619900,4,2.0,251 - Jurupa Valley,1453,7841,1957,20,427,,Active,,,https://www.redfin.com/CA/Jurupa-Valley/5716-Newton-St-92509/home/4868983,CRMLS,CV24175647,N,Y,34.0094933,-117.3995812
MLS Listing,,Single Family Residential,19805 Lurin Ave,Riverside,CA,92508,623990,3,2.0,252 - Riverside,1548,5320,2024,20,403,228,Active,,,https://www.redfin.com/CA/Riverside/19805-Lurin-Ave-92508/home/191845676,CRMLS,IV24178439,N,Y,33.8763676,-117.3169459
MLS Listing,,Single Family Residential,19617 Crestmont Pl,Riverside,CA,92508,950000,5,2.5,252 - Riverside,3381,10454,2001,20,281,,Active,,,https://www.redfin.com/CA/Riverside/19617-Crestmont-Pl-92508/home/22747669,CRMLS,DW24176680,N,Y,33.9040764,-117.3211323
MLS Listing,,Mobile/Manufactured Home,15181 Van Buren Blvd #98,Riverside,CA,92504,220000,2,2.0,Rancho Caballero,1512,,1972,21,146,,Active,,,https://www.redfin.com/CA/Riverside/15181-Van-Buren-Blvd-92504/unit-98/home/179777813,CRMLS,IV24178289,N,Y,33.8788062,-117.3963331
MLS Listing,,Single Family Residential,2953 Floral Ave,Riverside,CA,92507,645000,3,2.0,252 - Riverside,1387,9148,1959,21,465,,Active,,,https://www.redfin.com/CA/Riverside/2953-Floral-Ave-92507/home/5055470,CRMLS,OC24178299,N,Y,33.9860336,-117.3111857
MLS Listing,,Single Family Residential,12998 Arroyo Seco Ct,Riverside,CA,92503,998990,5,4.0,252 - Riverside,3520,8210,2023,21,284,277,Active,,,https://www.redfin.com/CA/Riverside/12998-Arroyo-Seca-Ct-92503/home/191085930,CRMLS,IV24177923,N,Y,33.8628823,-117.4347445
MLS Listing,,Single Family Residential,12752 Big Valley Ct,Riverside,CA,92503,796990,3,2.0,252 - Riverside,2070,6974,2023,21,385,277,Active,,,https://www.redfin.com/CA/Riverside/12752-Big-Valley-Dr-92503/home/191761681,CRMLS,IV24177910,N,Y,33.8612022,-117.4359408
MLS Listing,,Single Family Residential,855 Huston Dr,Riverside,CA,92507,725000,6,3.0,252 - Riverside,2653,9148,1963,21,273,,Active,,,https://www.redfin.com/CA/Riverside/855-Huston-Dr-92507/home/5055263,CRMLS,IV24177750,N,Y,33.9906334,-117.3292822
MLS Listing,,Mobile/Manufactured Home,4000 Pierce St #95,Riverside,CA,92505,135000,3,2.0,The Meadows,1440,,1973,21,94,,Active,,,https://www.redfin.com/CA/Riverside/4000-Pierce-St-92505/unit-95/home/6413531,CRMLS,IG24177635,N,Y,33.8994231,-117.497454
MLS Listing,,Single Family Residential,1664 Coteau Dr,Riverside,CA,92504,1800000,3,2.5,252 - Riverside,4192,192970,1957,22,429,,Active,,,https://www.redfin.com/CA/Riverside/1664-Coteau-Dr-92504/home/5025702,CRMLS,NP24138884,N,Y,33.8929421,-117.3994209
MLS Listing,,Condo/Co-op,6979 Palm Ct Unit 240M,Riverside,CA,92506,317000,2,1.0,252 - Riverside,1000,1742,1959,22,317,400,Active,,,https://www.redfin.com/CA/Riverside/6979-Palm-Ct-92506/unit-240M/home/4978556,CRMLS,EV24177262,N,Y,33.9468468,-117.4022952
MLS Listing,,Mobile/Manufactured Home,3700 Buchanan #146,Riverside,CA,92503,125000,2,2.0,Mission Village,,,1970,22,,,Active,,,https://www.redfin.com/CA/Riverside/3700-Buchanan-St-92503/unit-146/home/179672888,CRMLS,IV24163598,N,Y,33.8874838,-117.4999339
MLS Listing,,Single Family Residential,9434 54th St,Jurupa Valley,CA,92509,619000,2,1.0,Riverside,1296,57064,1949,22,478,,Active,September-22-2024 12:00 PM,September-22-2024 03:00 PM,https://www.redfin.com/CA/Jurupa-Valley/9434-54th-St-92509/home/4838348,TheMLS,24-431883,N,Y,33.9895497,-117.4925128
MLS Listing,,Single Family Residential,2442 Old Windmill Ct,Riverside,CA,92503,1200000,5,3.5,252 - Riverside,4092,20473,2005,22,293,,Active,,,https://www.redfin.com/CA/Riverside/2442-Old-Windmill-Ct-92503/home/8164930,CRMLS,IV24176886,N,Y,33.8836665,-117.463541
MLS Listing,,Single Family Residential,3555 Manor Dr,Jurupa Valley,CA,92509,589888,3,2.0,251 - Jurupa Valley,1488,6970,2003,23,396,,Active,,,https://www.redfin.com/CA/Jurupa-Valley/3555-Manor-Dr-92509/home/4865579,CRMLS,MB24172652,N,Y,34.0111316,-117.4290197
MLS Listing,,Single Family Residential,5260 Melbourne Pl,Riverside,CA,92508,595000,3,2.0,252 - Riverside,1344,4792,1997,23,443,120,Active,,,https://www.redfin.com/CA/Riverside/5260-Melbourne-Pl-92508/home/6400661,CRMLS,SR24176327,N,Y,33.91107,-117.3198265
MLS Listing,,Vacant Land,6401 Peralta Pl,Riverside,CA,92509,1080000,,,699 - Not Defined,,368518,,23,,,Active,,,https://www.redfin.com/CA/Jurupa-Valley/6401-Peralta-Pl-92509/home/22154551,CRMLS,PW24176275,N,Y,33.979747,-117.434222
MLS Listing,,Single Family Residential,16478 Sun Summit Dr,Riverside,CA,92503,849000,4,3.0,252 - Riverside,2626,11326,1996,24,323,109,Active,,,https://www.redfin.com/CA/Riverside/16478-Sun-Summit-Dr-92503/home/4772980,CRMLS,IV24176119,N,Y,33.8804185,-117.4827768
MLS Listing,,Single Family Residential,482 Peachwood Pl,Riverside,CA,92506,690000,4,3.0,252 - Riverside,1867,14375,1988,24,370,,Active,,,https://www.redfin.com/CA/Riverside/482-Peachwood-Pl-92506/home/5103736,CRMLS,EV24175941,N,Y,33.9245448,-117.323696
MLS Listing,,Vacant Land,0 Sunrise Mesa Dr,Riverside,CA,92504,349000,,,252 - Riverside,,44866,,24,,,Active,,,https://www.redfin.com/CA/Riverside/Alta-Mesa-Dr-92507/home/160472311,CRMLS,IV24175889,N,Y,33.874175,-117.394589
MLS Listing,,Single Family Residential,8225 Bent Tree Ln,Jurupa Valley,CA,92509,750000,4,3.0,251 - Jurupa Valley,2332,9583,1981,24,322,,Active,,,https://www.redfin.com/CA/Jurupa-Valley/8225-Bent-Tree-Ln-92509/home/4848433,CRMLS,CV24162541,N,Y,33.983022,-117.4628409
MLS Listing,,Single Family Residential,3895 New Haven Dr,Riverside,CA,92505,699900,4,2.0,252 - Riverside,1595,7405,1978,25,439,,Active,,,https://www.redfin.com/CA/Riverside/3895-New-Haven-Dr-92505/home/4781366,CRMLS,SW24175569,N,Y,33.9038575,-117.4803136
MLS Listing,,Single Family Residential,4110 Mount Vernon Ave,Riverside,CA,92507,720000,3,2.0,252 - Riverside,1808,7841,1960,25,398,,Active,,,https://www.redfin.com/CA/Riverside/4110-Mt-Vernon-Ave-92507/home/5056459,CRMLS,OC24165099,N,Y,33.9724655,-117.3134501
MLS Listing,,Single Family Residential,6824 Capistrano Way,Riverside,CA,92504,649900,3,2.0,252 - Riverside,1566,7840,1948,25,415,,Active,,,https://www.redfin.com/CA/Riverside/6824-Capistrano-Way-92504/home/4977095,CRMLS,IV24170907,N,Y,33.9492312,-117.4150682
MLS Listing,,Single Family Residential,17800 Woodlake Dr,Riverside,CA,92508,959000,4,2.0,252 - Riverside,2389,101930,1978,25,401,,Active,,,https://www.redfin.com/CA/Riverside/17800-Woodlake-Dr-92508/home/5025935,CRMLS,OC24175194,N,Y,33.8974708,-117.3523216
MLS Listing,,Single Family Residential,2183 Falcon Crest Dr,Riverside,CA,92506,600000,3,2.5,252 - Riverside,1732,6098,1984,25,346,433,Active,,,https://www.redfin.com/CA/Riverside/2183-Falcon-Crest-Dr-92506/home/5022651,CRMLS,PW24136717,N,Y,33.9463408,-117.3564007
MLS Listing,,Multi-Family (2-4 Unit),2127 10th St,Riverside,CA,92507,899888,8,5.0,252 - Riverside,2600,6534,1945,25,346,,Active,,,https://www.redfin.com/CA/Riverside/2127-10th-St-92507/home/4955974,CRMLS,IV24175399,N,Y,33.9739139,-117.3576238
MLS Listing,,Single Family Residential,5527 Coonen Dr,Riverside,CA,92503,619900,4,2.5,252 - Riverside,1784,6970,1956,25,347,,Active,,,https://www.redfin.com/CA/Riverside/5527-Coonen-Dr-92503/home/4795470,CRMLS,SW24170930,N,Y,33.93709,-117.471032
MLS Listing,,Single Family Residential,7358 Sage Tree Ct,Riverside,CA,92507,740000,4,3.0,252 - Riverside,2236,7405,2017,25,331,70,Active,,,https://www.redfin.com/CA/Riverside/7358-Sage-Tree-Ct-92507/home/143976633,CRMLS,SW24175713,N,Y,34.0122378,-117.3259692
MLS Listing,,Single Family Residential,5684 Eveningside Ln,Jurupa Valley,CA,92509,715000,3,2.5,251 - Jurupa Valley,2176,7841,1981,25,329,,Active,,,https://www.redfin.com/CA/Jurupa-Valley/5684-Eveningside-Ln-92509/home/4848374,CRMLS,CV24170533,N,Y,33.9852022,-117.4619743
MLS Listing,,Single Family Residential,3780 Stoddard Ave,Riverside,CA,92501,514999,2,1.0,252 - Riverside,800,8712,1954,26,644,,Active,,,https://www.redfin.com/CA/Riverside/3780-Stoddard-Ave-92501/home/4927940,CRMLS,IG24170734,N,Y,33.9979392,-117.3666282
MLS Listing,,Vacant Land,6932 Lucia St,Riverside,CA,92508,700000,,,252 - Riverside,,600257,,26,,,Active,,,https://www.redfin.com/CA/Riverside/6932-Lucia-Cir-92506/home/22455288,CRMLS,IV24169948,N,Y,33.928196,-117.360057
MLS Listing,,Single Family Residential,1785 Julia Way,Riverside,CA,92501,675000,5,3.0,252 - Riverside,2700,3485,2007,26,250,156,Active,,,https://www.redfin.com/CA/Riverside/1785-Julia-Way-92501/home/12274772,CRMLS,IV24173238,N,Y,34.0059775,-117.3777083
MLS Listing,,Single Family Residential,14011 Meadowlands Dr,Riverside,CA,92503,850000,5,3.0,252 - Riverside,3364,11000,1991,26,253,,Active,,,https://www.redfin.com/CA/Riverside/14011-Meadowlands-Dr-92503/home/5101653,CRMLS,IV24173553,N,Y,33.877735,-117.4181201
MLS Listing,,Multi-Family (5+ Unit),4641-4645 arlington Ave,Riverside,CA,92504,11000000,,2640.0,252 - Riverside,33884,67860,1967,26,325,,Active,,,https://www.redfin.com/CA/Riverside/4641-Arlington-Ave-92504/home/4978254,CRMLS,SB24174317,N,Y,33.9467298,-117.4039905
MLS Listing,,Single Family Residential,18696 Lurin Ave,Riverside,CA,92508,849000,3,2.5,252 - Riverside,2617,10454,2006,26,324,33,Active,,,https://www.redfin.com/CA/Riverside/18696-Lurin-Ave-92508/home/12271096,CRMLS,OC24159499,N,Y,33.8765858,-117.3364939
MLS Listing,,Single Family Residential,8938 60th St,Jurupa Valley,CA,92509,759900,3,2.0,251 - Jurupa Valley,1894,23522,1955,27,401,,Active,,,https://www.redfin.com/CA/Jurupa-Valley/8938-60th-St-92509/home/4844315,CRMLS,CV24173975,N,Y,33.9788753,-117.4784564
MLS Listing,,Single Family Residential,6227 Sandoval Ave,Jurupa Valley,CA,92509,699900,4,2.0,251 - Jurupa Valley,1916,10019,1976,27,365,,Active,,,https://www.redfin.com/CA/Jurupa-Valley/6227-Sandoval-Ave-92509/home/6309853,CRMLS,PW24173954,N,Y,33.9755263,-117.4366193
MLS Listing,,Single Family Residential,5068 Lawndale Ave,Riverside,CA,92504,430000,3,2.0,252 - Riverside,1155,2614,1973,27,372,311,Active,,,https://www.redfin.com/CA/Riverside/5068-Lawndale-Ave-92504/home/4976501,CRMLS,IG24155292,N,Y,33.9567215,-117.4135072
MLS Listing,,Single Family Residential,10495 Cypress Ave,Riverside,CA,92505,689000,4,2.0,252 - Riverside,1524,11326,1955,27,452,,Active,,,https://www.redfin.com/CA/Riverside/10495-Cypress-Ave-92505/home/4803576,CRMLS,TR24148772,N,Y,33.9413724,-117.4833525
MLS Listing,,Single Family Residential,2767 Attenborough Dr,Riverside,CA,92503,750000,4,3.0,252 - Riverside,1826,6534,1978,27,411,,Active,,,https://www.redfin.com/CA/Riverside/2767-Attenborough-Dr-92503/home/4762383,CRMLS,IV24171606,N,Y,33.8901976,-117.4619753
MLS Listing,,Single Family Residential,20858 Bakal Dr,Riverside,CA,92508,785000,4,2.5,252 - Riverside,2621,6970,2000,27,300,,Active,,,https://www.redfin.com/CA/Riverside/20858-Bakal-Dr-92508/home/6281774,CRMLS,IV24171793,N,Y,33.8980541,-117.2940804
MLS Listing,,Single Family Residential,10140 Jamaica Cir,Riverside,CA,92503,559000,3,1.0,252 - Riverside,1128,4792,1971,27,496,27,Active,September-21-2024 01:00 PM,September-21-2024 03:00 PM,https://www.redfin.com/CA/Riverside/10140-Jamaica-Cir-92503/home/4816706,CRMLS,CV24173548,N,Y,33.9527471,-117.47545
MLS Listing,,Single Family Residential,16125 Cresta Verde Dr,Riverside,CA,92504,1440000,4,3.5,699 - Not Defined,3685,36590,2021,27,391,260,Active,,,https://www.redfin.com/CA/Riverside/16125-Cresta-Verde-Dr-92504/home/22895742,CRMLS,TR24173122,N,Y,33.8801482,-117.3823928
MLS Listing,,Single Family Residential,5922 Abernathy Dr,Riverside,CA,92507,674288,4,3.0,252 - Riverside,1985,4792,1998,28,340,,Active,,,https://www.redfin.com/CA/Riverside/5922-Abernathy-Dr-92507/home/5070472,CRMLS,IG24172665,N,Y,33.9446162,-117.3076443
MLS Listing,,Mobile/Manufactured Home,12149 Indiana Ave #95,Riverside,CA,92503,99000,2,1.5,Palm Terrace Mobile Village,1000,3000,1975,28,99,,Active,,,https://www.redfin.com/CA/Riverside/12149-Indiana-Ave-92503/unit-95/home/192159591,CRMLS,PW24172736,N,Y,33.8883807,-117.4936066
MLS Listing,,Single Family Residential,20025 Lemonscent Dr,Riverside,CA,92507,739990,3,2.5,252 - Riverside,2061,5142,2024,28,359,122,Active,,,https://www.redfin.com/CA/Riverside/20025-Lemonscent-Dr-92507/home/187432727,CRMLS,IV24172735,N,Y,34.0103962,-117.3131048
MLS Listing,,Single Family Residential,20023 Lemonscent Dr,Riverside,CA,92507,799990,5,3.5,252 - Riverside,2383,5555,2024,28,336,122,Active,,,https://www.redfin.com/CA/Riverside/20023-Lemonscent-Dr-92507/home/187432728,CRMLS,IV24172743,N,Y,34.0105257,-117.3131608
MLS Listing,,Single Family Residential,15740 Streamview Ct,Riverside,CA,92504,1050000,4,3.0,252 - Riverside,2698,43560,1989,28,389,,Active,,,https://www.redfin.com/CA/Riverside/15740-Streamview-Ct-92504/home/5108588,CRMLS,PI24148849,N,Y,33.8756067,-117.3881841
MLS Listing,,Single Family Residential,10057 Hedrick Ave,Riverside,CA,92503,625000,3,2.0,252 - Riverside,1204,6970,1957,28,519,,Active,,,https://www.redfin.com/CA/Riverside/10057-Hedrick-Ave-92503/home/4794538,CRMLS,IG24171328,N,Y,33.9338756,-117.4716761
MLS Listing,,Vacant Land,10650 Magnolia Ave,Riverside,CA,92505,998000,,,252 - Riverside,,38768,,28,,,Active,,,https://www.redfin.com/CA/Riverside/10650-Magnolia-Ave-92505/home/192158551,CRMLS,IV24172366,N,Y,33.907618,-117.467836
MLS Listing,,Single Family Residential,4085 Garvey Way,Riverside,CA,92501,640000,6,3.0,252 - Riverside,2697,3485,2007,28,237,230,Active,,,https://www.redfin.com/CA/Riverside/4085-Garvey-Way-92501/home/12496450,CRMLS,CV24172186,N,Y,34.0044563,-117.3680531
MLS Listing,,Single Family Residential,4140 Manchester Pl,Riverside,CA,92503,629900,4,2.0,252 - Riverside,1550,8276,1956,28,406,,Active,,,https://www.redfin.com/CA/Riverside/4140-Manchester-Pl-92503/home/4918892,CRMLS,CV24172194,N,Y,33.9317595,-117.4399821
MLS Listing,,Single Family Residential,3588 Cheryl Way,Riverside,CA,92506,589900,2,2.0,252 - Riverside,1699,6534,1951,29,347,,Active,,,https://www.redfin.com/CA/Riverside/3588-Cheryl-Way-92506/home/4972996,CRMLS,SW24167260,N,Y,33.951111,-117.391815
MLS Listing,,Condo/Co-op,6103 Avenue Juan Diaz,Jurupa Valley,CA,92509,269900,3,2.0,251 - Jurupa Valley,1362,75881520,1973,29,198,330,Active,,,https://www.redfin.com/CA/Jurupa-Valley/6103-Avenue-Juan-Diaz-92509/home/6256172,CRMLS,DW24171582,N,Y,33.9776052,-117.439147
MLS Listing,,Single Family Residential,3951 Stotts St,Riverside,CA,92503,545000,3,2.0,252 - Riverside,1277,7405,1948,29,427,,Active,,,https://www.redfin.com/CA/Riverside/3951-Stotts-St-92503/home/4913775,CRMLS,EV24171726,N,Y,33.9253771,-117.4436372
MLS Listing,,Single Family Residential,6757 Sunnyvale Dr,Riverside,CA,92505,725000,4,3.0,252 - Riverside,1846,19602,1988,29,393,,Active,,,https://www.redfin.com/CA/Riverside/6757-Sunnyvale-Dr-92505/home/4814097,CRMLS,CV24171644,N,Y,33.9509684,-117.4993273
MLS Listing,,Condo/Co-op,3535 Banbury Dr #14,Riverside,CA,92505,312800,1,1.0,252 - Riverside,685,697,1984,29,457,348,Active,,,https://www.redfin.com/CA/Riverside/3535-Banbury-Dr-92505/unit-14/home/6666739,CRMLS,WS24165107,N,Y,33.905697,-117.461578
MLS Listing,,Single Family Residential,6635 Avenida Michaelinda,Jurupa Valley,CA,92509,685000,3,2.0,251 - Jurupa Valley,1702,8276,1990,29,402,,Active,,,https://www.redfin.com/CA/Jurupa-Valley/6635-Avenida-Michaelinda-92509/home/4884423,CRMLS,IG24171330,N,Y,33.9923972,-117.4330604
MLS Listing,,Single Family Residential,3053 Cimarron Rd,Riverside,CA,92506,620000,3,2.0,252 - Riverside,1186,7840,1953,29,523,,Active,,,https://www.redfin.com/CA/Riverside/3053-Cimarron-Rd-92506/home/4967457,CRMLS,IV24160763,N,Y,33.94755,-117.3781014
MLS Listing,,Single Family Residential,3232 Arta Pl,Riverside,CA,92501,699000,7,3.0,252 - Riverside,2177,7405,2018,29,321,113,Active,,,https://www.redfin.com/CA/Riverside/3232-Arta-Pl-92501/home/143976598,CRMLS,AR24170122,N,Y,34.0074081,-117.3495878
MLS Listing,,Single Family Residential,13015 New Haven Loop,Riverside,CA,92503,590000,3,2.5,252 - Riverside,1571,1045,2007,30,376,166,Active,,,https://www.redfin.com/CA/Riverside/13015-New-Haven-Loop-92503/home/17326810,CRMLS,PW24170558,N,Y,33.8823276,-117.5113715
MLS Listing,,Mobile/Manufactured Home,4080 Pedley Rd #234,Jurupa Valley,CA,92509,165000,2,2.0,Bravo Estates,1344,,1988,30,123,,Active,,,https://www.redfin.com/CA/Jurupa-Valley/4080-Pedley-Rd-92509/unit-234/home/3250229,CRMLS,CV24166015,N,Y,34.0148804,-117.4737572
MLS Listing,,Single Family Residential,4528 Champagne Ct,Riverside,CA,92505,599000,3,2.5,252 - Riverside,1403,4792,1991,30,427,120,Active,,,https://www.redfin.com/CA/Riverside/4528-Champagne-Ct-92505/home/4783786,CRMLS,IG24157803,N,Y,33.9228752,-117.4716042
MLS Listing,,Vacant Land,5248 Bell Ave,Jurupa Valley,CA,92509,199000,,,251 - Jurupa Valley,,5663,,31,,,Active,,,https://www.redfin.com/CA/Riverside/5248-Bell-Ave-92509/home/192057352,CRMLS,CV24167582,N,Y,34.010248,-117.3837797
MLS Listing,,Single Family Residential,17790 Twin Lakes Dr,Riverside,CA,92508,999000,4,2.5,252 - Riverside,2645,108900,1977,31,378,,Active,,,https://www.redfin.com/CA/Riverside/17790-Twin-Lakes-Dr-92508/home/5025928,CRMLS,IV24164248,N,Y,33.8957144,-117.3522596
MLS Listing,,Single Family Residential,10294 Surge Ln,Riverside,CA,92522,623475,4,2.5,252 - Riverside,1894,1890,2024,31,329,248,Active,,,https://www.redfin.com/CA/Riverside/10294-Surge-Ln-92503/home/187418047,CRMLS,OC24170797,N,Y,33.959013,-117.480456
MLS Listing,,Single Family Residential,4618 Tomlinson Ave,Riverside,CA,92503,615000,3,1.0,252 - Riverside,950,17860,1957,31,647,,Active,,,https://www.redfin.com/CA/Riverside/4618-Tomlinson-Ave-92503/home/4797290,CRMLS,CV24163032,N,Y,33.9259559,-117.4698807
MLS Listing,,Single Family Residential,7128 Hawarden Dr,Riverside,CA,92506,2250000,6,6.0,252 - Riverside,6015,35284,1991,32,374,,Active,,,https://www.redfin.com/CA/Riverside/7128-Hawarden-Dr-92506/home/5019617,CRMLS,IV24169580,N,Y,33.9209956,-117.3800347
MLS Listing,,Single Family Residential,10760 Starlight Ct,Riverside,CA,92505,615000,3,2.0,252 - Riverside,1428,7405,1963,32,431,,Active,,,https://www.redfin.com/CA/Riverside/10760-Starlight-Ct-92505/home/4786681,CRMLS,IG24160532,N,Y,33.9096376,-117.4724144
MLS Listing,,Single Family Residential,7159 Jurupa Rd,Jurupa Valley,CA,92509,949900,3,3.0,251 - Jurupa Valley,1450,31799,1947,32,655,,Active,,,https://www.redfin.com/CA/Jurupa-Valley/7159-Jurupa-Rd-92509/home/4885054,CRMLS,IG24169827,N,Y,34.0086672,-117.4408714
MLS Listing,,Single Family Residential,19233 El Gallo,Riverside,CA,92508,735990,4,3.0,252 - Riverside,2218,4750,2024,32,332,196,Active,,,https://www.redfin.com/CA/Riverside/19233-El-Gallo-St-92508/home/191922046,CRMLS,IV24170217,N,Y,33.8757652,-117.3271996
MLS Listing,,Single Family Residential,19240 El Gallo,Riverside,CA,92508,675990,3,2.0,252 - Riverside,1618,4653,2024,32,418,196,Active,,,https://www.redfin.com/CA/Riverside/19240-El-Gallo-St-92508/home/191922033,CRMLS,IV24170208,N,Y,33.8761879,-117.3271398
MLS Listing,,Single Family Residential,2091 Lyon Ave,Riverside,CA,92503,955000,4,2.5,252 - Riverside,2325,25700,1991,32,411,,Active,,,https://www.redfin.com/CA/Riverside/2091-Lyon-Ave-92503/home/4760084,CRMLS,OC24170029,N,Y,33.8795861,-117.4608692
MLS Listing,,Single Family Residential,3008 Winifred St,Riverside,CA,92503,694900,5,3.0,252 - Riverside,1945,6534,1960,32,357,,Active,,,https://www.redfin.com/CA/Riverside/3008-Winifred-St-92503/home/183925192,CRMLS,SW24167101,N,Y,33.9042311,-117.4468776
MLS Listing,,Single Family Residential,5935 Simon Ct,Riverside,CA,92504,738000,4,3.0,252 - Riverside,1989,14375,2004,32,371,,Active,,,https://www.redfin.com/CA/Riverside/5935-Simon-Ct-92504/home/6483902,CRMLS,PW24169846,N,Y,33.9584607,-117.432611
MLS Listing,,Condo/Co-op,20040 Red Rock Ave,Riverside,CA,92507,549000,3,2.5,252 - Riverside,1503,,2019,32,365,192,Active,,,https://www.redfin.com/CA/Riverside/20040-Red-Rock-Ave-92507/home/173395012,CRMLS,OC24168873,N,Y,34.0068098,-117.3128214
MLS Listing,,Single Family Residential,596 Hacienda Dr,Riverside,CA,92507,998900,4,2.5,252 - Riverside,3323,16553,2007,32,301,105,Active,,,https://www.redfin.com/CA/Riverside/596-Hacienda-Dr-92507/home/17331348,CRMLS,IV24169392,N,Y,33.9617649,-117.3249073
MLS Listing,,Single Family Residential,3725 Rubidoux Blvd,Jurupa Valley,CA,92509,499900,4,1.0,251 - Jurupa Valley,1400,7405,1960,32,357,,Active,,,https://www.redfin.com/CA/Jurupa-Valley/3725-Rubidoux-Blvd-92509/home/4871910,CRMLS,DW24167233,N,Y,33.9980813,-117.4068262
MLS Listing,,Mobile/Manufactured Home,3700 Buchanan St #89,Riverside,CA,92503,154900,2,2.0,Mission V,1440,,1972,32,108,,Active,,,https://www.redfin.com/CA/Riverside/3700-Buchanan-St-92503/unit-89/home/22134348,CRMLS,IV24166180,N,Y,33.8874838,-117.4999339
MLS Listing,,Single Family Residential,1893 Taormina Ct,Riverside,CA,92507,588000,3,2.5,252 - Riverside,1657,3920,2007,32,355,195,Active,,,https://www.redfin.com/CA/Riverside/1893-Taormina-Ct-92507/home/12270998,CRMLS,WS24166952,N,Y,33.9965481,-117.3503503
MLS Listing,,Multi-Family (2-4 Unit),4152 Locust St,Riverside,CA,92501,825000,3,3.0,252 - Riverside,2103,7405,1924,33,392,,Active,,,https://www.redfin.com/CA/Riverside/4152-Locust-St-92501/home/4941715,CRMLS,IG24094567,N,Y,33.9811097,-117.382455
MLS Listing,,Multi-Family (2-4 Unit),4829 Hedrick Ave,Riverside,CA,92505,729000,5,3.0,252 - Riverside,2089,8276,1953,33,349,,Active,,,https://www.redfin.com/CA/Riverside/4829-Hedrick-Ave-92505/home/4795924,CRMLS,CV24165506,N,Y,33.923606,-117.48046
MLS Listing,,Single Family Residential,4601 Challen Ave,Riverside,CA,92503,434900,3,2.0,252 - Riverside,1010,5663,1987,33,431,,Active,,,https://www.redfin.com/CA/Riverside/4601-Challen-Ave-92503/home/4788866,CRMLS,OC24169255,N,Y,33.9283687,-117.4581131
MLS Listing,,Single Family Residential,17935 Livermore Valley Dr,Riverside,CA,92503,842990,4,2.5,252 - Riverside,2792,5490,2023,33,302,277,Active,,,https://www.redfin.com/CA/Riverside/17935-Livermore-Valley-Dr-92503/home/191922305,CRMLS,IV24169035,N,Y,33.8596023,-117.4329088
MLS Listing,,Single Family Residential,1621 Ransom Rd,Riverside,CA,92506,999000,5,2.5,252 - Riverside,3229,16988,1971,33,309,,Active,,,https://www.redfin.com/CA/Riverside/1621-Ransom-Rd-92506/home/5048326,CRMLS,CV24168701,N,Y,33.9468026,-117.3462832
MLS Listing,,Single Family Residential,17872 Edna Valley Dr,Riverside,CA,92503,819990,4,2.5,252 - Riverside,2792,5420,2023,33,294,277,Active,,,https://www.redfin.com/CA/Riverside/17872-Edna-Valley-Dr-92503/home/191535303,CRMLS,IV24168979,N,Y,33.8604954,-117.4340103
MLS Listing,,Single Family Residential,9314 61st St,Jurupa Valley,CA,92509,800000,4,2.0,251 - Jurupa Valley,1692,21344,1978,33,473,28,Active,,,https://www.redfin.com/CA/Jurupa-Valley/9314-61st-St-92509/home/4839441,CRMLS,CV24168860,N,Y,33.9771054,-117.4887226
MLS Listing,,Single Family Residential,9235 Stephanie St,Riverside,CA,92508,715000,4,3.0,252 - Riverside,1905,6970,1989,33,375,,Active,,,https://www.redfin.com/CA/Riverside/9235-Stephanie-St-92508/home/5091547,CRMLS,IV24159163,N,Y,33.8830939,-117.3271025
MLS Listing,,Single Family Residential,10907 Playa Del Sol,Riverside,CA,92503,850000,6,4.0,252 - Riverside,3773,8276,2013,33,225,236,Active,,,https://www.redfin.com/CA/Riverside/10907-Playa-del-Sol-92503/home/22473798,CRMLS,CV24163965,N,Y,33.8969796,-117.4663522
MLS Listing,,Multi-Family (2-4 Unit),3432 Trinity Ct,Riverside,CA,92506,1025000,12,12.0,252 - Riverside,2074,43560,1930,34,494,,Active,,,https://www.redfin.com/CA/Riverside/3432-Trinity-Ct-92506/home/4971281,CRMLS,SB24164312,N,Y,33.9574302,-117.3846432
MLS Listing,,Vacant Land,0 Tyrolite St,Riverside,CA,92503,200000,,,252 - Riverside,,16117,,34,,,Active,,,https://www.redfin.com/CA/Jurupa-Valley/Tyrolite-St-92509/home/40025338,CRMLS,CV24168354,N,Y,33.997151,-117.457751
MLS Listing,,Single Family Residential,4426 University Ave,Riverside,CA,92501,589000,3,2.0,252 - Riverside,1156,7841,1924,34,510,,Active,,,https://www.redfin.com/CA/Riverside/4426-University-Ave-92501/home/4941051,CRMLS,IV24168539,N,Y,33.9856598,-117.3832871
MLS Listing,,Condo/Co-op,865 Daffodil Dr,Riverside,CA,92507,509990,3,3.0,252 - Riverside,1688,,1973,34,302,425,Active,,,https://www.redfin.com/CA/Riverside/865-Daffodil-Dr-92507/home/5043732,CRMLS,OC24168528,N,Y,33.9559129,-117.3281269
MLS Listing,,Mobile/Manufactured Home,3663 Buchanan St #118,Riverside,CA,92503,199000,2,2.0,Village Riverside,1440,,1979,34,138,,Active,,,https://www.redfin.com/CA/Riverside/3663-Buchanan-St-92503/unit-118/home/6330801,CRMLS,IG24168142,N,Y,33.8896199,-117.4946417
MLS Listing,,Single Family Residential,2342 Boulder Bluffs Ct,Riverside,CA,92506,1350000,3,2.5,252 - Riverside,3510,26572,1986,34,385,,Active,,,https://www.redfin.com/CA/Riverside/2342-Boulder-Bluffs-Ct-92506/home/5024385,CRMLS,DW24167663,N,Y,33.939554,-117.3616527
MLS Listing,,Single Family Residential,8739 Windmill Pl,Riverside,CA,92508,1069000,5,3.5,252 - Riverside,4142,13068,2001,34,258,65,Active,,,https://www.redfin.com/CA/Riverside/8739-Windmill-Pl-92508/home/6393813,CRMLS,CV24167967,N,Y,33.8912389,-117.3307376
MLS Listing,,Single Family Residential,6668 Navel Ct,Riverside,CA,92506,585000,3,1.0,252 - Riverside,1140,6098,1942,34,513,,Active,,,https://www.redfin.com/CA/Riverside/6668-Navel-Ct-92506/home/4971793,CRMLS,IV24155907,N,Y,33.952512,-117.3996674
MLS Listing,,Vacant Land,0 42nd,Jurupa Valley,CA,92509,1199000,,,251 - Jurupa Valley,,152895,,34,,,Active,,,https://www.redfin.com/CA/Jurupa-Valley/42nd-St-92509/home/50698446,CRMLS,IV24166971,N,Y,33.998597,-117.419088
MLS Listing,,Single Family Residential,17251 Greentree Dr,Riverside,CA,92503,859900,3,2.5,252 - Riverside,3003,10019,2003,35,286,173,Active,,,https://www.redfin.com/CA/Riverside/17251-Greentree-Dr-92503/home/6444897,CRMLS,IV24167735,N,Y,33.8700741,-117.4505867
MLS Listing,,Mobile/Manufactured Home,3700 Buchanan St #21,Riverside,CA,92503,157000,2,2.0,Mission Village,1152,,1976,35,136,,Active,,,https://www.redfin.com/CA/Riverside/3700-Buchanan-St-92503/unit-21/home/3223880,CRMLS,PW24167762,N,Y,33.888606,-117.4987859
MLS Listing,,Single Family Residential,5571 Central Ave,Riverside,CA,92504,549000,2,1.0,252 - Riverside,744,7405,1953,35,738,,Active,,,https://www.redfin.com/CA/Riverside/5571-Central-Ave-92504/home/4904953,CRMLS,OC24165938,N,Y,33.9535556,-117.424624
MLS Listing,,Single Family Residential,3510 ELIZABETH St,Riverside,CA,92506,675000,3,2.5,252 - Riverside,1310,6098,2020,35,515,,Active,,,https://www.redfin.com/CA/Riverside/3510-Elizabeth-St-92506/home/4970049,CRMLS,IV24166741,N,Y,33.9579044,-117.3882526
MLS Listing,,Single Family Residential,4345 Conning St,Jurupa Valley,CA,92509,469900,3,1.0,251 - Jurupa Valley,1040,9148,1962,35,452,,Active,,,https://www.redfin.com/CA/Jurupa-Valley/4345-Conning-St-92509/home/4857495,CRMLS,FR24166165,N,Y,34.0133706,-117.5064837
MLS Listing,,Single Family Residential,4303 Falconer Dr,Riverside,CA,92505,899900,5,3.0,252 - Riverside,2842,13939,2015,35,317,70,Active,,,https://www.redfin.com/CA/Riverside/4303-Falconer-Dr-92505/home/112786158,CRMLS,OC24158074,N,Y,33.9024566,-117.505828
MLS Listing,,Single Family Residential,3003 Central Ave,Riverside,CA,92506,1499000,3,2.0,252 - Riverside,1864,89734,1939,35,804,,Active,,,https://www.redfin.com/CA/Riverside/3003-Central-Ave-92506/home/4965485,CRMLS,CV24167031,N,Y,33.9548376,-117.3763165
MLS Listing,,Condo/Co-op,5858 Maybrook Cir,Riverside,CA,92506,658800,3,2.0,252 - Riverside,1736,6774,1976,35,379,285,Active,,,https://www.redfin.com/CA/Riverside/5858-Maybrook-Cir-92506/home/5009382,CRMLS,IV24163196,N,Y,33.9462367,-117.3709321
MLS Listing,,Single Family Residential,20251 Canaan Cir,Riverside,CA,92507,729000,4,3.0,252 - Riverside,2221,7841,2018,35,328,67,Active,,,https://www.redfin.com/CA/Riverside/20251-Canaan-Cir-92507/home/167234914,CRMLS,AR24094274,N,Y,34.0159559,-117.3090773
MLS Listing,,Single Family Residential,5543 Rio Rancho Way,Riverside,CA,92504,823000,4,3.0,252 - Riverside,2279,18295,1957,36,361,,Active,,,https://www.redfin.com/CA/Riverside/5543-Rio-Rancho-Way-92504/home/4899332,CRMLS,CV24152326,N,Y,33.963554,-117.424708
MLS Listing,,Multi-Family (2-4 Unit),2374 5th St,Riverside,CA,92507,735000,8,,252 - Riverside,2215,7405,1928,36,332,,Active,,,https://www.redfin.com/CA/Riverside/2374-5th-St-92507/home/4933948,CRMLS,SR24166751,N,Y,33.9795969,-117.3605633
MLS Listing,,Single Family Residential,12867 Mendocino Ridge Dr,Riverside,CA,92503,949990,4,3.0,252 - Riverside,2550,7669,2023,37,373,277,Active,,,https://www.redfin.com/CA/Riverside/12867-Mendocino-Ridge-Dr-92503/home/191886128,CRMLS,IV24165992,N,Y,33.8621572,-117.4362043
MLS Listing,,Mobile/Manufactured Home,15181 Van Buren Blvd #100,Riverside,CA,92504,299500,3,2.0,Rancho Caballero,1573,,2017,37,190,,Active,September-22-2024 10:00 AM,September-22-2024 01:00 PM,https://www.redfin.com/CA/Riverside/15181-Van-Buren-Blvd-92504/unit-100/home/186241030,CRMLS,IV24165994,N,Y,33.8788062,-117.3963331
MLS Listing,,Single Family Residential,8198 Helena Ave,Riverside,CA,92504,629888,3,2.0,Riverside,1849,8712,1956,37,341,,Active,,,https://www.redfin.com/CA/Riverside/8198-Helena-Ave-92504/home/4995725,TheMLS,24-419301,N,Y,33.9314782,-117.4199806
MLS Listing,,Vacant Land,0 Arlington Ave,Norco,CA,92860,6775500,,,250 - Norco,,1967605,,37,,,Active,,,https://www.redfin.com/CA/Norco/0-Arlington-AVE-92860/home/192022819,CRMLS,SW24165534,N,Y,33.958943,-117.506684
MLS Listing,,Single Family Residential,3596 Meadowview Dr,Riverside,CA,92503,675000,4,2.0,252 - Riverside,1488,6970,1965,38,454,,Active,,,https://www.redfin.com/CA/Riverside/3596-Meadowview-Dr-92503/home/4750593,CRMLS,DW24165700,N,Y,33.8848299,-117.5011485
MLS Listing,,Single Family Residential,10295 Surge Ln,Riverside,CA,92522,619660,4,2.5,252 - Riverside,1975,2180,2024,38,314,248,Active,,,https://www.redfin.com/CA/Riverside/10295-Surge-Ln-92503/home/187418049,CRMLS,OC24165468,N,Y,33.959188,-117.480537
MLS Listing,,Single Family Residential,20884 Westbury Rd,Riverside,CA,92508,849999,4,2.5,252 - Riverside,2621,8276,2000,38,324,,Active,,,https://www.redfin.com/CA/Riverside/20884-Westbury-Rd-92508/home/6258574,CRMLS,IV24155466,N,Y,33.8988953,-117.2933257
MLS Listing,,Single Family Residential,11727 Hazeldell Dr,Riverside,CA,92505,565000,2,2.0,252 - Riverside,1210,6534,1931,38,467,,Active,,,https://www.redfin.com/CA/Riverside/11727-Hazeldell-Dr-92505/home/4776258,CRMLS,IV24161863,N,Y,33.9140589,-117.5033187
MLS Listing,,Single Family Residential,5720 Avenue Juan Bautista,Jurupa Valley,CA,92509,849900,4,3.0,251 - Jurupa Valley,2248,26136,1969,39,378,,Active,,,https://www.redfin.com/CA/Jurupa-Valley/5720-Avenue-Juan-Bautista-92509/home/4896122,CRMLS,DW24165302,N,Y,33.983157,-117.433527
MLS Listing,,Vacant Land,18396 RICHARD M. NIXON,Riverside,CA,92508,449970,,,252 - Riverside,,158994,,39,,,Active,,,https://www.redfin.com/CA/Riverside/18396-Richard-M-Nixon-Ct-92508/home/22726336,CRMLS,CV24165304,N,Y,33.903132,-117.341476
MLS Listing,,Multi-Family (2-4 Unit),5111 La Sierra Ave,Riverside,CA,92505,1288888,6,3.0,252 - Riverside,3655,42253,1948,39,353,,Active,,,https://www.redfin.com/CA/Riverside/5111-La-Sierra-Ave-92505/home/4792467,CRMLS,TR24165230,N,Y,33.9236,-117.4911384
MLS Listing,,Single Family Residential,3240 Pachappa Hl,Riverside,CA,92506,1300000,4,2.5,252 - Riverside,2134,32234,1933,39,609,,Active,,,https://www.redfin.com/CA/Riverside/3240-Pachappa-Hl-92506/home/4955659,CRMLS,IV24163349,N,Y,33.9601478,-117.3815332
MLS Listing,,Single Family Residential,4980 Arborwood Ln,Riverside,CA,92504,639900,3,2.5,252 - Riverside,2320,2614,2015,39,276,202,Active,,,https://www.redfin.com/CA/Riverside/4980-Arborwood-Ln-92504/home/22795360,CRMLS,IV24163786,N,Y,33.9586527,-117.4121518
MLS Listing,,Single Family Residential,2100 Hathaway Pl,Riverside,CA,92506,2875000,4,4.5,252 - Riverside,6200,44431,1971,39,464,,Active,,,https://www.redfin.com/CA/Riverside/2100-Hathaway-Pl-92506/home/5019134,CRMLS,IV24159988,N,Y,33.9234716,-117.375802
MLS Listing,,Single Family Residential,14017 Carmen Pl,Riverside,CA,92503,1290000,5,4.5,252 - Riverside,4677,30928,2021,39,276,139,Active,,,https://www.redfin.com/CA/Riverside/14017-Carmen-Pl-92503/home/170631637,CRMLS,AR24164445,N,Y,33.8655199,-117.417425
MLS Listing,,Single Family Residential,5300 Lochmoor Dr,Riverside,CA,92507,1749900,4,3.5,252 - Riverside,3597,91040,2002,40,486,,Active,,,https://www.redfin.com/CA/Riverside/5300-Lochmoor-Dr-92507/home/5043746,CRMLS,IV24161768,N,Y,33.954438,-117.3152876
MLS Listing,,Single Family Residential,5436 Sierra Vista Ave,Riverside,CA,92505,829000,6,2.5,252 - Riverside,2763,9583,1963,40,300,,Active,,,https://www.redfin.com/CA/Riverside/5436-Sierra-Vista-Ave-92505/home/4764273,CRMLS,IV24091592,N,Y,33.9267611,-117.5060933
MLS Listing,,Condo/Co-op,3082 Panorama Rd Unit C,Riverside,CA,92506,359999,2,2.0,252 - Riverside,1023,,1963,40,352,408,Active,,,https://www.redfin.com/CA/Riverside/3082-Panorama-Rd-92506/unit-C/home/4955695,CRMLS,SW24160424,N,Y,33.9623129,-117.3783603
