SALE TYPE,SOLD DATE,PROPERTY TYPE,ADDRESS,CITY,STATE OR PROVINCE,ZIP OR POSTAL CODE,PRICE,BEDS,BATHS,LOCATION,SQUARE FEET,LOT SIZE,YEAR BUILT,DAYS ON MARKET,$/SQUARE FEET,HOA/MONTH,STATUS,NEXT OPEN HOUSE START TIME,NEXT OPEN HOUSE END TIME,URL (SEE https://www.redfin.com/buy-a-home/comparative-market-analysis FOR INFO ON PRICING),SOURCE,MLS#,FAVORITE,INTERESTED,LATITUDE,LONGITUDE
MLS Listing,,Multi-Family (2-4 Unit),173 Clayton Ave,San Jose,CA,95110,1799000,6,3.5,SAN JOSE,2525,4554,1910,5,712,,Active,,,https://www.redfin.com/CA/San-Jose/173-Clayton-Ave-95110/home/1763105,MLSListings,ML81980215,N,Y,37.3429876,-121.8996065
MLS Listing,,Single Family Residential,508 Century Oaks Way,San Jose,CA,95111,1248000,3,2.0,SAN JOSE,1400,5663,1976,6,891,,Active,,,https://www.redfin.com/CA/San-Jose/508-Century-Oaks-Way-95111/home/1689132,MLSListings,ML81980184,N,Y,37.2609363,-121.796306
MLS Listing,,Single Family Residential,514 N 21st St,San Jose,CA,95112,1189000,3,2.0,CENTRAL SAN JOSE,1484,6250,1916,9,801,,Active,,,https://www.redfin.com/CA/San-Jose/514-N-21st-St-95112/home/1468982,"bridgeMLS, Bay East AOR, or Contra Costa AOR",41072257,N,Y,37.3547523,-121.8771592
MLS Listing,,Condo/Co-op,400 N 1st St #309,San Jose,CA,95112,648880,1,1.5,SAN JOSE,1292,,2000,13,502,631,Active,,,https://www.redfin.com/CA/San-Jose/400-N-1st-St-95112/unit-309/home/1572804,MLSListings,ML81979141,N,Y,37.3424046,-121.8944657
MLS Listing,,Single Family Residential,1396 Boysea Dr,San Jose,CA,95118,1498000,4,2.5,SAN JOSE,1698,5663,1962,14,882,,Active,,,https://www.redfin.com/CA/San-Jose/1396-Boysea-Dr-95118/home/1675775,MLSListings,ML81978937,N,Y,37.2602471,-121.8893014
MLS Listing,,Condo/Co-op,30 E Julian St #309,San Jose,CA,95112,760000,2,2.0,DOWNTOWN,1271,1271,2000,15,598,728,Active,September-21-2024 01:00 PM,September-21-2024 04:00 PM,https://www.redfin.com/CA/San-Jose/30-E-Julian-St-95112/unit-309/home/1086202,"bridgeMLS, Bay East AOR, or Contra Costa AOR",41071744,N,Y,37.3405784,-121.8933925
MLS Listing,,Condo/Co-op,7110 Rainbow Dr #17,San Jose,CA,95129,749880,2,1.5,SAN JOSE,1050,,1964,20,714,675,Active,,,https://www.redfin.com/CA/San-Jose/7110-Rainbow-Dr-95129/unit-17/home/830099,MLSListings,ML81978372,N,Y,37.2999008,-122.0286397
MLS Listing,,Condo/Co-op,93 Bettencourt Way,Milpitas,CA,95035,999888,3,2.5,Not Listed,1450,435,2010,33,690,438,Active,,,https://www.redfin.com/CA/Milpitas/93-Bettencourt-Way-95035/home/167193452,"bridgeMLS, Bay East AOR, or Contra Costa AOR",41070086,N,Y,37.4051847,-121.902212
MLS Listing,,Single Family Residential,5828 Antigua Ct,San Jose,CA,95120,1999888,4,2.5,SAN JOSE,2108,8276,1970,44,949,,Active,,,https://www.redfin.com/CA/San-Jose/5828-Antigua-Ct-95120/home/1609535,MLSListings,ML81975297,N,Y,37.2414042,-121.8771407
MLS Listing,,Single Family Residential,1054 Micro Ct,San Jose,CA,95120,2699000,5,3.0,San Jose,3067,9583,1993,55,880,,Active,September-21-2024 01:00 PM,September-21-2024 04:00 PM,https://www.redfin.com/CA/San-Jose/1054-Micro-Ct-95120/home/1004342,MLSListings,ML81974523,N,Y,37.2003763,-121.8329986
MLS Listing,,Single Family Residential,1282 Oakglen Way,San Jose,CA,95120,2288888,5,3.0,SAN JOSE,2533,7841,1976,90,904,,Active,,,https://www.redfin.com/CA/San-Jose/1282-Oakglen-Way-95120/home/1039479,MLSListings,ML81964255,N,Y,37.232005,-121.882675
MLS Listing,,Condo/Co-op,4691 Albany Cir #133,San Jose,CA,95129,868000,2,2.0,SAN JOSE,1350,,1982,103,643,630,Active,,,https://www.redfin.com/CA/San-Jose/4691-Albany-Cir-95129/unit-133/home/1695752,MLSListings,ML81968907,N,Y,37.322487,-121.98636
Redfin Data,,Single Family Residential,397 Arleta Ave,San Jose,CA,95128,1149999,2,1.0,San Jose,872,3920,1920,8,1319,,Pre On-Market,,,https://www.redfin.com/CA/San-Jose/397-Arleta-Ave-95128/home/1075589,Coming Soon,101617,N,Y,37.3217903,-121.9295397
Redfin Data,,Single Family Residential,10131 Kenilworth Way,San Jose,CA,95127,860000,2,1.0,San Jose,840,4792,1953,56,1024,,Pre On-Market,,,https://www.redfin.com/CA/San-Jose/10131-Kenilworth-Way-95127/home/1186531,Coming Soon,100534,N,Y,37.3563532,-121.8220251
MLS Listing,,Single Family Residential,4797 Lago Vista Cir,San Jose,CA,95129,1728000,3,2.5,SAN JOSE,1496,3000,1981,1,1155,138,Active,September-21-2024 01:00 PM,September-21-2024 04:30 PM,https://www.redfin.com/CA/San-Jose/4797-Lago-Vista-Cir-95129/home/899621,MLSListings,ML81980714,N,Y,37.3200186,-121.9879421
MLS Listing,,Single Family Residential,2344 Orlando Dr,San Jose,CA,95122,860000,3,2.0,SAN JOSE,1383,5663,1965,1,622,,Active,,,https://www.redfin.com/CA/San-Jose/2344-Orlando-Dr-95122/home/895104,MLSListings,ML81980707,N,Y,37.3240655,-121.8260079
MLS Listing,,Single Family Residential,360 Allegan Cir,San Jose,CA,95123,1199000,3,1.0,SAN JOSE,1326,5227,1969,1,904,,Active,September-20-2024 03:00 PM,September-20-2024 06:00 PM,https://www.redfin.com/CA/San-Jose/360-Allegan-Cir-95123/home/1749570,MLSListings,ML81980244,N,Y,37.2343904,-121.8159264
MLS Listing,,Townhouse,2141 Pomme Ct,San Jose,CA,95125,1103000,3,3.0,Not Listed,1731,850,2005,1,637,325,Active,,,https://www.redfin.com/CA/San-Jose/2141-Pomme-Ct-95125/home/167457343,"bridgeMLS, Bay East AOR, or Contra Costa AOR",41073465,N,Y,37.296069,-121.86971
MLS Listing,,Single Family Residential,1830 S King Rd,San Jose,CA,95122,1199000,5,4.0,NORTHWOOD,2145,5150,1965,1,559,,Active,,,https://www.redfin.com/CA/San-Jose/1830-S-King-Rd-95122/home/894348,"bridgeMLS, Bay East AOR, or Contra Costa AOR",41073457,N,Y,37.3307101,-121.833749
MLS Listing,,Mobile/Manufactured Home,"510 Saddle Brook Dr, SPC 20 Dr #20",San Jose,CA,95136,370000,4,2.0,SAN JOSE,1440,,1999,1,257,,Active,September-21-2024 12:00 PM,September-21-2024 02:30 PM,https://www.redfin.com/CA/San-Jose/510-Saddlebrook-Dr-95136/unit-20/home/1219310,MLSListings,ML81980688,N,Y,37.2629202,-121.8165643
MLS Listing,,Condo/Co-op,1589 Four Oaks Cir,San Jose,CA,95131,499000,1,1.0,SAN JOSE,676,,1986,1,738,463,Active,,,https://www.redfin.com/CA/San-Jose/1589-Four-Oaks-Cir-95131/home/690299,MLSListings,ML81980687,N,Y,37.3911567,-121.8718935
MLS Listing,,Condo/Co-op,3120 Moncontour Ct,San Jose,CA,95135,1278000,3,2.5,EVERGREEN,1456,1925,2000,1,878,260,Active,September-21-2024 01:00 PM,September-21-2024 04:30 PM,https://www.redfin.com/CA/San-Jose/3120-Moncontour-Ct-95135/home/1107585,"bridgeMLS, Bay East AOR, or Contra Costa AOR",41073446,N,Y,37.3161529,-121.7743117
MLS Listing,,Single Family Residential,1538 Altamont Ave,San Jose,CA,95125,1799888,3,3.0,SAN JOSE,1628,6272,1963,1,1106,,Active,September-21-2024 02:00 PM,September-21-2024 04:00 PM,https://www.redfin.com/CA/San-Jose/1538-Altamont-Ave-95125/home/651750,MLSListings,ML81979860,N,Y,37.2729928,-121.8993502
MLS Listing,,Single Family Residential,4911 Tuscany Cir,San Jose,CA,95135,2788000,4,3.0,San Jose,2905,6970,1999,1,960,,Active,,,https://www.redfin.com/CA/San-Jose/4911-Tuscany-Cir-95135/home/959124,MLSListings,ML81980679,N,Y,37.3051157,-121.7563826
MLS Listing,,Single Family Residential,1582 Sawgrass,San Jose,CA,95116,1195000,4,2.5,SAN JOSE,1786,2614,1998,1,669,124,Active,September-21-2024 01:00 PM,September-21-2024 04:00 PM,https://www.redfin.com/CA/San-Jose/1582-Sawgrass-Dr-95116/home/1717688,MLSListings,ML81980676,N,Y,37.344728,-121.8525201
MLS Listing,,Single Family Residential,6548 Hercus Ct,San Jose,CA,95119,1599000,4,2.0,SAN JOSE,1791,6534,1974,1,893,,Active,,,https://www.redfin.com/CA/San-Jose/6548-Hercus-Ct-95119/home/1587415,MLSListings,ML81980667,N,Y,37.2279446,-121.794758
MLS Listing,,Single Family Residential,256 Wildhorse Ct,San Jose,CA,95138,1525000,3,2.5,Santa Teresa,1843,3049,2006,1,827,,Active,,,https://www.redfin.com/CA/San-Jose/256-Wildhorse-Ct-95138/home/12178322,MetroList,224104041,N,Y,37.2377343,-121.7592524
MLS Listing,,Single Family Residential,956 Coyote Rd,San Jose,CA,95111,1099000,3,2.0,SAN JOSE,1298,6098,1973,1,847,,Active,,,https://www.redfin.com/CA/San-Jose/956-Coyote-Rd-95111/home/1491645,MLSListings,ML81980655,N,Y,37.2636935,-121.7955504
MLS Listing,,Townhouse,1217 Sierra Village Way,San Jose,CA,95132,889000,3,2.5,SAN JOSE,1556,,1981,1,571,425,Active,September-21-2024 01:30 PM,September-21-2024 04:30 PM,https://www.redfin.com/CA/San-Jose/1217-Sierra-Village-Way-95132/home/939392,MLSListings,ML81980650,N,Y,37.3933623,-121.8585499
MLS Listing,,Single Family Residential,1538 Lincoln Ave,San Jose,CA,95125,3388888,4,3.5,SAN JOSE,2972,6970,1925,1,1140,,Active,,,https://www.redfin.com/CA/San-Jose/1538-Lincoln-Ave-95125/home/1384552,MLSListings,ML81980647,N,Y,37.3018923,-121.8949709
MLS Listing,,Single Family Residential,2190 Cherry Ave,San Jose,CA,95125,3598000,5,4.0,SAN JOSE,3600,10890,1965,1,999,,Active,September-19-2024 10:30 AM,September-19-2024 12:00 PM,https://www.redfin.com/CA/San-Jose/2190-Cherry-Ave-95125/home/1108047,MLSListings,ML81966405,N,Y,37.2872332,-121.8982303
MLS Listing,,Single Family Residential,1141 Empey Way,San Jose,CA,95128,1549000,3,2.0,SAN JOSE,1197,8607,1939,1,1294,,Active,September-21-2024 01:00 PM,September-21-2024 04:00 PM,https://www.redfin.com/CA/San-Jose/1141-Empey-Way-95128/home/724493,MLSListings,ML81980638,N,Y,37.305532,-121.9381062
MLS Listing,,Single Family Residential,3085 Senter Rd,San Jose,CA,95111,799999,4,2.0,SAN JOSE,1241,5663,1960,1,645,,Active,September-21-2024 01:00 PM,September-21-2024 04:00 PM,https://www.redfin.com/CA/San-Jose/3085-Senter-Rd-95111/home/1362542,MLSListings,ML81980637,N,Y,37.2944864,-121.8347957
MLS Listing,,Condo/Co-op,333 Santana #224,San Jose,CA,95128,1795000,2,2.5,SAN JOSE,1708,435,2002,1,1051,966,Active,September-19-2024 05:00 PM,September-19-2024 07:00 PM,https://www.redfin.com/CA/San-Jose/333-Santana-Row-95128/unit-224/home/17293168,MLSListings,ML81980623,N,Y,37.3219255,-121.948418
MLS Listing,,Condo/Co-op,1184 Tea Rose Cir,San Jose,CA,95131,838000,2,2.0,San Jose,1006,2299,1993,1,833,337,Active,September-21-2024 01:30 PM,September-21-2024 04:30 PM,https://www.redfin.com/CA/San-Jose/1184-Tea-Rose-Cir-95131/home/689624,MLSListings,ML81977145,N,Y,37.3872965,-121.8948782
MLS Listing,,Condo/Co-op,736 Teatree,San Jose,CA,95128,475000,1,1.0,SAN JOSE,658,,1988,1,722,525,Active,September-21-2024 01:00 PM,September-21-2024 04:00 PM,https://www.redfin.com/CA/San-Jose/736-Teatree-Ct-95128/home/12180182,MLSListings,ML81977702,N,Y,37.314402,-121.939067
MLS Listing,,Single Family Residential,5740 Waltrip Ln,San Jose,CA,95118,1799000,5,3.0,SAN JOSE,1775,5663,1962,1,1014,,Active,September-21-2024 01:00 PM,September-21-2024 04:00 PM,https://www.redfin.com/CA/San-Jose/5740-Waltrip-Ln-95118/home/629006,MLSListings,ML81980611,N,Y,37.2404374,-121.8862739
MLS Listing,,Townhouse,1575 Delante Ter,San Jose,CA,95118,898000,2,2.5,SAN JOSE,1013,,2006,1,886,385,Active,September-21-2024 01:30 PM,September-21-2024 04:30 PM,https://www.redfin.com/CA/San-Jose/1575-Delante-Ter-95118/home/12178514,MLSListings,ML81979540,N,Y,37.2526627,-121.901058
MLS Listing,,Single Family Residential,561 Leland Ave,San Jose,CA,95128,1242000,3,2.5,SAN JOSE,1210,5227,1939,1,1026,,Active,September-20-2024 04:00 PM,September-20-2024 06:00 PM,https://www.redfin.com/CA/San-Jose/561-Leland-Ave-95128/home/1399644,MLSListings,ML81980596,N,Y,37.3176951,-121.9270692
MLS Listing,,Single Family Residential,1539 Darlene Ave,San Jose,CA,95125,1895000,3,2.0,SAN JOSE,1745,6098,1951,1,1086,,Active,September-21-2024 01:00 PM,September-21-2024 04:00 PM,https://www.redfin.com/CA/San-Jose/1539-Darlene-Ave-95125/home/1357821,MLSListings,ML81980595,N,Y,37.2825179,-121.8983269
MLS Listing,,Single Family Residential,2753 Buttonwood Ct,San Jose,CA,95148,1788888,4,2.0,SAN JOSE,2036,8250,1979,1,879,,Active,,,https://www.redfin.com/CA/San-Jose/2753-Buttonwood-Ct-95148/home/1678884,MLSListings,ML81979676,N,Y,37.3361424,-121.7828954
MLS Listing,,Single Family Residential,173 Hawthorne Way,San Jose,CA,95110,999888,2,1.0,SAN JOSE,1212,4792,1918,2,825,,Active,,,https://www.redfin.com/CA/San-Jose/173-Hawthorne-Way-95110/home/1724134,MLSListings,ML81965704,N,Y,37.343664,-121.9001443
MLS Listing,,Vacant Land,3679 Madrid Ct,San Jose,CA,95132,650000,,,SAN JOSE,,11761,,2,,,Active,,,https://www.redfin.com/CA/San-Jose/3679-Madrid-Ct-95132/home/23469756,MLSListings,ML81980569,N,Y,37.421515,-121.858764
MLS Listing,,Vacant Land,3678 Madrid Ct,San Jose,CA,95132,750000,,,SAN JOSE,,19602,,2,,,Active,,,https://www.redfin.com/CA/San-Jose/3678-Madrid-Ct-95132/home/23469753,MLSListings,ML81980567,N,Y,37.421332,-121.858528
MLS Listing,,Condo/Co-op,247 N Capitol Ave #162,San Jose,CA,95127,485000,2,1.0,SAN JOSE,828,,1977,2,586,575,Active,September-19-2024 05:00 PM,September-19-2024 07:00 PM,https://www.redfin.com/CA/San-Jose/247-N-Capitol-Ave-95127/unit-162/home/1766854,MLSListings,ML81980561,N,Y,37.3682271,-121.8417657
MLS Listing,,Mobile/Manufactured Home,353 Millpond,San Jose,CA,95125,299000,2,2.0,Millpond Mobile Home Park,1704,,1979,2,175,8,Active,,,https://www.redfin.com/CA/San-Jose/353-Mill-Pond-Dr-95136/home/192581768,MetroList,224103569,N,Y,37.2931524,-121.8665081
MLS Listing,,Single Family Residential,2620 Lanier Ln,San Jose,CA,95121,1330888,4,2.0,SAN JOSE,1418,5663,1960,2,939,,Active,,,https://www.redfin.com/CA/San-Jose/2620-Lanier-Ln-95121/home/905448,MLSListings,ML81980546,N,Y,37.3117212,-121.8281469
MLS Listing,,Single Family Residential,1696 Walnut Grove Ave,San Jose,CA,95126,1398000,3,2.0,San Jose,1488,5663,1946,2,940,,Active,September-19-2024 04:00 PM,September-19-2024 07:00 PM,https://www.redfin.com/CA/San-Jose/1696-Walnut-Grove-Ave-95126/home/717599,MLSListings,ML81980547,N,Y,37.3365426,-121.9342233
MLS Listing,,Multi-Family (2-4 Unit),4314 Hamilton Ave,San Jose,CA,95130,1575000,5,4.0,SAN JOSE,2466,8276,1961,2,639,,Active,,,https://www.redfin.com/CA/San-Jose/4314-Hamilton-Ave-95130/home/882723,MLSListings,ML81980519,N,Y,37.2934467,-121.9781922
MLS Listing,,Condo/Co-op,125 Patterson St #320,San Jose,CA,95112,595000,1,1.0,SAN JOSE,894,,2006,2,666,524,Active,,,https://www.redfin.com/CA/San-Jose/125-Patterson-St-95112/unit-320/home/12181668,MLSListings,ML81980514,N,Y,37.3262817,-121.8794365
MLS Listing,,Condo/Co-op,2925 Florence Ave #12,San Jose,CA,95127,515000,2,1.5,SAN JOSE,874,,1964,2,589,540,Active,September-21-2024 01:00 PM,September-21-2024 04:00 PM,https://www.redfin.com/CA/San-Jose/2925-Florence-Ave-95127/unit-12/home/23047378,MLSListings,ML81980507,N,Y,37.3616354,-121.8290728
MLS Listing,,Single Family Residential,1806 Mt. Kenya Dr,San Jose,CA,95127,1299000,4,2.5,SAN JOSE,1679,5980,1964,2,774,,Active,September-21-2024 11:00 AM,September-21-2024 02:00 PM,https://www.redfin.com/CA/San-Jose/1806-Mount-Kenya-Dr-95127/home/1648669,MLSListings,ML81979666,N,Y,37.3507046,-121.7983492
MLS Listing,,Condo/Co-op,952 S 11th St #137,San Jose,CA,95112,679888,2,2.0,DOWNTOWN,1241,1500,1996,2,548,515,Active,September-21-2024 01:00 PM,September-21-2024 04:00 PM,https://www.redfin.com/CA/San-Jose/952-S-11th-St-95112/unit-137/home/1404261,"bridgeMLS, Bay East AOR, or Contra Costa AOR",41073276,N,Y,37.3271133,-121.8689805
MLS Listing,,Single Family Residential,349 Henderson Dr,San Jose,CA,95123,999950,4,2.0,SAN JOSE,1380,6000,1968,2,725,,Active,September-19-2024 04:30 PM,September-19-2024 05:30 PM,https://www.redfin.com/CA/San-Jose/349-Henderson-Dr-95123/home/1521071,MLSListings,ML81980268,N,Y,37.2386982,-121.8102221
MLS Listing,,Single Family Residential,2342 Richland Ave,San Jose,CA,95125,3300000,5,5.5,SAN JOSE,3656,9148,2012,2,903,,Active,September-20-2024 05:00 PM,September-20-2024 07:00 PM,https://www.redfin.com/CA/San-Jose/2342-Richland-Ave-95125/home/1536674,MLSListings,ML81978276,N,Y,37.2874174,-121.8894528
MLS Listing,,Townhouse,1121 Cooper River Dr,San Jose,CA,95126,699000,2,2.0,SAN JOSE,1150,,1977,2,608,716,Active,,,https://www.redfin.com/CA/San-Jose/1121-Cooper-River-Dr-95126/home/1104827,MLSListings,ML81980373,N,Y,37.3037525,-121.9199342
MLS Listing,,Single Family Residential,31 Linwell Ct,San Jose,CA,95138,1385000,4,2.0,SAN JOSE,1474,5663,1981,2,940,,Active,September-18-2024 10:00 AM,September-18-2024 01:00 PM,https://www.redfin.com/CA/San-Jose/31-Linwell-Ct-95138/home/1482732,MLSListings,ML81979965,N,Y,37.2470849,-121.7864533
MLS Listing,,Single Family Residential,907 Toyon Ave,San Jose,CA,95127,1399999,4,2.5,San Jose,1869,5570,2016,2,749,,Active,September-21-2024 01:00 PM,September-21-2024 04:00 PM,https://www.redfin.com/CA/San-Jose/907-Toyon-Ave-95127/home/113062943,MLSListings,ML81980479,N,Y,37.3910474,-121.8334923
MLS Listing,,Single Family Residential,1496 Sierra Ave,San Jose,CA,95126,1249888,2,2.0,San Jose,1316,3960,1924,2,950,,Active,September-21-2024 01:00 PM,September-21-2024 04:00 PM,https://www.redfin.com/CA/San-Jose/1496-Sierra-Ave-95126/home/970646,"bridgeMLS, Bay East AOR, or Contra Costa AOR",41073255,N,Y,37.3258524,-121.9173767
MLS Listing,,Single Family Residential,1578 Quiet Pond Ln,San Jose,CA,95138,2399000,5,4.0,SILVER CREEK,3106,6621,2004,2,772,180,Active,September-21-2024 01:00 PM,September-21-2024 04:00 PM,https://www.redfin.com/CA/San-Jose/1578-Quiet-Pond-Ln-95138/home/1086391,"bridgeMLS, Bay East AOR, or Contra Costa AOR",41073062,N,Y,37.2893159,-121.7995328
MLS Listing,,Single Family Residential,5874 Lean Way,San Jose,CA,95123,899000,3,2.5,SAN JOSE,1830,5663,1967,3,491,,Active,,,https://www.redfin.com/CA/San-Jose/5874-Lean-Way-95123/home/994610,MLSListings,ML81980455,N,Y,37.244624,-121.8171462
MLS Listing,,Mobile/Manufactured Home,1863 Quimby #1863,San Jose,CA,95122,399999,3,3.0,SAN JOSE,1500,,1980,3,267,,Active,,,https://www.redfin.com/CA/San-Jose/1863-Quimby-Rd-95122/unit-1863/home/192567039,MLSListings,ML81980448,N,Y,37.3294948,-121.8194063
MLS Listing,,Condo/Co-op,5706 Allen Ave #4,San Jose,CA,95123,507000,2,1.0,SAN JOSE,798,8052,1970,4,635,471,Active,,,https://www.redfin.com/CA/San-Jose/5706-Allen-Ave-95123/unit-4/home/1099702,MLSListings,ML81980416,N,Y,37.2477785,-121.8550199
MLS Listing,,Single Family Residential,1810 Charmeran Ave,San Jose,CA,95124,1488800,3,1.0,SAN JOSE,1091,6000,1959,4,1365,,Active,September-18-2024 04:00 PM,September-18-2024 06:00 PM,https://www.redfin.com/CA/San-Jose/1810-Charmeran-Ave-95124/home/802537,MLSListings,ML81980415,N,Y,37.2581767,-121.9180144
MLS Listing,,Condo/Co-op,247 N Capitol Ave #188,San Jose,CA,95127,445000,1,1.0,SAN JOSE,777,,1977,4,573,409,Active,,,https://www.redfin.com/CA/San-Jose/247-N-Capitol-Ave-95127/unit-188/home/886855,MLSListings,ML81979522,N,Y,37.3682271,-121.8417657
MLS Listing,,Mobile/Manufactured Home,3300 Narvaez Ave #25,San Jose,CA,95136,265000,3,2.0,Colonial Mobile Manor,1200,,1975,5,221,,Active,,,https://www.redfin.com/CA/San-Jose/3300-Narvaez-Ave-95136/unit-25/home/63742305,CRMLS,MC24191023,N,Y,37.2771707,-121.8608194
MLS Listing,,Mobile/Manufactured Home,353 Millpond #353,San Jose,CA,95125,299000,2,2.0,Millpond Mobile Home Park,1704,,1979,5,175,,Active,,,https://www.redfin.com/CA/San-Jose/353-Mill-Pond-Dr-95136/unit-353/home/113794346,CRMLS,MC24190999,N,Y,37.2931628,-121.8665124
MLS Listing,,Single Family Residential,12147 Woodside Dr,Saratoga,CA,95070,2998000,5,3.0,Saratoga,2850,10795,1959,5,1052,,Active,September-18-2024 09:30 AM,September-18-2024 12:30 PM,https://www.redfin.com/CA/Saratoga/12147-Woodside-Dr-95070/home/1684575,MLSListings,ML81980388,N,Y,37.2925567,-122.0072945
MLS Listing,,Single Family Residential,6029 Shawcroft Dr,San Jose,CA,95123,1450000,4,2.0,SAN JOSE,1495,6098,1971,5,970,,Active,,,https://www.redfin.com/CA/San-Jose/6029-Shawcroft-Dr-95123/home/1115207,MLSListings,ML81979850,N,Y,37.2383326,-121.8303692
MLS Listing,,Townhouse,236 Currlin Cir,Milpitas,CA,95035,1299000,3,3.0,MILPITAS,1622,,2014,5,801,285,Active,,,https://www.redfin.com/CA/Milpitas/236-Currlin-Cir-95035/home/95954671,MLSListings,ML81980384,N,Y,37.4044719,-121.8988605
MLS Listing,,Single Family Residential,1441 ARNOLD Ave,San Jose,CA,95110,1375000,4,2.0,SAN JOSE,1519,6098,1947,5,905,,Active,,,https://www.redfin.com/CA/San-Jose/1441-Arnold-Ave-95110/home/690304,MLSListings,ML81980367,N,Y,37.3616424,-121.9120505
MLS Listing,,Multi-Family (2-4 Unit),1001 S 9th St,San Jose,CA,95112,1050000,4,2.0,SAN JOSE,1500,12197,1950,5,700,,Active,September-21-2024 11:00 AM,September-21-2024 04:00 PM,https://www.redfin.com/CA/San-Jose/1001-S-9th-St-95112/home/876350,MLSListings,ML81980364,N,Y,37.3250255,-121.8714098
MLS Listing,,Townhouse,1514 Tosca Ct,San Jose,CA,95121,648000,2,1.5,SAN JOSE,988,760,1970,5,656,397,Active,,,https://www.redfin.com/CA/San-Jose/1514-Tosca-Ct-95121/home/1693333,MLSListings,ML81980027,N,Y,37.3149447,-121.8259574
MLS Listing,,Condo/Co-op,5455 Eagles Ln #1,San Jose,CA,95123,520000,2,1.0,SAN JOSE,810,,1970,5,642,462,Active,September-22-2024 02:00 PM,September-22-2024 04:00 PM,https://www.redfin.com/CA/San-Jose/5455-Eagles-Ln-95123/unit-1/home/994419,MLSListings,ML81979789,N,Y,37.2546094,-121.8222114
MLS Listing,,Condo/Co-op,130 E San Fernando St #316,San Jose,CA,95112,749000,2,2.0,San Jose,1622,,1998,5,462,938,Active,,,https://www.redfin.com/CA/San-Jose/130-E-San-Fernando-St-95112/unit-316/home/1037113,MLSListings,ML81980334,N,Y,37.3354201,-121.8865023
MLS Listing,,Single Family Residential,3644 Kilo Ave,San Jose,CA,95124,1599000,4,2.0,San Jose,1588,7405,1957,5,1007,,Active,,,https://www.redfin.com/CA/San-Jose/3644-Kilo-Ave-95124/home/1756608,MLSListings,ML81980263,N,Y,37.2632916,-121.9103088
MLS Listing,,Mobile/Manufactured Home,2150 Almaden Rd #63,San Jose,CA,95125,169900,2,1.0,SAN JOSE,832,,1966,5,204,,Active,,,https://www.redfin.com/CA/San-Jose/2150-Almaden-Rd-95125/unit-63/home/63741305,MLSListings,ML81980316,N,Y,37.2948324,-121.8782353
MLS Listing,,Single Family Residential,3322 Moulin Ln,San Jose,CA,95135,2688000,4,3.0,SAN JOSE,2798,7551,1997,5,961,,Active,September-21-2024 01:30 PM,September-21-2024 04:30 PM,https://www.redfin.com/CA/San-Jose/3322-Moulin-Ln-95135/home/958691,MLSListings,ML81980274,N,Y,37.3114075,-121.7750844
MLS Listing,,Single Family Residential,2947 Varden Ave,San Jose,CA,95124,2599000,4,3.0,SAN JOSE,2069,7841,1957,5,1256,,Active,,,https://www.redfin.com/CA/San-Jose/2947-Varden-Ave-95124/home/626913,MLSListings,ML81980310,N,Y,37.268216,-121.9248268
MLS Listing,,Single Family Residential,2651 Leigh Ave,San Jose,CA,95124,1610000,3,2.0,SAN JOSE,1310,5227,1955,5,1229,,Active,,,https://www.redfin.com/CA/San-Jose/2651-Leigh-Ave-95124/home/786050,MLSListings,ML81980309,N,Y,37.2738786,-121.921566
MLS Listing,,Single Family Residential,204 Santa Rosa Dr,San Jose,CA,95111,925000,3,2.0,South San Jose,1123,4792,1959,5,824,,Active,,,https://www.redfin.com/CA/San-Jose/204-Santa-Rosa-Dr-95111/home/897402,MetroList,224101469,N,Y,37.2786249,-121.8286289
MLS Listing,,Single Family Residential,1461 Inskip Dr,Campbell,CA,95008,1789999,4,2.0,699 - Not Defined,1322,6098,1962,5,1354,,Pre On-Market,,,https://www.redfin.com/CA/Campbell/1461-Inskip-Dr-95008/home/812265,CRMLS,OC24187669,N,Y,37.2755907,-121.9758375
MLS Listing,,Single Family Residential,2864 Rustic Dr,San Jose,CA,95124,1999000,3,2.0,SAN JOSE,1800,6970,1958,5,1111,,Active,September-21-2024 01:30 PM,September-21-2024 04:30 PM,https://www.redfin.com/CA/San-Jose/2864-Rustic-Dr-95124/home/1660815,MLSListings,ML81980300,N,Y,37.2690525,-121.9221828
MLS Listing,,Condo/Co-op,350 Llano De Los Robles Ave #9,San Jose,CA,95136,1000000,3,2.0,SAN JOSE,1196,871,2021,5,836,654,Active,,,https://www.redfin.com/CA/San-Jose/350-Llano-de-los-Robles-Ave-95136/unit-9/home/176539666,MLSListings,ML81978536,N,Y,37.2853707,-121.8557869
MLS Listing,,Single Family Residential,1088 Johnson Ave,San Jose,CA,95129,2888000,4,3.0,San Jose,1623,6711,1956,5,1779,,Active,,,https://www.redfin.com/CA/San-Jose/1088-Johnson-Ave-95129/home/1214574,MLSListings,ML81980298,N,Y,37.3070363,-122.003925
MLS Listing,,Single Family Residential,1701 Sweetbriar Dr,San Jose,CA,95125,2999000,5,4.5,SAN JOSE,2930,10080,1963,5,1024,,Active,,,https://www.redfin.com/CA/San-Jose/1701-Sweetbriar-Dr-95125/home/1648490,MLSListings,ML81979518,N,Y,37.2829501,-121.9090056
MLS Listing,,Single Family Residential,2409 KLEIN Rd,San Jose,CA,95148,1832623,3,2.5,SAN JOSE,2127,54885,1959,5,862,,Active,,,https://www.redfin.com/CA/San-Jose/2409-Klein-Rd-95148/home/1040085,MLSListings,ML81976395,N,Y,37.3411347,-121.7835896
MLS Listing,,Townhouse,3157 Payne Ave #22,San Jose,CA,95117,990000,2,2.5,SAN JOSE,1300,1544,1976,5,762,395,Active,,,https://www.redfin.com/CA/San-Jose/3157-Payne-Ave-95117/unit-22/home/1306504,MLSListings,ML81980288,N,Y,37.302656,-121.9515843
MLS Listing,,Multi-Family (2-4 Unit),470 S Buena Vista Ave,San Jose,CA,95126,1698000,6,4.0,SAN JOSE,2408,6098,1962,5,705,,Active,,,https://www.redfin.com/CA/San-Jose/470-S-Buena-Vista-Ave-95126/home/192541280,MLSListings,ML81980285,N,Y,37.3199077,-121.9188139
MLS Listing,,Other,4786 SAN FELIPE Rd,San Jose,CA,95135,9999999,,,SAN JOSE,,131464,,5,,,Active,,,https://www.redfin.com/CA/San-Jose/4786-San-Felipe-Rd-95135/home/975212,MLSListings,ML81980280,N,Y,37.3012117,-121.7757075
MLS Listing,,Townhouse,674 Grandview Ter,San Jose,CA,95133,955000,2,2.5,San Jose,1416,,2009,5,674,260,Active,,,https://www.redfin.com/CA/San-Jose/674-Grandview-Ter-95133/home/23049286,MLSListings,ML81966704,N,Y,37.3777261,-121.8497474
MLS Listing,,Single Family Residential,2948 Del Loma Dr,Campbell,CA,95008,1597000,3,2.5,Not Listed,1698,4400,1982,5,941,,Active,,,https://www.redfin.com/CA/Campbell/2948-Del-Loma-Dr-95008/home/815656,"bridgeMLS, Bay East AOR, or Contra Costa AOR",41073037,N,Y,37.2668978,-121.9820351
MLS Listing,,Single Family Residential,6993 Bolado Dr,San Jose,CA,95119,1245000,3,2.0,SAN JOSE,1120,6534,1971,5,1112,,Active,,,https://www.redfin.com/CA/San-Jose/6993-Bolado-Dr-95119/home/1136843,MLSListings,ML81980277,N,Y,37.2258444,-121.7797578
MLS Listing,,Townhouse,2478 Autumnvale Ave,San Jose,CA,95131,1188000,3,3.5,SAN JOSE,1771,,2008,5,671,288,Active,,,https://www.redfin.com/CA/San-Jose/2478-Autumnvale-Ave-95131/home/23045390,MLSListings,ML81980276,N,Y,37.4037359,-121.8852943
MLS Listing,,Townhouse,1419 Millich Ct,San Jose,CA,95117,998000,2,2.0,SAN JOSE,1056,1344,1972,5,945,385,Active,September-21-2024 01:30 PM,September-21-2024 05:00 PM,https://www.redfin.com/CA/San-Jose/1419-Millich-Ct-95117/home/1105462,MLSListings,ML81980022,N,Y,37.2991866,-121.9594843
MLS Listing,,Townhouse,1932 Messina Dr,San Jose,CA,95132,768000,2,1.5,SAN JOSE,968,,1972,5,793,450,Active,,,https://www.redfin.com/CA/San-Jose/1932-Messina-Dr-95132/home/1145491,MLSListings,ML81978908,N,Y,37.4111679,-121.8618966
MLS Listing,,Single Family Residential,6417 Cottle Rd,San Jose,CA,95123,1675000,4,2.5,SAN JOSE,2386,5663,1975,5,702,,Active,,,https://www.redfin.com/CA/San-Jose/6417-Cottle-Rd-95123/home/1350700,MLSListings,ML81980259,N,Y,37.2274462,-121.8046173
MLS Listing,,Single Family Residential,1438 Old Piedmont Rd,San Jose,CA,95132,1750000,3,2.0,San Jose,1561,8480,1980,5,1121,,Active,,,https://www.redfin.com/CA/San-Jose/1438-Old-Piedmont-Rd-95132/home/1388103,MLSListings,ML81980257,N,Y,37.4070663,-121.8464767
MLS Listing,,Condo/Co-op,445 Milan Dr #107,San Jose,CA,95134,1149000,2,2.5,SAN JOSE,1240,,1992,5,927,377,Active,,,https://www.redfin.com/CA/San-Jose/445-Milan-Dr-95134/unit-107/home/579387,MLSListings,ML81980254,N,Y,37.4001835,-121.9219464
MLS Listing,,Single Family Residential,638 Parkhurst Dr,Campbell,CA,95008,2495000,4,2.0,Campbell,2134,6215,1977,5,1169,,Active,,,https://www.redfin.com/CA/Campbell/638-Parkhurst-Dr-95008/home/1217240,"bridgeMLS, Bay East AOR, or Contra Costa AOR",41072654,N,Y,37.2770116,-121.9778396
MLS Listing,,Multi-Family (2-4 Unit),66 W Humboldt St,San Jose,CA,95110,799950,4,2.0,SAN JOSE,1738,3920,1920,5,460,,Active,,,https://www.redfin.com/CA/San-Jose/66-W-Humboldt-St-95110/home/902420,MLSListings,ML81980248,N,Y,37.3176455,-121.8776743
MLS Listing,,Single Family Residential,5187 Dent Ave,San Jose,CA,95118,1475000,3,2.0,San Jose,1441,5663,1961,6,1024,,Pre On-Market,September-28-2024 11:00 AM,September-28-2024 02:00 PM,https://www.redfin.com/CA/San-Jose/5187-Dent-Ave-95118/home/1017111,CRMLS,PW24190566,N,Y,37.2495982,-121.8987036
MLS Listing,,Single Family Residential,1886 Pine Hollow Cir,San Jose,CA,95133,1099888,5,2.0,SAN JOSE,1625,4792,1980,6,677,,Active,,,https://www.redfin.com/CA/San-Jose/1886-Pine-Hollow-Cir-95133/home/1724205,MLSListings,ML81980232,N,Y,37.369729,-121.8629843
MLS Listing,,Single Family Residential,364 Gardenia Dr,San Jose,CA,95123,2300000,5,3.0,SAN JOSE,2484,4100,1998,6,926,,Active,,,https://www.redfin.com/CA/San-Jose/364-Gardenia-Dr-95123/home/1156736,MLSListings,ML81980230,N,Y,37.2401716,-121.8117331
MLS Listing,,Townhouse,2549 Heron Ct,San Jose,CA,95133,998000,3,3.0,San Jose,1400,,2006,6,713,358,Active,,,https://www.redfin.com/CA/San-Jose/2549-Heron-Ct-95133/home/12181406,MLSListings,ML81980221,N,Y,37.3821988,-121.8594639
MLS Listing,,Townhouse,2691 Rosalinda Ct,San Jose,CA,95121,688888,3,1.5,SAN JOSE,1176,880,1971,6,586,397,Active,,,https://www.redfin.com/CA/San-Jose/2691-Rosalinda-Ct-95121/home/1061416,MLSListings,ML81980208,N,Y,37.3141572,-121.8241489
MLS Listing,,Single Family Residential,1272 VERNON Ave,San Jose,CA,95125,1699000,3,2.0,SAN JOSE,1498,9583,1939,6,1134,,Active,,,https://www.redfin.com/CA/San-Jose/1272-Vernon-Ave-95125/home/1286381,MLSListings,ML81980205,N,Y,37.3094248,-121.8928728
MLS Listing,,Single Family Residential,4939 Scarlett Way,San Jose,CA,95111,1198000,3,2.0,SAN JOSE,1524,6098,1980,6,786,,Active,,,https://www.redfin.com/CA/San-Jose/4939-Scarlett-Way-95111/home/1536235,MLSListings,ML81980191,N,Y,37.2744755,-121.799695
MLS Listing,,Single Family Residential,10952 Prieta Ct,San Jose,CA,95127,2350000,4,2.5,La Loma Prieta,2442,20909,1958,6,962,,Active,,,https://www.redfin.com/CA/San-Jose/10952-Prieta-Ct-95127/home/947499,MetroList,224102436,N,Y,37.3808708,-121.8139338
MLS Listing,,Single Family Residential,3592 Millicent Ct,San Jose,CA,95148,1580000,3,2.0,San Jose,1762,11200,1970,6,897,,Active,,,https://www.redfin.com/CA/San-Jose/3592-Millicent-Ct-95148/home/1639921,"bridgeMLS, Bay East AOR, or Contra Costa AOR",41072675,N,Y,37.3524405,-121.7978286
MLS Listing,,Single Family Residential,315 Grandpark Cir,San Jose,CA,95136,1619000,3,4.0,SAN JOSE,2553,5227,1968,6,634,,Active,,,https://www.redfin.com/CA/San-Jose/315-Grandpark-Cir-95136/home/1607575,MLSListings,ML81980174,N,Y,37.2691797,-121.8473624
MLS Listing,,Single Family Residential,2450 Mclaughlin Ave,San Jose,CA,95121,2999888,3,1.0,SAN JOSE,1300,33106,1935,6,2308,,Active,,,https://www.redfin.com/CA/San-Jose/2450-McLaughlin-Ave-95121/home/1743791,MLSListings,ML81980165,N,Y,37.3139228,-121.834833
MLS Listing,,Single Family Residential,764 N 18th St,San Jose,CA,95112,1198000,3,2.0,SAN JOSE,1692,5227,1949,6,708,,Active,,,https://www.redfin.com/CA/San-Jose/764-N-18th-St-95112/home/693946,MLSListings,ML81978433,N,Y,37.3587038,-121.8838688
MLS Listing,,Condo/Co-op,5951 Sunstone Dr #403,San Jose,CA,95123,989000,2,2.5,SAN JOSE,1709,,2018,6,579,701,Active,,,https://www.redfin.com/CA/San-Jose/5951-Sunstone-Dr-95123/unit-403/home/146225183,MLSListings,ML81980155,N,Y,37.2421323,-121.7984395
MLS Listing,,Single Family Residential,1066 Empey Way,San Jose,CA,95128,1369000,2,1.0,SAN JOSE,1016,7405,1939,6,1347,,Active,,,https://www.redfin.com/CA/San-Jose/1066-Empey-Way-95128/home/1603714,MLSListings,ML81980152,N,Y,37.3069176,-121.9375642
MLS Listing,,Condo/Co-op,6119 Country Club Pkwy,San Jose,CA,95138,1550000,3,2.0,San Jose,2332,,1995,6,665,719,Active,,,https://www.redfin.com/CA/San-Jose/6119-Country-Club-Pkwy-95138/home/1781922,MLSListings,ML81980150,N,Y,37.281103,-121.767999
MLS Listing,,Condo/Co-op,1311 Pebble Ct,San Jose,CA,95131,729000,2,2.0,SAN JOSE,988,,1987,6,738,470,Active,,,https://www.redfin.com/CA/San-Jose/1311-Pebble-Ct-95131/home/1473498,MLSListings,ML81980147,N,Y,37.380956,-121.8852056
MLS Listing,,Townhouse,7216 Clarendon St,San Jose,CA,95129,1525000,3,2.5,SAN JOSE,1448,,1979,6,1053,450,Active,,,https://www.redfin.com/CA/San-Jose/7216-Clarendon-St-95129/home/983789,MLSListings,ML81980145,N,Y,37.308009,-122.031187
MLS Listing,,Single Family Residential,1960 Hostetter Rd,San Jose,CA,95131,1100000,4,2.0,SAN JOSE,1234,5663,1974,6,891,,Active,,,https://www.redfin.com/CA/San-Jose/1960-Hostetter-Rd-95131/home/1211836,MLSListings,ML81980143,N,Y,37.3892887,-121.8802076
MLS Listing,,Single Family Residential,1084 Queensbridge Ct,San Jose,CA,95120,2750000,4,3.0,SAN JOSE,2755,7841,1981,6,998,,Active,,,https://www.redfin.com/CA/San-Jose/1084-Queensbridge-Ct-95120/home/934021,MLSListings,ML81979416,N,Y,37.1999518,-121.8408004
MLS Listing,,Multi-Family (2-4 Unit),1119 S 7th St,San Jose,CA,95112,1050000,4,2.0,SAN JOSE,1296,5629,1953,6,810,,Active,,,https://www.redfin.com/CA/San-Jose/1119-S-7th-St-95112/home/1568264,MLSListings,ML81980132,N,Y,37.322195,-121.87195
MLS Listing,,Single Family Residential,1638 Shortridge Ave,San Jose,CA,95116,699888,2,1.0,SAN JOSE,720,5227,1938,6,972,,Active,,,https://www.redfin.com/CA/San-Jose/1638-Shortridge-Ave-95116/home/716394,MLSListings,ML81979869,N,Y,37.3506898,-121.8570685
MLS Listing,,Single Family Residential,1742 Ewer Dr,San Jose,CA,95124,1599000,4,3.0,SAN JOSE,1802,6970,1963,6,887,,Active,,,https://www.redfin.com/CA/San-Jose/1742-Ewer-Dr-95124/home/831338,MLSListings,ML81980028,N,Y,37.2568003,-121.9123971
MLS Listing,,Single Family Residential,1234 Colleen Way,Campbell,CA,95008,1698950,4,2.0,CAMPBELL,1398,6098,1961,6,1215,,Active,,,https://www.redfin.com/CA/Campbell/1234-Colleen-Way-95008/home/1263465,MLSListings,ML81980118,N,Y,37.2880293,-121.9717677
MLS Listing,,Single Family Residential,6861 Queenswood Way,San Jose,CA,95120,2728000,5,3.0,SAN JOSE,2465,7164,1980,6,1107,,Active,,,https://www.redfin.com/CA/San-Jose/6861-Queenswood-Way-95120/home/1005917,MLSListings,ML81978782,N,Y,37.2117097,-121.8340761
MLS Listing,,Condo/Co-op,475 Milan Dr #116,San Jose,CA,95134,1488000,3,2.5,SAN JOSE,1637,,1992,6,909,410,Active,,,https://www.redfin.com/CA/San-Jose/475-Milan-Dr-95134/unit-116/home/577797,MLSListings,ML81978827,N,Y,37.3998157,-121.9222147
MLS Listing,,Townhouse,180 Terraine St,San Jose,CA,95110,1378000,3,3.5,SAN JOSE,1969,,2020,6,700,309,Active,,,https://www.redfin.com/CA/San-Jose/180-Terraine-St-95110/home/172937912,MLSListings,ML81980115,N,Y,37.338,-121.8962161
MLS Listing,,Single Family Residential,2488 Camrose Ave,San Jose,CA,95130,1998000,4,3.0,SAN JOSE,1810,6534,1959,6,1104,,Active,,,https://www.redfin.com/CA/San-Jose/2488-Camrose-Ave-95130/home/665198,MLSListings,ML81980111,N,Y,37.2771898,-121.9873566
MLS Listing,,Single Family Residential,1240 Washoe Dr,San Jose,CA,95120,2098000,3,2.0,SAN JOSE,1526,8712,1962,6,1375,,Active,,,https://www.redfin.com/CA/San-Jose/1240-Washoe-Dr-95120/home/930406,MLSListings,ML81980110,N,Y,37.2184603,-121.869152
MLS Listing,,Single Family Residential,230 Westchester Dr,Los Gatos,CA,95032,3550000,4,3.0,LOS GATOS,2134,11310,1968,6,1664,,Active,,,https://www.redfin.com/CA/Los-Gatos/230-Westchester-Dr-95032/home/637755,MLSListings,ML81978506,N,Y,37.2419711,-121.9404636
MLS Listing,,Single Family Residential,5312 Arezzo Way,San Jose,CA,95138,3510000,5,4.5,San Jose,3991,12197,1996,6,879,205,Active,,,https://www.redfin.com/CA/San-Jose/5312-Arezzo-Way-95138/home/978045,MLSListings,ML81980103,N,Y,37.2759598,-121.7768856
MLS Listing,,Single Family Residential,2585 Malaga Dr,San Jose,CA,95125,2090000,4,2.5,WILLOW GLEN,1678,6448,1961,6,1246,,Active,,,https://www.redfin.com/CA/San-Jose/2585-Malaga-Dr-95125/home/1549206,"bridgeMLS, Bay East AOR, or Contra Costa AOR",41072869,N,Y,37.2772754,-121.9077393
MLS Listing,,Single Family Residential,6543 Gravina Loop,San Jose,CA,95138,1749000,4,2.5,San Jose,2579,4792,2010,6,678,170,Active,,,https://www.redfin.com/CA/San-Jose/6543-Gravina-Loop-95138/home/28895911,MLSListings,ML81978468,N,Y,37.251137,-121.7676512
MLS Listing,,Condo/Co-op,2404 Balme Dr,San Jose,CA,95122,608000,2,2.0,SAN JOSE,912,,1984,6,667,355,Active,,,https://www.redfin.com/CA/San-Jose/2404-Balme-Dr-95122/home/1428872,MLSListings,ML81980094,N,Y,37.315263,-121.838247
MLS Listing,,Single Family Residential,15236 Dickens Ave,San Jose,CA,95124,1798000,3,2.0,SAN JOSE,1206,7841,1954,6,1491,,Active,,,https://www.redfin.com/CA/San-Jose/15236-Dickens-Ave-95124/home/837040,MLSListings,ML81980093,N,Y,37.2469219,-121.9371006
MLS Listing,,Single Family Residential,5214 Pharlap,San Jose,CA,95111,910000,3,2.0,San Jose,1080,6100,1961,6,843,,Active,,,https://www.redfin.com/CA/San-Jose/5214-Pharlap-Ave-95111/home/1600136,"bridgeMLS, Bay East AOR, or Contra Costa AOR",41072853,N,Y,37.2632315,-121.808938
MLS Listing,,Single Family Residential,1439 Lujoso Ct,San Jose,CA,95128,1928000,4,2.0,SAN JOSE,1742,6270,1976,6,1107,,Active,,,https://www.redfin.com/CA/San-Jose/1439-Lujoso-Ct-95128/home/1698997,MLSListings,ML81978299,N,Y,37.2977,-121.9379548
MLS Listing,,Townhouse,605 Avenue One Dr,San Jose,CA,95123,1350000,4,4.0,SAN JOSE,2205,,2016,6,612,409,Active,,,https://www.redfin.com/CA/San-Jose/605-Avenue-One-95123/home/95957957,MLSListings,ML81980084,N,Y,37.2443928,-121.797413
MLS Listing,,Single Family Residential,1167 Settle Ave,San Jose,CA,95125,2150000,4,2.0,SAN JOSE,1933,9583,1893,6,1112,,Active,,,https://www.redfin.com/CA/San-Jose/1167-Settle-Ave-95125/home/839416,MLSListings,ML81980080,N,Y,37.3082419,-121.8985904
MLS Listing,,Townhouse,1083 Almaden Village Ln,San Jose,CA,95120,1588800,3,2.5,Almaden Village,1681,2160,1989,6,945,425,Active,,,https://www.redfin.com/CA/San-Jose/1083-Almaden-Village-Ln-95120/home/1220206,MetroList,224097439,N,Y,37.203387,-121.839208
MLS Listing,,Single Family Residential,1569 Timber Creek Dr,San Jose,CA,95131,1575000,3,2.5,SAN JOSE,1631,3590,1986,6,966,166,Active,,,https://www.redfin.com/CA/San-Jose/1569-Timber-Creek-Dr-95131/home/1453717,MLSListings,ML81980077,N,Y,37.3920474,-121.8759401
MLS Listing,,Single Family Residential,1640 JUANITA Ave,San Jose,CA,95125,2799000,4,3.5,SAN JOSE,2680,5663,1927,6,1044,,Active,,,https://www.redfin.com/CA/San-Jose/1640-Juanita-Ave-95125/home/1179951,MLSListings,ML81979426,N,Y,37.301349,-121.8898537
MLS Listing,,Townhouse,2060 Lee Way,Milpitas,CA,95035,1199888,3,3.0,MILPITAS,1622,1005,2014,6,740,285,Active,,,https://www.redfin.com/CA/Milpitas/2060-Lee-Way-95035/home/95955260,MLSListings,ML81980057,N,Y,37.4047467,-121.8995815
MLS Listing,,Single Family Residential,6391 Lillian Way,San Jose,CA,95120,1495000,3,2.0,SAN JOSE,1104,5663,1962,6,1354,,Active,,,https://www.redfin.com/CA/San-Jose/6391-Lillian-Way-95120/home/1611567,MLSListings,ML81980055,N,Y,37.2237299,-121.8638782
MLS Listing,,Single Family Residential,5377 Leigh Ave,San Jose,CA,95124,1795000,4,2.0,Cambrian,1472,6534,1959,6,1219,,Active,,,https://www.redfin.com/CA/San-Jose/5377-Leigh-Ave-95124/home/1553093,MetroList,224101892,N,Y,37.2407409,-121.9230221
MLS Listing,,Single Family Residential,674 E Julian St,San Jose,CA,95112,1299000,3,2.0,SAN JOSE,1637,4725,1930,6,794,,Active,,,https://www.redfin.com/CA/San-Jose/674-E-Julian-St-95112/home/1120886,MLSListings,ML81980051,N,Y,37.3468439,-121.879931
MLS Listing,,Condo/Co-op,585 Valley Forge Way #1,Campbell,CA,95008,598000,2,1.0,CAMPBELL,840,,1964,6,712,440,Active,,,https://www.redfin.com/CA/Campbell/585-Valley-Forge-Way-95008/unit-1/home/113814448,MLSListings,ML81980047,N,Y,37.2976199,-121.9606184
MLS Listing,,Single Family Residential,1405 E San Fernando St,San Jose,CA,95116,1150000,3,2.0,SAN JOSE,1247,5480,1925,7,922,,Active,September-21-2024 02:00 PM,September-21-2024 04:00 PM,https://www.redfin.com/CA/San-Jose/1405-E-San-Fernando-St-95116/home/1284148,MLSListings,ML81980033,N,Y,37.3477178,-121.862131
MLS Listing,,Single Family Residential,1623 Rebel Way,San Jose,CA,95118,1799000,4,3.0,SAN JOSE,1967,4792,1996,7,915,,Active,,,https://www.redfin.com/CA/San-Jose/1623-Rebel-Way-95118/home/1756679,MLSListings,ML81980030,N,Y,37.2502363,-121.904103
MLS Listing,,Condo/Co-op,876 Del Avion Ln,San Jose,CA,95138,825000,2,2.0,SAN JOSE,1257,1257,1998,7,656,417,Active,,,https://www.redfin.com/CA/San-Jose/876-Del-Avion-Ln-95138/home/979122,MLSListings,ML81980006,N,Y,37.2441987,-121.7657209
MLS Listing,,Single Family Residential,3134 Modred Dr,San Jose,CA,95127,999999,3,2.0,SAN JOSE,1036,4792,1961,7,965,,Active,,,https://www.redfin.com/CA/San-Jose/3134-Modred-Dr-95127/home/1504098,MLSListings,ML81980004,N,Y,37.3814569,-121.8393365
MLS Listing,,Single Family Residential,2399 Story Rd,San Jose,CA,95122,950000,4,2.0,SAN JOSE,1683,4792,1959,7,564,,Active,September-21-2024 01:00 PM,September-21-2024 04:00 PM,https://www.redfin.com/CA/San-Jose/2399-Story-Rd-95122/home/1261246,MLSListings,ML81980003,N,Y,37.3481706,-121.8315072
MLS Listing,,Condo/Co-op,3179 Heather Ridge Dr,San Jose,CA,95136,619000,2,2.0,SOUTH SAN JOSE,1067,1067,1989,7,580,643,Active,,,https://www.redfin.com/CA/San-Jose/3179-Heather-Ridge-Dr-95136/home/1567650,"bridgeMLS, Bay East AOR, or Contra Costa AOR",41072794,N,Y,37.2815341,-121.8608598
MLS Listing,,Condo/Co-op,38 N Almaden Blvd #2008,San Jose,CA,95110,729000,1,1.0,SAN JOSE,791,,2008,7,922,579,Active,,,https://www.redfin.com/CA/San-Jose/38-N-Almaden-Blvd-95110/unit-2008/home/17289009,MLSListings,ML81979340,N,Y,37.3348687,-121.8957681
MLS Listing,,Single Family Residential,116 Jaybee Pl,San Jose,CA,95123,1288000,3,2.5,SAN JOSE,1652,3920,1989,7,780,,Active,,,https://www.redfin.com/CA/San-Jose/116-Jaybee-Pl-95123/home/992199,MLSListings,ML81979990,N,Y,37.2582542,-121.8195149
MLS Listing,,Townhouse,1741 Abington Ct,San Jose,CA,95131,969888,3,2.5,BERRYESSA,1538,1575,1979,7,631,459,Active,,,https://www.redfin.com/CA/San-Jose/1741-Abington-Ct-95131/home/1166188,"bridgeMLS, Bay East AOR, or Contra Costa AOR",41072788,N,Y,37.3754723,-121.8722705
MLS Listing,,Multi-Family (2-4 Unit),3169 Williamsburg Dr,San Jose,CA,95117,1625000,8,4.0,SAN JOSE,2880,8976,1962,7,564,,Active,,,https://www.redfin.com/CA/San-Jose/3169-Williamsburg-Dr-95117/home/1382535,MLSListings,ML81979979,N,Y,37.2979783,-121.9521654
MLS Listing,,Single Family Residential,840 Jackson St,San Jose,CA,95112,675000,2,1.0,SAN JOSE,990,2614,1912,7,682,,Active,,,https://www.redfin.com/CA/San-Jose/840-Jackson-St-95112/home/1356463,MLSListings,ML81979841,N,Y,37.3547943,-121.8815963
MLS Listing,,Townhouse,1094 Norfolk Dr,San Jose,CA,95129,1699000,3,2.5,SAN JOSE,1532,1920,1972,7,1109,465,Active,,,https://www.redfin.com/CA/San-Jose/1094-Norfolk-Dr-95129/home/1493988,MLSListings,ML81979970,N,Y,37.3066583,-122.0102996
MLS Listing,,Single Family Residential,6074 Paseo Pueblo Dr,San Jose,CA,95120,1850000,4,2.0,SAN JOSE,1792,7841,1968,7,1032,,Active,,,https://www.redfin.com/CA/San-Jose/6074-Paseo-Pueblo-Dr-95120/home/1497230,MLSListings,ML81978874,N,Y,37.231639,-121.8749138
MLS Listing,,Condo/Co-op,2309 Warfield Way Unit C,San Jose,CA,95122,725000,3,1.5,SAN JOSE,1165,,1979,7,622,408,Active,,,https://www.redfin.com/CA/San-Jose/2309-Warfield-Way-95122/unit-C/home/1506214,MLSListings,ML81979961,N,Y,37.3130559,-121.8419261
MLS Listing,,Single Family Residential,3302 Jenkins Ave,San Jose,CA,95118,1698800,3,2.0,SAN JOSE,1460,5663,1959,7,1164,,Active,,,https://www.redfin.com/CA/San-Jose/3302-Jenkins-Ave-95118/home/1327840,MLSListings,ML81979959,N,Y,37.2714393,-121.8875764
MLS Listing,,Single Family Residential,2660 Cardinal Ln,San Jose,CA,95125,1599000,3,2.0,SAN JOSE,1703,9148,1953,7,939,,Active,,,https://www.redfin.com/CA/San-Jose/2660-Cardinal-Ln-95125/home/1433081,MLSListings,ML81979957,N,Y,37.2767369,-121.8935919
MLS Listing,,Vacant Land,3689 San Felipe Rd,San Jose,CA,95135,2500000,,,Evergreen,,10454,,7,,,Active,,,https://www.redfin.com/CA/San-Jose/3689-San-Felipe-Rd-95135/home/192498783,BAREIS,324072416,N,Y,37.3089866,-121.7841237
MLS Listing,,Condo/Co-op,1002 La Terrace Cir,San Jose,CA,95123,638888,2,1.0,ALMADEN,904,436,1985,7,707,597,Active,,,https://www.redfin.com/CA/San-Jose/1002-La-Terrace-Cir-95123/home/1522021,"bridgeMLS, Bay East AOR, or Contra Costa AOR",41072727,N,Y,37.241152,-121.868519
MLS Listing,,Single Family Residential,1605 Newhall St,Santa Clara,CA,95050,1585000,3,2.0,SANTA CLARA,1144,6098,1948,7,1385,,Active,,,https://www.redfin.com/CA/Santa-Clara/1605-Newhall-St-95050/home/714890,MLSListings,ML81979524,N,Y,37.3392903,-121.9357214
MLS Listing,,Mobile/Manufactured Home,6130 Monterey Rd #215,San Jose,CA,95138,379900,3,2.0,SAN JOSE,1582,,2004,7,240,,Active,,,https://www.redfin.com/CA/San-Jose/6130-Monterey-Hwy-95138/unit-215/home/109031751,MLSListings,ML81979946,N,Y,37.2376429,-121.7694195
MLS Listing,,Single Family Residential,1456 Ford Ave,San Jose,CA,95110,1048000,3,2.0,SAN JOSE,1543,5227,1930,7,679,,Active,,,https://www.redfin.com/CA/San-Jose/1456-Ford-Ave-95110/home/843368,MLSListings,ML81979945,N,Y,37.3148412,-121.8735764
MLS Listing,,Condo/Co-op,2881 Meridian Ave #200,San Jose,CA,95124,969000,2,2.0,SAN JOSE,1447,,2007,7,670,578,Active,,,https://www.redfin.com/CA/San-Jose/2881-Meridian-Ave-95124/unit-200/home/17177344,MLSListings,ML81979930,N,Y,37.2721044,-121.908003
MLS Listing,,Single Family Residential,3498 Cherry Ave,San Jose,CA,95118,1450000,3,2.0,SAN JOSE,1324,6534,1958,7,1095,,Active,September-21-2024 01:00 PM,September-21-2024 04:00 PM,https://www.redfin.com/CA/San-Jose/3498-Cherry-Ave-95118/home/857065,MLSListings,ML81979923,N,Y,37.2695848,-121.8877719
MLS Listing,,Single Family Residential,1880 Biscayne Way,San Jose,CA,95122,1248000,4,3.0,San Jose,1760,5227,1959,7,709,,Active,,,https://www.redfin.com/CA/San-Jose/1880-Biscayne-Way-95122/home/1638570,MLSListings,ML81979922,N,Y,37.3362872,-121.8336541
MLS Listing,,Single Family Residential,6760 Crosby Ct,San Jose,CA,95129,3188000,4,4.0,SAN JOSE,2290,13068,2013,7,1392,,Active,,,https://www.redfin.com/CA/San-Jose/6760-Crosby-Ct-95129/home/746447,MLSListings,ML81979914,N,Y,37.3061784,-122.023145
MLS Listing,,Single Family Residential,220 S 18th St,San Jose,CA,95116,1095000,3,2.0,SAN JOSE,1632,7405,1936,7,671,,Active,,,https://www.redfin.com/CA/San-Jose/220-S-18th-St-95116/home/872548,MLSListings,ML81979913,N,Y,37.3404125,-121.869389
MLS Listing,,Condo/Co-op,2727 Terni Ct #8,San Jose,CA,95111,969000,3,3.5,SAN JOSE,1452,,2018,7,667,330,Active,,,https://www.redfin.com/CA/San-Jose/2727-Terni-Ct-95111/unit-8/home/167458163,MLSListings,ML81979907,N,Y,37.2918471,-121.853052
MLS Listing,,Single Family Residential,3168 Whitesand Dr,San Jose,CA,95148,2250000,5,3.0,San Jose,2845,12632,1987,7,791,,Active,,,https://www.redfin.com/CA/San-Jose/3168-Whitesand-Dr-95148/home/1508268,MLSListings,ML81979958,N,Y,37.3174757,-121.7792521
MLS Listing,,Townhouse,2748 Montavo Pl,Campbell,CA,95008,1648000,3,2.5,CAMPBELL,1878,1972,2006,7,878,315,Active,September-18-2024 10:00 AM,September-18-2024 12:00 PM,https://www.redfin.com/CA/Campbell/2748-Montavo-Pl-95008/home/12180564,MLSListings,ML81979798,N,Y,37.2714333,-121.9381293
MLS Listing,,Townhouse,3060 Brunetti Way,San Jose,CA,95125,1250000,3,2.5,SAN JOSE,1712,,1999,7,730,472,Active,,,https://www.redfin.com/CA/San-Jose/3060-Brunetti-Way-95125/home/1130116,MLSListings,ML81979898,N,Y,37.2789252,-121.8750311
MLS Listing,,Townhouse,1034 Goldenstar Pl,San Jose,CA,95131,1280000,3,3.5,SAN JOSE,1718,,2014,7,745,325,Active,,,https://www.redfin.com/CA/San-Jose/1034-Goldenstar-Pl-95131/home/95957525,MLSListings,ML81963430,N,Y,37.3793836,-121.8969262
MLS Listing,,Condo/Co-op,224 Coy Dr #3,San Jose,CA,95123,535000,2,1.0,SAN JOSE,903,,1970,7,592,463,Active,,,https://www.redfin.com/CA/San-Jose/224-Coy-Dr-95123/unit-3/home/993865,MLSListings,ML81973494,N,Y,37.2552308,-121.8247298
MLS Listing,,Single Family Residential,363 Avenida Arboles,San Jose,CA,95123,1488000,3,2.5,San Jose,2030,6600,1968,7,733,,Active,,,https://www.redfin.com/CA/San-Jose/363-Avenida-Arboles-95123/home/794171,MLSListings,ML81979880,N,Y,37.2563277,-121.834751
MLS Listing,,Single Family Residential,1423 State St,Alviso,CA,95002,899000,3,1.0,ALVISO,1240,5663,1964,7,725,,Active,,,https://www.redfin.com/CA/Alviso/1423-State-St-95002/home/1709030,MLSListings,ML81979985,N,Y,37.4301005,-121.9701284
MLS Listing,,Townhouse,332 Expedition Ln,Milpitas,CA,95035,1388888,3,3.5,MILPITAS,1882,435,2016,8,738,391,Active,,,https://www.redfin.com/CA/Milpitas/332-Expedition-Ln-95035/home/109248084,MLSListings,ML81978693,N,Y,37.4053207,-121.8941235
MLS Listing,,Townhouse,6962 Gregorich Dr Unit B,San Jose,CA,95138,725000,2,2.5,San Jose,1093,,1992,8,663,423,Active,,,https://www.redfin.com/CA/San-Jose/6962-Gregorich-Dr-95138/unit-B/home/603684,MLSListings,ML81979855,N,Y,37.2361413,-121.7658593
MLS Listing,,Single Family Residential,375 Surber Dr,San Jose,CA,95123,1479000,3,2.0,SAN JOSE,1675,5663,1971,8,883,,Active,,,https://www.redfin.com/CA/San-Jose/375-Surber-Dr-95123/home/589471,MLSListings,ML81979848,N,Y,37.2398263,-121.8197937
MLS Listing,,Multi-Family (5+ Unit),475 S Willard Ave,San Jose,CA,95126,1688000,6,5.0,SAN JOSE,2600,10890,1900,8,649,,Active,,,https://www.redfin.com/CA/San-Jose/475-S-Willard-Ave-95126/home/1774444,MLSListings,ML81979847,N,Y,37.3203419,-121.9174213
MLS Listing,,Condo/Co-op,2149 Rio Barranca Ct,San Jose,CA,95116,598000,2,1.0,SAN JOSE,881,,1971,8,679,280,Active,,,https://www.redfin.com/CA/San-Jose/2149-Rio-Barranca-Ct-95116/home/874225,MLSListings,ML81979843,N,Y,37.3617855,-121.8515308
MLS Listing,,Condo/Co-op,1020 Bellante Ln #2,San Jose,CA,95131,948888,2,2.0,San Jose,1171,,2017,8,810,290,Active,,,https://www.redfin.com/CA/San-Jose/1020-Bellante-Ln-95131/unit-2/home/147280168,MLSListings,ML81979840,N,Y,37.3714921,-121.8796116
MLS Listing,,Single Family Residential,96 N 25th St,San Jose,CA,95116,899900,2,1.0,SAN JOSE,840,4792,1912,8,1071,,Active,,,https://www.redfin.com/CA/San-Jose/96-N-25th-St-95116/home/871218,MLSListings,ML81979835,N,Y,37.3486246,-121.8677576
MLS Listing,,Multi-Family (2-4 Unit),445-449 Vaughn Ave,San Jose,CA,95128,899000,3,3.0,SAN JOSE,1706,3920,1900,8,527,,Active,,,https://www.redfin.com/CA/San-Jose/445-Vaughn-Ave-95128/home/1672238,MLSListings,ML81979832,N,Y,37.3207777,-121.930436
MLS Listing,,Townhouse,6 Muller Pl,San Jose,CA,95126,998000,3,3.0,SAN JOSE,1342,,2008,8,744,365,Active,,,https://www.redfin.com/CA/San-Jose/6-Muller-Pl-95126/home/23046391,MLSListings,ML81979828,N,Y,37.3238757,-121.9160885
MLS Listing,,Single Family Residential,3033 Masonwood St,San Jose,CA,95148,1300000,4,2.0,SAN JOSE,1470,7498,1983,8,884,,Active,,,https://www.redfin.com/CA/San-Jose/3033-Masonwood-St-95148/home/681132,MLSListings,ML81979824,N,Y,37.325061,-121.7943242
MLS Listing,,Condo/Co-op,131 Jose Figueres Ave,San Jose,CA,95116,545538,2,1.0,San Jose,881,1476,1977,8,619,378,Active,September-21-2024 02:00 PM,September-21-2024 04:00 PM,https://www.redfin.com/CA/San-Jose/131-Jose-Figueres-Ave-95116/home/1287881,MLSListings,ML81979822,N,Y,37.359454,-121.849257
MLS Listing,,Single Family Residential,6109 Glen Harbor Dr,San Jose,CA,95123,1348000,4,2.0,SAN JOSE,1380,5663,1968,8,977,,Active,,,https://www.redfin.com/CA/San-Jose/6109-Glen-Harbor-Dr-95123/home/1092762,MLSListings,ML81979815,N,Y,37.2369516,-121.820595
MLS Listing,,Single Family Residential,7495 Tierra Sombra Ct,San Jose,CA,95120,2200000,5,3.0,SAN JOSE,3344,46174,1949,8,658,,Active,,,https://www.redfin.com/CA/San-Jose/7495-Tierra-Sombra-Ct-95120/home/1136870,MLSListings,ML81979813,N,Y,37.1932247,-121.7976701
MLS Listing,,Single Family Residential,4816 Tonino Dr,San Jose,CA,95136,1449995,3,2.0,SAN JOSE,1545,6098,1967,8,939,,Active,,,https://www.redfin.com/CA/San-Jose/4816-Tonino-Dr-95136/home/1085575,MLSListings,ML81979801,N,Y,37.2614552,-121.87121
MLS Listing,,Single Family Residential,5093 Gazania Dr,San Jose,CA,95111,1529000,4,2.5,SAN JOSE,2009,6970,1974,8,761,,Active,,,https://www.redfin.com/CA/San-Jose/5093-Gazania-Dr-95111/home/1481029,MLSListings,ML81979796,N,Y,37.2642745,-121.81458
MLS Listing,,Vacant Land,6824 Leyland Park Dr,San Jose,CA,95120,1800000,,,Listing,14374,14374,,8,125,,Active,,,https://www.redfin.com/CA/San-Jose/6824-Leyland-Park-Dr-95120/home/161001262,"bridgeMLS, Bay East AOR, or Contra Costa AOR",41071752,N,Y,37.207634,-121.871478
MLS Listing,,Single Family Residential,6705 Hampton Dr,San Jose,CA,95120,2748000,4,2.5,SAN JOSE,2477,11910,1961,8,1109,,Active,September-22-2024 01:00 PM,September-22-2024 04:00 PM,https://www.redfin.com/CA/San-Jose/6705-Hampton-Dr-95120/home/1479747,MLSListings,ML81977933,N,Y,37.2138555,-121.8636316
MLS Listing,,Condo/Co-op,471 Sieber Ct,San Jose,CA,95111,609000,3,1.0,SAN JOSE,941,,1982,8,647,285,Active,September-21-2024 01:00 PM,September-21-2024 04:00 PM,https://www.redfin.com/CA/San-Jose/471-Sieber-Ct-95111/home/1758118,MLSListings,ML81979678,N,Y,37.2901485,-121.8331421
MLS Listing,,Single Family Residential,10299 Kenny Ln,San Jose,CA,95127,2599000,5,5.0,San Jose,3746,10454,2021,8,694,,Active,,,https://www.redfin.com/CA/San-Jose/10299-Kenny-Ln-95127/home/40298273,MLSListings,ML81979778,N,Y,37.3750284,-121.8028629
MLS Listing,,Single Family Residential,237 Barbara Dr,Los Gatos,CA,95032,2480000,4,2.0,LOS GATOS,1802,6000,1963,8,1376,,Active,,,https://www.redfin.com/CA/Los-Gatos/237-Barbara-Dr-95032/home/1288630,MLSListings,ML81978347,N,Y,37.2413707,-121.9287332
MLS Listing,,Single Family Residential,260 Arbor Valley Pl,San Jose,CA,95119,1248000,3,2.0,SAN JOSE,1239,7841,1970,8,1007,,Active,,,https://www.redfin.com/CA/San-Jose/260-Arbor-Valley-Pl-95119/home/1006156,MLSListings,ML81978987,N,Y,37.2259747,-121.7846978
MLS Listing,,Condo/Co-op,1662 Las Piedras Ct,Los Gatos,CA,95032,1450000,3,2.5,LOS GATOS,2016,,1979,8,719,480,Active,,,https://www.redfin.com/CA/Los-Gatos/1662-Las-Piedras-Ct-95032/home/756386,MLSListings,ML81979770,N,Y,37.26522,-121.983557
MLS Listing,,Single Family Residential,924 Tamarack Ave,San Jose,CA,95128,1288888,2,1.0,W.SAN JOSE,806,7076,1950,8,1599,,Active,,,https://www.redfin.com/CA/San-Jose/924-Tamarack-Ave-95128/home/1657299,"bridgeMLS, Bay East AOR, or Contra Costa AOR",41072579,N,Y,37.3322969,-121.9398923
MLS Listing,,Single Family Residential,1954 Seabee Pl,San Jose,CA,95133,1750000,5,4.0,SAN JOSE,2533,6098,1979,8,691,,Active,,,https://www.redfin.com/CA/San-Jose/1954-Seabee-Pl-95133/home/1803753,MLSListings,ML81979095,N,Y,37.3752329,-121.8658381
MLS Listing,,Single Family Residential,1049 Lincoln Ct,San Jose,CA,95125,2850000,4,3.5,SAN JOSE,2865,6098,2017,8,995,,Active,,,https://www.redfin.com/CA/San-Jose/1049-Lincoln-Ct-95125/home/1366895,MLSListings,ML81979741,N,Y,37.2925433,-121.8871302
MLS Listing,,Single Family Residential,5245 Rio Lobo Dr,San Jose,CA,95136,1625888,4,2.5,SAN JOSE,2141,5663,1982,8,759,,Active,,,https://www.redfin.com/CA/San-Jose/5245-Rio-Lobo-Dr-95136/home/1421094,MLSListings,ML81978301,N,Y,37.2598922,-121.8224242
MLS Listing,,Single Family Residential,1736 Isabel Dr,San Jose,CA,95125,2198888,3,2.0,SAN JOSE,2042,8925,1951,8,1077,,Active,September-21-2024 01:00 PM,September-21-2024 04:00 PM,https://www.redfin.com/CA/San-Jose/1736-Isabel-Dr-95125/home/1059853,MLSListings,ML81979738,N,Y,37.3005321,-121.9165076
MLS Listing,,Single Family Residential,3238 LaNelle Pl,San Jose,CA,95124,3310000,4,4.5,SAN JOSE,3200,4507,2024,8,1034,245,Active,,,https://www.redfin.com/CA/San-Jose/3238-LaNelle-PL-95124/home/192457186,MLSListings,ML81979737,N,Y,37.2583724,-121.918866
MLS Listing,,Single Family Residential,3820 W Rincon Ave,Campbell,CA,95008,1799888,3,2.0,CAMPBELL,1486,5663,1962,8,1211,,Active,,,https://www.redfin.com/CA/Campbell/3820-W-Rincon-Ave-95008/home/817984,MLSListings,ML81978892,N,Y,37.2817362,-121.9666406
MLS Listing,,Single Family Residential,5674 Tonopah Dr,San Jose,CA,95123,1499000,4,2.0,SAN JOSE,1846,6090,1968,8,812,,Active,,,https://www.redfin.com/CA/San-Jose/5674-Tonopah-Dr-95123/home/1702752,MLSListings,ML81979727,N,Y,37.25021,-121.8210794
MLS Listing,,Condo/Co-op,5066 Cribari Blfs,San Jose,CA,95135,535000,2,2.0,SAN JOSE,1223,,1968,9,437,1087,Active,,,https://www.redfin.com/CA/San-Jose/5066-Cribari-Blfs-95135/home/1554210,MLSListings,ML81979706,N,Y,37.2942178,-121.7527227
MLS Listing,,Condo/Co-op,262 Tradewinds Ct #4,San Jose,CA,95123,520000,2,1.0,SAN JOSE,798,,1970,9,652,397,Active,,,https://www.redfin.com/CA/San-Jose/262-Tradewinds-Ct-95123/unit-4/home/1269811,MLSListings,ML81979705,N,Y,37.2529083,-121.8247275
MLS Listing,,Townhouse,394 Olive Hill Dr,San Jose,CA,95125,898000,2,2.5,SAN JOSE,1368,,2005,9,656,325,Active,,,https://www.redfin.com/CA/San-Jose/394-Olive-Hill-Dr-95125/home/167457239,MLSListings,ML81979703,N,Y,37.296359,-121.869932
MLS Listing,,Single Family Residential,5855 Silver Leaf Rd,San Jose,CA,95138,1398888,4,2.0,SAN JOSE,1675,7455,1981,9,835,,Active,September-21-2024 01:00 PM,September-21-2024 04:00 PM,https://www.redfin.com/CA/San-Jose/5855-Silver-Leaf-Rd-95138/home/1350396,MLSListings,ML81979702,N,Y,37.2469536,-121.7794372
MLS Listing,,Single Family Residential,1224 Avalon Dr,San Jose,CA,95125,1899000,3,2.0,SAN JOSE,1550,7700,1957,9,1225,,Active,,,https://www.redfin.com/CA/San-Jose/1224-Avalon-Dr-95125/home/1551471,MLSListings,ML81979698,N,Y,37.2787438,-121.8859139
MLS Listing,,Single Family Residential,3315 Aramis Dr,San Jose,CA,95127,1100000,3,1.5,SAN JOSE,1900,5225,1961,9,579,,Active,,,https://www.redfin.com/CA/San-Jose/3315-Aramis-Dr-95127/home/1232097,MLSListings,ML81979679,N,Y,37.3569127,-121.8109911
MLS Listing,,Condo/Co-op,629 Boardwalk Way,San Jose,CA,95112,889888,3,2.0,San Jose,1224,,2007,9,727,272,Active,,,https://www.redfin.com/CA/San-Jose/629-Boardwalk-95112/home/28895001,MLSListings,ML81978034,N,Y,37.36113,-121.890624
MLS Listing,,Single Family Residential,195 Cleaves Ave,San Jose,CA,95126,1700000,3,2.5,SAN JOSE,1925,6098,1942,9,883,,Active,September-21-2024 02:00 PM,September-21-2024 04:00 PM,https://www.redfin.com/CA/San-Jose/195-Cleaves-Ave-95126/home/799452,MLSListings,ML81979437,N,Y,37.3266189,-121.9075672
MLS Listing,,Single Family Residential,1990 University Way,San Jose,CA,95126,1995000,3,2.0,Central San Jose,1876,8712,1941,9,1063,,Active,,,https://www.redfin.com/CA/San-Jose/1990-University-Way-95126/home/1198656,BAREIS,324070677,N,Y,37.3311191,-121.9337577
MLS Listing,,Single Family Residential,4007 Shona Ct,San Jose,CA,95124,1725000,4,2.0,SAN JOSE,1676,6098,1971,9,1029,,Active,,,https://www.redfin.com/CA/San-Jose/4007-Shona-Ct-95124/home/636588,MLSListings,ML81979662,N,Y,37.2610914,-121.9042923
MLS Listing,,Vacant Land,0 Steinbaugh Ct,San Jose,CA,95132,285000,,,SAN JOSE,,17859,,9,,,Active,,,https://www.redfin.com/CA/San-Jose/Steinbaugh-Ct-95132/home/18957457,MLSListings,ML81979650,N,Y,37.400672,-121.827067
MLS Listing,,Mobile/Manufactured Home,900 Golden Wheel Park Dr,San Jose,CA,95112,459950,3,2.0,Golden Wheel Mobile Home Park,1560,,2024,9,295,,Active,,,https://www.redfin.com/CA/San-Jose/900-Golden-Wheel-Park-Dr-95112/home/1048832,MetroList,224100595,N,Y,37.3747873,-121.8911472
MLS Listing,,Condo/Co-op,2313 Samaritan Dr #4,San Jose,CA,95124,599999,2,1.0,SAN JOSE,798,,1973,9,752,492,Active,,,https://www.redfin.com/CA/San-Jose/2313-Samaritan-Dr-95124/unit-4/home/1063802,MLSListings,ML81979647,N,Y,37.2508696,-121.941876
MLS Listing,,Single Family Residential,2451 Whitethorne Dr,San Jose,CA,95128,1728000,3,2.0,SAN JOSE,1693,6970,1959,9,1021,,Active,,,https://www.redfin.com/CA/San-Jose/2451-Whitethorne-Dr-95128/home/731957,MLSListings,ML81979638,N,Y,37.3008646,-121.9369997
MLS Listing,,Single Family Residential,5026 Noella Way,San Jose,CA,95124,2599000,4,3.0,San Jose,2012,5663,1958,9,1292,,Active,,,https://www.redfin.com/CA/San-Jose/5026-Noella-Way-95124/home/785647,MLSListings,ML81979287,N,Y,37.2467183,-121.9190084
MLS Listing,,Single Family Residential,1622 Rossburn Ct,San Jose,CA,95121,1549000,4,2.5,SAN JOSE,1917,6534,1977,9,808,,Active,,,https://www.redfin.com/CA/San-Jose/1622-Rossburn-Ct-95121/home/1204305,MLSListings,ML81979627,N,Y,37.2901683,-121.8115908
MLS Listing,,Single Family Residential,181 E Hedding St,San Jose,CA,95112,1245000,3,2.0,SAN JOSE,1628,5227,1927,9,765,,Active,,,https://www.redfin.com/CA/San-Jose/181-E-Hedding-St-95112/home/1633652,MLSListings,ML81979622,N,Y,37.3553757,-121.8997624
MLS Listing,,Condo/Co-op,6213 Wehner Way,San Jose,CA,95135,749000,2,2.0,SAN JOSE,1340,,1974,9,559,1152,Active,,,https://www.redfin.com/CA/San-Jose/6213-Wehner-Way-95135/home/1318631,MLSListings,ML81979610,N,Y,37.284168,-121.7537511
MLS Listing,,Single Family Residential,5399 Garrison Cir,San Jose,CA,95123,1299990,3,2.0,San Jose,1399,4950,1977,10,929,,Active,,,https://www.redfin.com/CA/San-Jose/5399-Garrison-Cir-95123/home/1243569,"bridgeMLS, Bay East AOR, or Contra Costa AOR",41072453,N,Y,37.2566124,-121.8090839
MLS Listing,,Single Family Residential,1403 Gordy Dr,San Jose,CA,95131,1488888,3,2.5,San Jose,1479,6650,1987,10,1007,,Active,,,https://www.redfin.com/CA/San-Jose/1403-Gordy-Dr-95131/home/694074,"bridgeMLS, Bay East AOR, or Contra Costa AOR",41072449,N,Y,37.383257,-121.8815278
MLS Listing,,Single Family Residential,1264 Lansing Ave,San Jose,CA,95118,1300000,4,2.0,SAN JOSE,1408,5663,1963,11,923,,Active,,,https://www.redfin.com/CA/San-Jose/1264-Lansing-Ave-95118/home/1770754,MLSListings,ML81978157,N,Y,37.2538347,-121.8827483
MLS Listing,,Condo/Co-op,5403 Cribari Ct,San Jose,CA,95135,525000,2,2.0,San Jose,1223,,1969,11,429,1087,Active,,,https://www.redfin.com/CA/San-Jose/5403-Cribari-Ct-95135/home/1160413,MLSListings,ML81979555,N,Y,37.295636,-121.756728
MLS Listing,,Condo/Co-op,8673 French Oak Dr,San Jose,CA,95135,949888,2,2.0,SAN JOSE,1675,,1991,11,567,1393,Active,,,https://www.redfin.com/CA/San-Jose/8673-French-Oak-Dr-95135/home/1480851,MLSListings,ML81979548,N,Y,37.2855088,-121.744178
MLS Listing,,Single Family Residential,5506 Dent Ave,San Jose,CA,95118,1488000,3,2.0,SAN JOSE,1250,6970,1958,11,1190,,Active,,,https://www.redfin.com/CA/San-Jose/5506-Dent-Ave-95118/home/918594,MLSListings,ML81975413,N,Y,37.243302,-121.8933898
MLS Listing,,Single Family Residential,5707 Capilano Dr,San Jose,CA,95138,3288000,5,4.5,SAN JOSE,3293,7742,1997,11,998,205,Active,,,https://www.redfin.com/CA/San-Jose/5707-Capilano-Dr-95138/home/1520927,MLSListings,ML81979062,N,Y,37.2788444,-121.7563389
MLS Listing,,Condo/Co-op,3337 Lake Albano Cir,San Jose,CA,95135,949888,2,2.5,SAN JOSE,1776,,1985,11,535,1629,Active,,,https://www.redfin.com/CA/San-Jose/3337-Lake-Albano-Cir-95135/home/964077,MLSListings,ML81979534,N,Y,37.2872464,-121.7599504
MLS Listing,,Single Family Residential,4075 Soelro Ct,San Jose,CA,95127,4488888,6,5.5,EAST FOOTHILLS,7250,47480,2008,11,619,,Active,,,https://www.redfin.com/CA/San-Jose/4075-Soelro-Ct-95127/home/23129828,"bridgeMLS, Bay East AOR, or Contra Costa AOR",41069636,N,Y,37.3866625,-121.8088453
MLS Listing,,Single Family Residential,3098 Franela Dr,San Jose,CA,95124,1349000,4,2.0,SAN JOSE,1300,5000,1953,11,1038,,Active,,,https://www.redfin.com/CA/San-Jose/3098-Franela-Dr-95124/home/1445480,MLSListings,ML81979357,N,Y,37.2689439,-121.9079156
MLS Listing,,Other,00 Cleo,Cupertino,CA,95014,3500000,,,CUPERTINO,,9583,,11,,,Active,,,https://www.redfin.com/CA/Cupertino/Cleo-Ave-95014/home/55113423,MLSListings,ML81979525,N,Y,37.302083,-122.032651
MLS Listing,,Condo/Co-op,130 E San Fernando St #405,San Jose,CA,95112,899999,2,2.0,SAN JOSE,1662,1827,1998,11,542,938,Active,September-21-2024 01:00 PM,September-21-2024 04:00 PM,https://www.redfin.com/CA/San-Jose/130-E-San-Fernando-St-95112/unit-405/home/1746732,MLSListings,ML81979521,N,Y,37.3354201,-121.8865023
MLS Listing,,Multi-Family (2-4 Unit),3518 Alden Way,San Jose,CA,95117,1699000,15,4.0,San Jose,2986,6970,1957,12,569,,Active,,,https://www.redfin.com/CA/San-Jose/3518-Alden-Way-95117/home/1580085,San Francisco MLS,424063054,N,Y,37.32141,-121.9604549
MLS Listing,,Condo/Co-op,1305 Weepinggate Ln,San Jose,CA,95136,750000,3,1.5,SOUTH SAN JOSE,1308,1080,1977,12,573,390,Active,,,https://www.redfin.com/CA/San-Jose/1305-Weepinggate-Ln-95136/home/1483006,"bridgeMLS, Bay East AOR, or Contra Costa AOR",41072391,N,Y,37.2595402,-121.8305413
MLS Listing,,Condo/Co-op,2665 Lone Bluff Way,San Jose,CA,95111,690000,3,1.5,San Jose,1075,,1983,12,642,442,Active,,,https://www.redfin.com/CA/San-Jose/2665-Lone-Bluff-Way-95111/home/1665770,MLSListings,ML81979511,N,Y,37.302197,-121.839167
MLS Listing,,Multi-Family (2-4 Unit),3790-3792 Trina Way,San Jose,CA,95117,1539000,4,2.0,SAN JOSE,1826,8276,1963,12,843,,Active,,,https://www.redfin.com/CA/San-Jose/3790-Trina-Way-95117/home/1829756,MLSListings,ML81979508,N,Y,37.3191503,-121.9680901
MLS Listing,,Single Family Residential,14888 Cole Dr,San Jose,CA,95124,2888888,5,3.5,SAN JOSE,2645,10454,2024,12,1092,,Active,,,https://www.redfin.com/CA/San-Jose/14888-Cole-Dr-95124/home/1203683,MLSListings,ML81979506,N,Y,37.2534093,-121.9292989
MLS Listing,,Condo/Co-op,3034 Empoli Ln #7,San Jose,CA,95136,899000,2,2.0,SAN JOSE,1094,871,2023,12,822,654,Active,,,https://www.redfin.com/CA/San-Jose/3034-Empoli-St-95136/unit-7/home/176539683,MLSListings,ML81979499,N,Y,37.285335,-121.856325
MLS Listing,,Single Family Residential,3556 Rollingside Dr,San Jose,CA,95148,2000000,4,3.0,SAN JOSE,2106,8712,1983,12,950,,Active,,,https://www.redfin.com/CA/San-Jose/3556-Rollingside-Dr-95148/home/1480626,MLSListings,ML81979497,N,Y,37.3310241,-121.7779737
MLS Listing,,Single Family Residential,16201 Highland Dr,San Jose,CA,95127,2198888,4,3.0,San Jose,2529,14720,1954,12,869,,Active,September-21-2024 12:00 PM,September-21-2024 03:00 PM,https://www.redfin.com/CA/San-Jose/16201-Highland-Dr-95127/home/1132693,"bridgeMLS, Bay East AOR, or Contra Costa AOR",41072375,N,Y,37.3916596,-121.8148157
MLS Listing,,Condo/Co-op,3819 7 Trees Blvd #308,San Jose,CA,95111,479999,2,2.0,San Jose,999,,1980,12,480,505,Active,,,https://www.redfin.com/CA/San-Jose/3819-7-Trees-Blvd-95111/unit-308/home/1122094,CRMLS,PW24185675,N,Y,37.2835525,-121.8347853
MLS Listing,,Condo/Co-op,58 Muirfield Ct,San Jose,CA,95116,597999,2,1.5,SAN JOSE,1054,,1982,12,567,450,Active,,,https://www.redfin.com/CA/San-Jose/58-Muirfield-Ct-95116/home/1253479,MLSListings,ML81979461,N,Y,37.360012,-121.837956
MLS Listing,,Condo/Co-op,1023 Delna Manor Ln,San Jose,CA,95128,700000,2,2.0,Not Listed,1020,1020,1975,12,686,555,Active,,,https://www.redfin.com/CA/San-Jose/1023-Delna-Manor-Ln-95128/home/1148898,"bridgeMLS, Bay East AOR, or Contra Costa AOR",41072345,N,Y,37.307653,-121.933212
MLS Listing,,Single Family Residential,335 Spode Way,San Jose,CA,95123,1630000,4,2.0,SAN JOSE,1720,6534,1972,12,948,,Active,,,https://www.redfin.com/CA/San-Jose/335-Spode-Way-95123/home/951177,MLSListings,ML81978849,N,Y,37.2349343,-121.80496
MLS Listing,,Single Family Residential,1407 Luning Dr,San Jose,CA,95118,1499888,3,2.0,SAN JOSE,1578,6000,1962,12,950,,Active,,,https://www.redfin.com/CA/San-Jose/1407-Luning-Dr-95118/home/629073,MLSListings,ML81979441,N,Y,37.2554181,-121.8899725
MLS Listing,,Townhouse,126 Monte Villa Ct,Campbell,CA,95008,999000,2,2.5,CAMPBELL,1188,,1984,12,841,476,Active,September-21-2024 01:00 PM,September-21-2024 03:00 PM,https://www.redfin.com/CA/Campbell/126-Monte-Villa-Ct-95008/home/677490,MLSListings,ML81976913,N,Y,37.2606629,-121.9470862
MLS Listing,,Condo/Co-op,213 Shadow Dance Dr,San Jose,CA,95110,670000,2,2.0,SAN JOSE,871,1081,1986,12,769,400,Active,,,https://www.redfin.com/CA/San-Jose/213-Shadow-Dance-Dr-95110/home/1403235,MLSListings,ML81979432,N,Y,37.310512,-121.8792597
MLS Listing,,Other,837 Blue Opal Dr,San Jose,CA,95123,1449888,4,3.5,SAN JOSE,2258,2577,2014,12,642,239,Active,,,https://www.redfin.com/CA/San-Jose/837-Blue-Opal-Dr-95123/home/95956218,MLSListings,ML81979422,N,Y,37.2421537,-121.7975861
MLS Listing,,Single Family Residential,14333 Branham Ln,San Jose,CA,95124,2198000,4,2.0,SAN JOSE,1720,9583,1952,12,1278,,Active,,,https://www.redfin.com/CA/San-Jose/14333-Branham-Ln-95124/home/831371,MLSListings,ML81977505,N,Y,37.2511627,-121.9192854
MLS Listing,,Single Family Residential,2083 Flintcrest Dr,San Jose,CA,95148,1349000,3,2.0,SAN JOSE,1361,6098,1981,12,991,,Active,,,https://www.redfin.com/CA/San-Jose/2083-Flintcrest-Dr-95148/home/603007,MLSListings,ML81979414,N,Y,37.3426052,-121.8014749
MLS Listing,,Single Family Residential,1735 Monrovia Dr,San Jose,CA,95122,888000,3,2.0,SAN JOSE,1084,3485,1979,12,819,,Active,,,https://www.redfin.com/CA/San-Jose/1735-Monrovia-Dr-95122/home/960368,MLSListings,ML81979411,N,Y,37.313152,-121.815781
MLS Listing,,Single Family Residential,2995 Markingdon Ave,San Jose,CA,95127,989000,3,2.0,San Jose,1188,5227,1955,12,832,,Active,,,https://www.redfin.com/CA/San-Jose/2995-Markingdon-Ave-95127/home/893641,MLSListings,ML81977187,N,Y,37.350231,-121.8166235
MLS Listing,,Condo/Co-op,204 Coy Dr #4,San Jose,CA,95123,495000,2,1.0,SAN JOSE,798,,1970,12,620,462,Active,September-21-2024 02:00 PM,September-21-2024 04:00 PM,https://www.redfin.com/CA/San-Jose/204-Coy-Dr-95123/unit-4/home/1694216,MLSListings,ML81979389,N,Y,37.2552617,-121.822921
MLS Listing,,Condo/Co-op,5332 Monterey Hwy #26,San Jose,CA,95111,499000,2,2.0,EDENVALE,950,,1979,12,525,400,Active,,,https://www.redfin.com/CA/San-Jose/5332-Monterey-Hwy-95111/unit-26/home/1749479,"bridgeMLS, Bay East AOR, or Contra Costa AOR",41072251,N,Y,37.2587807,-121.806474
MLS Listing,,Single Family Residential,7263 Wild Creek Dr,San Jose,CA,95120,1298000,3,2.5,ALMADEN VALLEY,1470,2500,1985,12,883,79,Active,,,https://www.redfin.com/CA/San-Jose/7263-Wild-Creek-Dr-95120/home/1015223,"bridgeMLS, Bay East AOR, or Contra Costa AOR",41072242,N,Y,37.1995408,-121.8292146
MLS Listing,,Townhouse,1137 Rock Ave,San Jose,CA,95131,1098800,2,2.5,NORTH SAN JOSE,1213,2025,2007,12,906,215,Active,,,https://www.redfin.com/CA/San-Jose/1137-Rock-Ave-95131/home/17290446,"bridgeMLS, Bay East AOR, or Contra Costa AOR",41072206,N,Y,37.3938106,-121.9019648
MLS Listing,,Single Family Residential,1208 Hester Ave,San Jose,CA,95126,1249000,2,1.0,SAN JOSE,1044,4792,1918,12,1196,,Active,,,https://www.redfin.com/CA/San-Jose/1208-Hester-Ave-95126/home/1593655,MLSListings,ML81978810,N,Y,37.3320793,-121.9161322
MLS Listing,,Single Family Residential,6002 Running Springs Rd,San Jose,CA,95135,2950000,5,4.0,SAN JOSE,3308,11326,1996,12,892,,Active,,,https://www.redfin.com/CA/San-Jose/6002-Running-Springs-Rd-95135/home/1155935,MLSListings,ML81977543,N,Y,37.2779978,-121.7368671
MLS Listing,,Single Family Residential,1629 Cherry Ave,San Jose,CA,95125,2975000,4,3.5,SAN JOSE,3560,5663,1999,13,836,,Active,,,https://www.redfin.com/CA/San-Jose/1629-Cherry-Ave-95125/home/843776,MLSListings,ML81979341,N,Y,37.2955809,-121.9037718
MLS Listing,,Townhouse,1955 Postgate Ct,San Jose,CA,95121,798000,4,1.5,SAN JOSE,1320,,1974,13,605,499,Active,,,https://www.redfin.com/CA/San-Jose/1955-Postgate-Ct-95121/home/970863,MLSListings,ML81979336,N,Y,37.3076987,-121.8034486
MLS Listing,,Single Family Residential,678 Santee River Ct,San Jose,CA,95111,1488000,4,2.5,San Jose,1742,6032,1975,13,854,,Active,,,https://www.redfin.com/CA/San-Jose/678-Santee-River-Ct-95111/home/1100354,MLSListings,ML81979326,N,Y,37.2978517,-121.8343988
MLS Listing,,Single Family Residential,3557 Amber Dr,San Jose,CA,95117,2180000,5,3.0,SAN JOSE,2199,5663,1962,13,991,,Active,,,https://www.redfin.com/CA/San-Jose/3557-Amber-Dr-95117/home/745250,MLSListings,ML81978998,N,Y,37.3053752,-121.9615108
MLS Listing,,Single Family Residential,3417 Pin Oak Ct,San Jose,CA,95148,1499999,4,2.5,EVERGREEN,2649,10512,1978,13,566,,Active,,,https://www.redfin.com/CA/San-Jose/3417-Pin-Oak-Ct-95148/home/1311843,"bridgeMLS, Bay East AOR, or Contra Costa AOR",41072181,N,Y,37.333557,-121.7828901
MLS Listing,,Single Family Residential,1091 Melbourne Blvd,San Jose,CA,95116,999000,3,2.0,SAN JOSE,1354,4792,1954,13,738,,Active,,,https://www.redfin.com/CA/San-Jose/1091-Melbourne-Blvd-95116/home/874420,MLSListings,ML81978307,N,Y,37.3377109,-121.8600835
MLS Listing,,Condo/Co-op,175 W Saint James St #1409,San Jose,CA,95110,865000,2,2.0,SAN JOSE,1393,,2006,13,621,812,Active,,,https://www.redfin.com/CA/San-Jose/175-W-Saint-James-St-95110/unit-1409/home/17289654,MLSListings,ML81979317,N,Y,37.3382309,-121.8957045
MLS Listing,,Multi-Family (2-4 Unit),317 Perrymont Ave,San Jose,CA,95125,1350000,3,3.0,SAN JOSE,1908,6534,1954,13,708,,Active,,,https://www.redfin.com/CA/San-Jose/317-Perrymont-Ave-95125/home/167457113,MLSListings,ML81979315,N,Y,37.3010357,-121.8693585
MLS Listing,,Single Family Residential,951 Cape George Pl,San Jose,CA,95133,2000000,4,2.5,SAN JOSE,2941,6098,1979,13,680,,Active,September-21-2024 01:00 PM,September-21-2024 04:00 PM,https://www.redfin.com/CA/San-Jose/951-Cape-George-Pl-95133/home/609396,MLSListings,ML81979301,N,Y,37.3722877,-121.869456
MLS Listing,,Single Family Residential,1375 Milton Way,San Jose,CA,95125,2975000,4,3.5,SAN JOSE,2881,6250,2024,13,1033,,Active,,,https://www.redfin.com/CA/San-Jose/1375-Milton-Way-95125/home/192380137,MLSListings,ML81979276,N,Y,37.3082572,-121.8909751
MLS Listing,,Single Family Residential,3280 Blue Mountain Dr,San Jose,CA,95127,1038888,3,2.0,SAN JOSE,1198,5227,1959,13,867,,Active,,,https://www.redfin.com/CA/San-Jose/3280-Blue-Mountain-Dr-95127/home/1341539,MLSListings,ML81979275,N,Y,37.3504887,-121.80624
MLS Listing,,Single Family Residential,2110 Ardis Dr,San Jose,CA,95125,4100000,5,4.5,San Jose,4245,11150,2018,13,966,,Active,,,https://www.redfin.com/CA/San-Jose/2110-Ardis-Dr-95125/home/1542523,MLSListings,ML81979273,N,Y,37.2956777,-121.8818269
MLS Listing,,Condo/Co-op,2785 S Bascom Ave #27,San Jose,CA,95124,515000,1,1.0,SAN JOSE,588,,1984,13,876,436,Active,,,https://www.redfin.com/CA/Campbell/2785-S-Bascom-Ave-95008/unit-27/home/1402688,MLSListings,ML81979239,N,Y,37.2712707,-121.9376005
MLS Listing,,Single Family Residential,1791 Cleveland Ave,San Jose,CA,95126,2799000,6,3.5,SAN JOSE,3193,6750,1945,13,877,,Active,,,https://www.redfin.com/CA/San-Jose/1791-Cleveland-Ave-95126/home/1095612,MLSListings,ML81979269,N,Y,37.3284981,-121.9284745
MLS Listing,,Single Family Residential,2110 Park Ave,San Jose,CA,95126,1990000,3,3.0,SAN JOSE,2047,4792,1935,13,972,,Active,,,https://www.redfin.com/CA/San-Jose/2110-Park-Ave-95126/home/1328443,MLSListings,ML81977414,N,Y,37.3402909,-121.9313153
MLS Listing,,Single Family Residential,4677 Cherrywood Dr,San Jose,CA,95129,2500000,4,2.5,SAN JOSE,2117,5663,1959,13,1181,,Active,,,https://www.redfin.com/CA/San-Jose/4677-Cherrywood-Dr-95129/home/799497,MLSListings,ML81978813,N,Y,37.311173,-121.9855971
MLS Listing,,Townhouse,2538 Yerba Hills Ct,San Jose,CA,95121,949000,3,2.0,EVERGREEN HILLS,1050,,1988,13,904,320,Active,,,https://www.redfin.com/CA/San-Jose/2538-Yerba-Hills-Ct-95121/home/1689025,"bridgeMLS, Bay East AOR, or Contra Costa AOR",41072050,N,Y,37.2999826,-121.7777773
MLS Listing,,Single Family Residential,1763 Jonathan Ave,San Jose,CA,95125,1000000,2,1.0,SAN JOSE,1114,4510,1925,13,898,,Active,,,https://www.redfin.com/CA/San-Jose/1763-Jonathan-Ave-95125/home/1202209,MLSListings,ML81979226,N,Y,37.2995271,-121.8878125
MLS Listing,,Single Family Residential,2689 Vista Verde Dr,San Jose,CA,95148,1298000,3,2.0,SAN JOSE,1259,5663,1973,13,1031,,Active,,,https://www.redfin.com/CA/San-Jose/2689-Vista-Verde-Dr-95148/home/639104,MLSListings,ML81979225,N,Y,37.3340209,-121.7938768
MLS Listing,,Single Family Residential,1190 Emory St,San Jose,CA,95126,5795000,6,4.0,SAN JOSE,5712,50312,1923,13,1015,,Active,,,https://www.redfin.com/CA/San-Jose/1190-Emory-St-95126/home/1738074,MLSListings,ML81979220,N,Y,37.337736,-121.9215663
MLS Listing,,Single Family Residential,6121 Dunn Ave,San Jose,CA,95123,1450000,4,2.0,SAN JOSE,1826,6098,1966,13,794,,Active,,,https://www.redfin.com/CA/San-Jose/6121-Dunn-Ave-95123/home/986971,MLSListings,ML81979221,N,Y,37.2365993,-121.8223886
MLS Listing,,Single Family Residential,625 Kiowa Cir,San Jose,CA,95123,1750000,4,2.0,San Jose,1503,5917,1967,13,1164,,Active,,,https://www.redfin.com/CA/San-Jose/625-Kiowa-Cir-95123/home/1588530,MLSListings,ML81978471,N,Y,37.2380713,-121.8358749
MLS Listing,,Single Family Residential,460 Leigh Ave,San Jose,CA,95128,1190000,3,2.0,San Jose,1232,5663,1988,13,966,,Active,,,https://www.redfin.com/CA/San-Jose/460-Leigh-Ave-95128/home/1095700,MLSListings,ML81979201,N,Y,37.3203609,-121.9235404
MLS Listing,,Mobile/Manufactured Home,208 El Bosque Dr #208,San Jose,CA,95134,429000,3,3.0,SAN JOSE,1410,,2020,13,304,,Active,,,https://www.redfin.com/CA/San-Jose/208-El-Bosque-Dr-95134/unit-208/home/192374895,MLSListings,ML81979198,N,Y,37.4138679,-121.9429882
MLS Listing,,Mobile/Manufactured Home,510 Saddle Brook Dr #285,San Jose,CA,95136,409000,3,2.0,SAN JOSE,1052,,2024,13,389,,Active,,,https://www.redfin.com/CA/San-Jose/510-Saddlebrook-Dr-95136/unit-285/home/192374499,MLSListings,ML81979181,N,Y,37.2630711,-121.8166791
MLS Listing,,Townhouse,218 Proximity Way,San Jose,CA,95110,1288000,3,3.0,SAN JOSE,1635,,2020,13,788,309,Active,,,https://www.redfin.com/CA/San-Jose/218-Proximity-Way-95110/home/168273628,MLSListings,ML81975674,N,Y,37.3405237,-121.89658
MLS Listing,,Single Family Residential,1708 Fabian Dr,San Jose,CA,95124,1999900,3,2.0,SAN JOSE,1646,8276,1961,13,1215,,Active,,,https://www.redfin.com/CA/San-Jose/1708-Fabian-Dr-95124/home/851891,MLSListings,ML81978036,N,Y,37.274688,-121.9095634
MLS Listing,,Condo/Co-op,8720 Mccarty Ranch Dr,San Jose,CA,95135,1200000,2,2.5,SAN JOSE,2043,,1995,13,587,1545,Active,,,https://www.redfin.com/CA/San-Jose/8720-McCarty-Ranch-Dr-95135/home/967169,MLSListings,ML81979170,N,Y,37.2841946,-121.7406181
MLS Listing,,Condo/Co-op,692 Blackford Ct,San Jose,CA,95117,799000,2,2.0,San Jose,926,,1984,13,863,455,Active,,,https://www.redfin.com/CA/San-Jose/692-Blackford-Ct-95117/home/663560,MLSListings,ML81978621,N,Y,37.314607,-121.966798
MLS Listing,,Single Family Residential,3086 Meridian Ave,San Jose,CA,95124,1350000,4,2.0,SAN JOSE,1500,4792,1953,13,900,,Active,,,https://www.redfin.com/CA/San-Jose/3086-Meridian-Ave-95124/home/1648547,MLSListings,ML81978047,N,Y,37.2698048,-121.9051534
MLS Listing,,Single Family Residential,526 Issac Ct,San Jose,CA,95136,1599888,3,2.5,SAN JOSE,1665,4356,1997,13,961,,Active,,,https://www.redfin.com/CA/San-Jose/526-Issac-Ct-95136/home/1309560,MLSListings,ML81979156,N,Y,37.2791486,-121.8589278
MLS Listing,,Condo/Co-op,1550 Technology Dr #3097,San Jose,CA,95110,590000,1,1.0,SAN JOSE,914,,2005,13,646,534,Active,,,https://www.redfin.com/CA/San-Jose/1550-Technology-Dr-95110/unit-3097/home/2123353,MLSListings,ML81977855,N,Y,37.3629424,-121.9146423
MLS Listing,,Single Family Residential,501 S 16th St,San Jose,CA,95112,2199000,3,2.0,SAN JOSE,1964,9196,1921,13,1120,,Active,,,https://www.redfin.com/CA/San-Jose/501-S-16th-St-95112/home/1568225,MLSListings,ML81974445,N,Y,37.3355471,-121.8698079
MLS Listing,,Single Family Residential,7064 Anjou Creek Cir,San Jose,CA,95120,1898800,3,2.0,SAN JOSE,1844,7400,1974,13,1030,,Active,September-21-2024 01:00 PM,September-21-2024 04:00 PM,https://www.redfin.com/CA/San-Jose/7064-Anjou-Creek-Cir-95120/home/1374324,MLSListings,ML81979126,N,Y,37.206748,-121.8446299
MLS Listing,,Townhouse,123 W Reed St,San Jose,CA,95110,1680000,4,4.0,SAN JOSE,2168,,2024,13,775,245,Active,,,https://www.redfin.com/CA/San-Jose/123-W-Reed-St-95110/home/40028169,MLSListings,ML81979125,N,Y,37.3260624,-121.8859585
MLS Listing,,Single Family Residential,2481 Moorpark Ave,San Jose,CA,95128,1325000,3,1.0,SAN JOSE,1123,9148,1951,14,1180,,Active,,,https://www.redfin.com/CA/San-Jose/2481-Moorpark-Ave-95128/home/1118248,MLSListings,ML81979115,N,Y,37.3163296,-121.9375695
MLS Listing,,Condo/Co-op,573 Giuffrida Ave Unit B,San Jose,CA,95123,899800,3,2.5,SAN JOSE,1520,,1979,14,592,453,Active,,,https://www.redfin.com/CA/San-Jose/573-Giuffrida-Ave-95123/unit-B/home/1817391,MLSListings,ML81977358,N,Y,37.2533273,-121.8350779
MLS Listing,,Single Family Residential,1323 Glenwood Ave,San Jose,CA,95125,2799000,4,3.0,SAN JOSE,2365,5100,1936,14,1184,,Active,,,https://www.redfin.com/CA/San-Jose/1323-Glenwood-Ave-95125/home/843924,MLSListings,ML81977958,N,Y,37.2975543,-121.9026287
MLS Listing,,Single Family Residential,4884 Mccoy Ave,San Jose,CA,95130,2088999,3,2.0,SAN JOSE,1201,5663,1959,14,1739,,Active,,,https://www.redfin.com/CA/San-Jose/4884-McCoy-Ave-95130/home/1516939,MLSListings,ML81979087,N,Y,37.2761181,-121.9862445
MLS Listing,,Single Family Residential,6016 Afton Ct,San Jose,CA,95123,1499000,3,2.0,SAN JOSE,1723,6098,1970,14,870,,Active,,,https://www.redfin.com/CA/San-Jose/6016-Afton-Ct-95123/home/589788,MLSListings,ML81979065,N,Y,37.2394917,-121.8589997
MLS Listing,,Townhouse,3454 Buckeye Dr,San Jose,CA,95111,698888,3,2.5,SAN JOSE,1249,1360,1969,14,560,338,Active,,,https://www.redfin.com/CA/San-Jose/3454-Buckeye-Dr-95111/home/898116,MLSListings,ML81979064,N,Y,37.2881159,-121.8314284
MLS Listing,,Townhouse,208 Fairway Glen Ln,,CA,95139,825000,3,2.0,,1220,896,1972,14,676,492,Active,,,https://www.redfin.com/CA/San-Jose/208-Fairway-Glen-Ln-95139/home/1555988,GEMLS,202408649,N,Y,37.2240095,-121.7761623
MLS Listing,,Single Family Residential,178 Kayak Dr,San Jose,CA,95111,1100000,3,2.0,San Jose,1080,5600,1961,14,1019,,Active,September-21-2024 01:00 PM,September-21-2024 03:00 PM,https://www.redfin.com/CA/San-Jose/178-Kayak-Dr-95111/home/1771921,"bridgeMLS, Bay East AOR, or Contra Costa AOR",41071708,N,Y,37.2627746,-121.8077264
MLS Listing,,Single Family Residential,3054 Silverland Dr,San Jose,CA,95135,2688000,4,3.0,SAN JOSE,2663,5227,1995,14,1009,,Active,September-21-2024 01:00 PM,September-21-2024 04:30 PM,https://www.redfin.com/CA/San-Jose/3054-Silverland-Dr-95135/home/958046,MLSListings,ML81979049,N,Y,37.3127082,-121.7807728
MLS Listing,,Condo/Co-op,247 N Capitol Ave #175,San Jose,CA,95127,525000,2,2.0,SAN JOSE,955,,1977,14,550,405,Active,September-21-2024 01:00 PM,September-21-2024 04:00 PM,https://www.redfin.com/CA/San-Jose/247-N-Capitol-Ave-95127/unit-175/home/1016166,MLSListings,ML81979047,N,Y,37.3682271,-121.8417657
MLS Listing,,Townhouse,1815 Newbury Park Dr,San Jose,CA,95133,1268000,4,3.5,SAN JOSE,1714,,2016,14,740,250,Active,,,https://www.redfin.com/CA/San-Jose/1815-Newbury-Park-Dr-95133/home/143043461,MLSListings,ML81977685,N,Y,37.3667768,-121.8664159
MLS Listing,,Townhouse,635 Redberry Way Unit 300-29,San Jose,CA,95117,1518750,3,2.5,W.SAN JOSE,1536,,2024,14,989,270,Active,September-20-2024 10:00 AM,September-20-2024 04:30 PM,https://www.redfin.com/CA/San-Jose/635-Redberry-Way-95117/unit-300-29/home/192359670,"bridgeMLS, Bay East AOR, or Contra Costa AOR",41071926,N,Y,37.3176139,-121.9555856
MLS Listing,,Single Family Residential,612 Chelsea Xing,San Jose,CA,95138,1775000,4,2.5,SAN JOSE,2372,3920,1998,14,748,40,Active,,,https://www.redfin.com/CA/San-Jose/612-Chelsea-Xing-95138/home/1350437,MLSListings,ML81979069,N,Y,37.2420451,-121.7593895
MLS Listing,,Single Family Residential,2638 Bon Bon Dr,San Jose,CA,95148,1399888,3,2.0,SAN JOSE,1487,5974,1967,14,941,,Active,,,https://www.redfin.com/CA/San-Jose/2638-Bon-Bon-Dr-95148/home/1745107,MLSListings,ML81977873,N,Y,37.3333204,-121.7973036
MLS Listing,,Multi-Family (5+ Unit),584 N 2nd St,San Jose,CA,95112,2300000,12,16.0,SAN JOSE,4644,9148,1949,14,495,,Active,,,https://www.redfin.com/CA/San-Jose/584-N-2nd-St-95112/home/674426,MLSListings,ML81979015,N,Y,37.3472371,-121.897015
MLS Listing,,Mobile/Manufactured Home,3637 Snell Ave #370,San Jose,CA,95136,248888,3,1.5,SAN JOSE,1080,,1970,14,230,,Active,,,https://www.redfin.com/CA/San-Jose/3637-Snell-Ave-95136/unit-370/home/192359256,MLSListings,ML81979013,N,Y,37.277596,-121.8483393
MLS Listing,,Condo/Co-op,38 N Almaden Blvd #403,San Jose,CA,95110,688000,1,1.0,SAN JOSE,868,,2008,14,793,588,Active,,,https://www.redfin.com/CA/San-Jose/38-N-Almaden-Blvd-95110/unit-403/home/17288134,MLSListings,ML81975884,N,Y,37.3348687,-121.8957681
MLS Listing,,Multi-Family (2-4 Unit),107 Eastwood Ct,San Jose,CA,95116,1199950,4,2.0,Alum Rock,1552,6098,1958,14,773,,Active,,,https://www.redfin.com/CA/San-Jose/107-Eastwood-Ct-95116/home/1552432,MetroList,224097994,N,Y,37.3537646,-121.8605815
MLS Listing,,Townhouse,1392 Trailside Ct,San Jose,CA,95138,1650000,3,2.5,SAN JOSE,2084,4228,2004,14,792,370,Active,,,https://www.redfin.com/CA/San-Jose/1392-Trailside-Ct-95138/home/1190657,MLSListings,ML81975585,N,Y,37.2868152,-121.8037901
MLS Listing,,Single Family Residential,1174 Royal Crest Dr,San Jose,CA,95131,1499888,4,2.5,SAN JOSE,1599,3485,1985,14,938,,Active,,,https://www.redfin.com/CA/San-Jose/1174-Royal-Crest-Dr-95131/home/1856286,MLSListings,ML81978977,N,Y,37.3763523,-121.8776541
MLS Listing,,Single Family Residential,2857 Norcrest Dr,San Jose,CA,95148,1999888,5,2.5,SAN JOSE,2072,10454,1978,14,965,,Active,,,https://www.redfin.com/CA/San-Jose/2857-Norcrest-Dr-95148/home/1298776,MLSListings,ML81978403,N,Y,37.3339617,-121.7743941
MLS Listing,,Single Family Residential,7189 Sharon Dr,San Jose,CA,95129,3290000,4,3.0,SAN JOSE,2971,7403,1989,14,1107,,Active,,,https://www.redfin.com/CA/San-Jose/7189-Sharon-Dr-95129/home/1792822,MLSListings,ML81978577,N,Y,37.2973149,-122.0298113
MLS Listing,,Single Family Residential,980 S 12th St,San Jose,CA,95112,949000,2,2.0,San Jose,936,4792,1910,14,1014,,Active,,,https://www.redfin.com/CA/San-Jose/980-S-12th-St-95112/home/1568105,MLSListings,ML81977122,N,Y,37.3270585,-121.8678465
MLS Listing,,Mobile/Manufactured Home,3637 Snell Ave #33,San Jose,CA,95136,395000,3,2.0,SAN JOSE,1588,,1996,14,249,,Active,,,https://www.redfin.com/CA/San-Jose/3637-Snell-Ave-95136/unit-33/home/63741489,MLSListings,ML81978935,N,Y,37.278857,-121.8449013
MLS Listing,,Single Family Residential,5172 Elrose Ave,San Jose,CA,95124,1999000,3,2.0,SAN JOSE,1560,6098,1968,14,1281,,Active,,,https://www.redfin.com/CA/San-Jose/5172-Elrose-Ave-95124/home/1283117,MLSListings,ML81978934,N,Y,37.2443187,-121.9136962
MLS Listing,,Single Family Residential,12630 Paseo Olivos,Saratoga,CA,95070,5298000,5,5.5,Saratoga,3681,10087,2024,14,1439,,Active,,,https://www.redfin.com/CA/Saratoga/12630-Paseo-Olivos-95070/home/733828,MLSListings,ML81964391,N,Y,37.2842269,-121.9952731
MLS Listing,,Single Family Residential,217 Oak Tree Cir,Los Gatos,CA,95032,2898000,4,3.5,LOS GATOS,2487,3351,2022,14,1165,235,Active,,,https://www.redfin.com/CA/Los-Gatos/217-Oak-Tree-Cir-95032/home/181208140,MLSListings,ML81978925,N,Y,37.2565995,-121.9517514
MLS Listing,,Multi-Family (2-4 Unit),1768 Senter Rd,San Jose,CA,95112,1298000,6,5.0,SAN JOSE,3280,8276,1962,15,396,,Active,,,https://www.redfin.com/CA/San-Jose/1768-Senter-Rd-95112/home/1015910,MLSListings,ML81978905,N,Y,37.3174437,-121.8572601
MLS Listing,,Condo/Co-op,2555 Gimelli Ct #67,San Jose,CA,95133,599000,2,2.0,BERRYESSA,975,,1981,15,614,493,Active,,,https://www.redfin.com/CA/San-Jose/2555-Gimelli-Ct-95133/unit-67/home/857743,"bridgeMLS, Bay East AOR, or Contra Costa AOR",41071416,N,Y,37.374305,-121.849622
MLS Listing,,Townhouse,1025 Gabbiano Ln #4,San Jose,CA,95131,1298800,4,3.5,SAN JOSE,1707,,2017,15,761,290,Active,,,https://www.redfin.com/CA/San-Jose/1025-Gabbiano-Ln-95131/unit-4/home/167214111,MLSListings,ML81978900,N,Y,37.3720868,-121.8787653
MLS Listing,,Single Family Residential,5844 Alcazar Dr,San Jose,CA,95123,1650000,3,2.5,SAN JOSE,1777,5663,1965,15,929,,Active,,,https://www.redfin.com/CA/San-Jose/5844-Alcazar-Dr-95123/home/1188805,MLSListings,ML81978742,N,Y,37.2446979,-121.8437998
MLS Listing,,Single Family Residential,2032 Starfish Ct,San Jose,CA,95148,1150000,3,2.0,SAN JOSE,1106,6098,1975,15,1040,,Active,,,https://www.redfin.com/CA/San-Jose/2032-Starfish-Ct-95148/home/637479,MLSListings,ML81978890,N,Y,37.3416377,-121.808105
MLS Listing,,Single Family Residential,5339 Alan Ave,San Jose,CA,95124,2399888,4,2.0,SAN JOSE,1864,6970,1960,15,1287,,Active,,,https://www.redfin.com/CA/San-Jose/5339-Alan-Ave-95124/home/1758604,MLSListings,ML81978889,N,Y,37.2412323,-121.9096814
MLS Listing,,Condo/Co-op,1550 Technology Dr #3027,San Jose,CA,95110,799000,2,2.0,SAN JOSE,1133,,2005,15,705,590,Active,,,https://www.redfin.com/CA/San-Jose/1550-Technology-Dr-95110/unit-3027/home/2125000,MLSListings,ML81978883,N,Y,37.3629424,-121.9146423
MLS Listing,,Multi-Family (5+ Unit),931 Ravenscourt Ave,Campbell,CA,95008,4300000,24,12.0,CAMPBELL,9600,20348,1962,15,448,,Active,,,https://www.redfin.com/CA/San-Jose/931-Ravenscourt-Ave-95128/home/725244,MLSListings,ML81978868,N,Y,37.300505,-121.940078
MLS Listing,,Multi-Family (2-4 Unit),935 Ravenscourt Ave,Campbell,CA,95008,1900000,8,4.0,CAMPBELL,3200,6525,1962,15,594,,Active,,,https://www.redfin.com/CA/San-Jose/935-Ravenscourt-Ave-95128/home/1686448,MLSListings,ML81978861,N,Y,37.3008674,-121.9401692
MLS Listing,,Single Family Residential,5521 Country Club Pkwy,San Jose,CA,95138,3788000,4,4.5,SAN JOSE,3906,16117,2000,15,970,205,Active,,,https://www.redfin.com/CA/San-Jose/5521-Country-Club-Pkwy-95138/home/1545778,MLSListings,ML81978846,N,Y,37.2730915,-121.7727852
MLS Listing,,Multi-Family (2-4 Unit),212-214 N 17th St,San Jose,CA,95112,990000,2,2.0,SAN JOSE,1680,5663,1949,15,589,,Active,,,https://www.redfin.com/CA/San-Jose/212-N-17th-St-95112/home/1180675,MLSListings,ML81976637,N,Y,37.3472622,-121.8765626
MLS Listing,,Single Family Residential,1374 Delano Ct,San Jose,CA,95121,1288000,4,2.0,SAN JOSE,1703,6240,1969,15,756,,Active,,,https://www.redfin.com/CA/San-Jose/1374-Delano-Ct-95121/home/1770214,MLSListings,ML81978818,N,Y,37.3057619,-121.8207536
MLS Listing,,Single Family Residential,1808 W Hedding St,San Jose,CA,95126,1895000,3,2.0,SAN JOSE,2195,7405,1952,15,863,,Active,,,https://www.redfin.com/CA/San-Jose/1808-W-Hedding-St-95126/home/1279767,MLSListings,ML81978610,N,Y,37.3327669,-121.9330673
MLS Listing,,Condo/Co-op,2567 Easton Ln #23,San Jose,CA,95133,599000,2,2.0,SAN JOSE,975,,1981,15,614,490,Active,,,https://www.redfin.com/CA/San-Jose/2567-Easton-Ln-95133/unit-23/home/1642169,MLSListings,ML81978800,N,Y,37.3747514,-121.8501667
MLS Listing,,Single Family Residential,1245 Fremont St,San Jose,CA,95126,3195000,5,3.5,SAN JOSE,3087,13005,1906,15,1035,,Active,,,https://www.redfin.com/CA/San-Jose/1245-Fremont-St-95126/home/1578811,MLSListings,ML81978797,N,Y,37.3337536,-121.919066
MLS Listing,,Condo/Co-op,1390 Saddle Rack St #349,San Jose,CA,95126,988000,3,2.0,SAN JOSE,1407,,2004,15,702,551,Active,,,https://www.redfin.com/CA/San-Jose/1390-Saddle-Rack-St-95126/unit-349/home/1051613,MLSListings,ML81978420,N,Y,37.320181,-121.9131574
MLS Listing,,Single Family Residential,1125 Flaxwood St,San Jose,CA,95120,2299000,3,2.5,SAN JOSE,2378,7841,1986,15,967,,Active,,,https://www.redfin.com/CA/San-Jose/1125-Flaxwood-St-95120/home/1636078,MLSListings,ML81978768,N,Y,37.2373027,-121.8755576
MLS Listing,,Single Family Residential,1124 Summerdale Dr,San Jose,CA,95132,1988888,5,3.0,SAN JOSE,2533,5663,1975,15,785,,Active,,,https://www.redfin.com/CA/San-Jose/1124-Summerdale-Dr-95132/home/1730469,MLSListings,ML81977118,N,Y,37.3906191,-121.8523175
MLS Listing,,Condo/Co-op,8457 Traminer Ct,San Jose,CA,95135,679000,2,2.0,SAN JOSE,1497,,1978,15,454,1208,Active,,,https://www.redfin.com/CA/San-Jose/8457-Traminer-Ct-95135/home/669370,MLSListings,ML81978766,N,Y,37.2833314,-121.7532986
MLS Listing,,Single Family Residential,1880 Heatherdale Ave,San Jose,CA,95126,1499888,4,2.0,SAN JOSE,1718,6360,1946,15,873,,Active,,,https://www.redfin.com/CA/San-Jose/1880-Heatherdale-Ave-95126/home/1353444,MLSListings,ML81977783,N,Y,37.3371333,-121.9359932
MLS Listing,,Single Family Residential,3562 Williams Rd,San Jose,CA,95117,2350000,4,3.0,Campbell,2528,6098,1961,15,930,,Active,September-21-2024 01:00 PM,September-21-2024 04:00 PM,https://www.redfin.com/CA/San-Jose/3562-Williams-Rd-95117/home/1199592,BAREIS,324064277,N,Y,37.3085046,-121.9621519
