SALE TYPE,SOLD DATE,PROPERTY TYPE,ADDRESS,CITY,STATE OR PROVINCE,ZIP OR POSTAL CODE,PRICE,BEDS,BATHS,LOCATION,SQUARE FEET,LOT SIZE,YEAR BUILT,DAYS ON MARKET,$/SQUARE FEET,HOA/MONTH,STATUS,NEXT OPEN HOUSE START TIME,NEXT OPEN HOUSE END TIME,URL (SEE https://www.redfin.com/buy-a-home/comparative-market-analysis FOR INFO ON PRICING),SOURCE,MLS#,FAVORITE,INTERESTED,LATITUDE,LONGITUDE
MLS Listing,,Single Family Residential,25631 Weigela,San Antonio,TX,78261-2821,469999,4,2.5,The Preserve At Indian Springs,3478,6838,2010,1,135,48,Active,,,https://www.redfin.com/TX/San-Antonio/25631-Weigela-78261/home/48701948,Sabor,1809406,N,Y,29.6820386,-98.4271944
MLS Listing,,Single Family Residential,234 Butternut Blvd,San Antonio,TX,78245-2936,314999,5,3.5,Chestnut Springs,3506,5488,2007,5,90,10,Active,,,https://www.redfin.com/TX/San-Antonio/234-Butternut-Blvd-78245/home/48659231,Sabor,1807837,N,Y,29.4352495,-98.6643457
MLS Listing,,Single Family Residential,3510 Alamo Grns,San Antonio,TX,78261-2390,274998,3,2.0,Bulverde Village-blkhwk/crkhvn,1248,5532,2005,5,220,44,Active,,,https://www.redfin.com/TX/San-Antonio/3510-Alamo-Grns-78261/home/48646254,Sabor,1803984,N,Y,29.673089,-98.426329
MLS Listing,,Single Family Residential,1322 Arrow Stone,San Antonio,TX,78258-3234,375000,4,2.0,Mount Arrowhead,2009,7056,1997,8,187,18,Active,,,https://www.redfin.com/TX/San-Antonio/1322-Arrow-Stone-78258/home/49071656,Sabor,1793034,N,Y,29.6362228,-98.4979617
MLS Listing,,Single Family Residential,7339 Hardesty,San Antonio,TX,78250-3333,215000,2,1.0,Northwest Crossing,892,4791,1982,9,241,20,Active,,,https://www.redfin.com/TX/San-Antonio/7339-Hardesty-78250/home/49102282,Sabor,1801785,N,Y,29.5079558,-98.6865738
MLS Listing,,Mobile/Manufactured Home,15119 Pioneer Way,San Antonio,TX,78245-9661,250000,4,2.0,Pioneer Estates,2424,25961,1992,12,103,,Active,,,https://www.redfin.com/TX/San-Antonio/15119-Pioneer-Way-78245/home/48762820,Sabor,1805963,N,Y,29.3699327,-98.7959639
MLS Listing,,Single Family Residential,5817 Royal Clb,San Antonio,TX,78239-1406,249900,2,2.0,Royal Ridge,1570,5270,1976,15,159,43,Active,,,https://www.redfin.com/TX/San-Antonio/5817-Royal-Clb-78239/home/49037579,Sabor,1804477,N,Y,29.5359668,-98.3735891
MLS Listing,,Vacant Land,2923 W Travis St,San Antonio,TX,78207-3357,64998,,,26th/zarzamora,7350,7361,,19,9,,Active,,,https://www.redfin.com/TX/San-Antonio/2923-W-Travis-St-78207/home/48739442,Sabor,1804504,N,Y,29.4301821,-98.5274741
MLS Listing,,Single Family Residential,9403 Arden Bnd,San Antonio,TX,78250-2711,234900,3,2.0,New Territories,1562,5488,1991,19,150,,Active,,,https://www.redfin.com/TX/San-Antonio/9403-Arden-Bnd-78250/home/49115195,Sabor,1803546,N,Y,29.5256707,-98.6826194
MLS Listing,,Single Family Residential,618 Oxalis,San Antonio,TX,78260-4378,590000,4,3.0,Terra Bella,3217,9104,2007,19,183,83,Active,,,https://www.redfin.com/TX/San-Antonio/618-Oxalis-78260/home/48674067,Sabor,1804249,N,Y,29.6628802,-98.5049567
MLS Listing,,Townhouse,623 E Euclid Ave,San Antonio,TX,78212-4416,475000,2,2.5,Five Points,1470,2178,2007,23,323,,Active,,,https://www.redfin.com/TX/San-Antonio/623-E-Euclid-Ave-78212/home/48724998,Sabor,1803970,N,Y,29.440692,-98.488745
MLS Listing,,Single Family Residential,7333 Yucca Pl,San Antonio,TX,78253-4199,319900,3,2.5,Winding Brook,2306,4922,2021,23,139,50,Active,,,https://www.redfin.com/TX/San-Antonio/7333-Yucca-Pl-78253/home/176686490,Sabor,1803806,N,Y,29.5066288,-98.7584104
MLS Listing,,Single Family Residential,14455 Camperdown,San Antonio,TX,78245-3925,469999,4,4.0,Ladera North Ridge,2763,7143,2020,26,170,61,Active,,,https://www.redfin.com/TX/San-Antonio/14455-Camperdown-78245/home/177416912,Sabor,1802411,N,Y,29.4049088,-98.7832646
MLS Listing,,Single Family Residential,1526 Stony Island Dr,San Antonio,TX,78245-4074,359500,3,2.0,Arcadia Ridge Phase 1 - Bexar,1754,5880,2021,27,205,35,Active,,,https://www.redfin.com/TX/San-Antonio/1526-Stony-Island-Dr-78245/home/177417169,Sabor,1801801,N,Y,29.4164238,-98.7554523
MLS Listing,,Single Family Residential,12427 LA Albada St,San Antonio,TX,78233-5934,265000,4,2.0,El Dorado,1878,9931,1972,33,141,,Active,,,https://www.redfin.com/TX/San-Antonio/12427-La-Albada-St-78233/home/48984180,Sabor,1799203,N,Y,29.5546084,-98.389271
MLS Listing,,Single Family Residential,402 Elmhurst Ave,San Antonio,TX,78209-6610,799998,4,3.0,Mahncke Park,3068,10715,1928,35,261,,Active,,,https://www.redfin.com/TX/San-Antonio/402-Elmhurst-Ave-78209/home/48852239,Sabor,1796087,N,Y,29.4592495,-98.4628405
MLS Listing,,Single Family Residential,19 Atwell Park,San Antonio,TX,78254-5700,389500,4,2.5,Finesilver,2425,6621,2003,36,161,73,Active,September-28-2024 01:00 PM,September-28-2024 03:00 PM,https://www.redfin.com/TX/San-Antonio/19-Atwell-Park-78254/home/48625001,Sabor,1800788,N,Y,29.5325251,-98.665151
MLS Listing,,Single Family Residential,514 Englewood Ln,Castroville,TX,78009,650000,3,2.5,Potranco Oaks,2526,17859,2022,41,257,13,Active,,,https://www.redfin.com/TX/Castroville/514-Englewood-Ln-78009/home/176574346,Sabor,1797067,N,Y,29.428816,-98.832933
MLS Listing,,Vacant Land,24332 Tres Arroyos,San Antonio,TX,78255,215000,,,The Palmira,30208,30230,,41,7,66,Active,,,https://www.redfin.com/TX/San-Antonio/24332-Tres-Arroyos-78255/home/183493008,Sabor,1796852,N,Y,29.669052,-98.7094914
MLS Listing,,Single Family Residential,4955 Usaa Blvd,San Antonio,TX,78240-1785,470000,5,3.0,Garrison,2314,7840,2021,47,203,85,Active,,,https://www.redfin.com/TX/San-Antonio/4955-Usaa-Blvd-78240/home/177398254,Sabor,1798180,N,Y,29.5359961,-98.5834556
MLS Listing,,Single Family Residential,406 S Rolling Vw,San Antonio,TX,78253-5380,539999,3,2.5,Rolling Oaks Estates,2087,65340,2003,48,259,,Active,,,https://www.redfin.com/TX/San-Antonio/406-S-Rolling-Vw-78253/home/48776995,Sabor,1793471,N,Y,29.427865,-98.7620355
MLS Listing,,Single Family Residential,28027 Amalfi,San Antonio,TX,78260-4446,695000,4,3.0,Valencia Park Enclave,2947,22738,2018,48,236,52,Active,,,https://www.redfin.com/TX/San-Antonio/28027-Amalfi-78260/home/167610562,Sabor,1795102,N,Y,29.7159567,-98.5070392
MLS Listing,,Single Family Residential,2502 Steepleway,San Antonio,TX,78248-2207,505000,4,3.0,The Village At Inwood,2625,8668,1994,50,192,60,Active,,,https://www.redfin.com/TX/San-Antonio/2502-Steepleway-78248/home/49117944,Sabor,1796385,N,Y,29.600248,-98.5276758
MLS Listing,,Single Family Residential,218 Lanark Dr,San Antonio,TX,78218-1822,199500,3,1.0,East Terrell Hills,1405,7622,1958,51,142,,Active,,,https://www.redfin.com/TX/San-Antonio/218-Lanark-Dr-78218/home/48947375,Sabor,1794994,N,Y,29.503076,-98.4137329
MLS Listing,,Single Family Residential,1031 Sundance Hunt,San Antonio,TX,78245-3461,262000,3,2.5,Sundance Square,1937,5357,2010,61,135,68,Active,,,https://www.redfin.com/TX/San-Antonio/1031-Sundance-Hunt-78245/home/48710668,Sabor,1793020,N,Y,29.4219106,-98.7559518
MLS Listing,,Single Family Residential,10735 Bayhill Den,San Antonio,TX,78245-2405,290000,3,2.5,Wolf Creek,2156,6272,2010,62,135,21,Active,,,https://www.redfin.com/TX/San-Antonio/10735-Bayhill-Den-78245/home/48692068,Sabor,1793628,N,Y,29.4116601,-98.7031555
MLS Listing,,Single Family Residential,6123 Cedar Valley Dr,San Antonio,TX,78242-1513,187400,3,1.0,Lackland City,936,9931,1964,62,200,,Active,,,https://www.redfin.com/TX/San-Antonio/6123-Cedar-Valley-Dr-78242/home/49002766,Sabor,1793059,N,Y,29.3629495,-98.6235192
MLS Listing,,Single Family Residential,161 Carle Ave,San Antonio,TX,78204-2948,385000,4,2.5,S Durango/probandt,2112,7622,1947,68,182,,Active,,,https://www.redfin.com/TX/San-Antonio/161-Carle-Ave-78204/home/48856700,Sabor,1791193,N,Y,29.3972785,-98.4985461
MLS Listing,,Single Family Residential,1639 Autumn Woods St,San Antonio,TX,78232-4711,337000,3,2.0,Heritage Park Estate,1695,5227,1974,68,199,,Active,,,https://www.redfin.com/TX/San-Antonio/1639-Autumn-Woods-St-78232/home/48999645,Sabor,1791458,N,Y,29.5725127,-98.4682992
MLS Listing,,Single Family Residential,12618 Point Sound,San Antonio,TX,78253-5268,234999,3,2.0,Highpoint At Westcreek,1240,5488,2004,68,190,66,Active,,,https://www.redfin.com/TX/San-Antonio/12618-Point-Sound-78253/home/48634472,Sabor,1790968,N,Y,29.4379573,-98.7441508
MLS Listing,,Single Family Residential,526 Retama Pass,San Antonio,TX,78219-1839,289998,4,3.0,Willow Pointe Enclave,2024,5270,2021,68,143,29,Active,,,https://www.redfin.com/TX/San-Antonio/526-Retama-Pass-78219/home/177421130,Sabor,1791298,N,Y,29.4297025,-98.3638329
MLS Listing,,Single Family Residential,25 Cutter Green Dr,San Antonio,TX,78248-2413,580000,4,2.5,Hollow At Inwood,2740,7971,1994,69,212,83,Active,,,https://www.redfin.com/TX/San-Antonio/25-Cutter-Green-Dr-78248/home/49119058,Sabor,1790468,N,Y,29.5974029,-98.5380842
MLS Listing,,Single Family Residential,314 Basswood Dr,San Antonio,TX,78213-2903,209900,3,1.0,Greenfield Village,903,10149,1954,75,232,,Active,,,https://www.redfin.com/TX/San-Antonio/314-Basswood-Dr-78213/home/48914629,Sabor,1789478,N,Y,29.5036483,-98.5330077
MLS Listing,,Single Family Residential,23515 Avila Rdg,San Antonio,TX,78255-4404,1549998,5,5.0,Canyons At Scenic Loop,4934,24088,2015,75,314,100,Active,,,https://www.redfin.com/TX/San-Antonio/23515-Avila-Rdg-78255/home/102396121,Sabor,1783274,N,Y,29.6610406,-98.6891455
MLS Listing,,Single Family Residential,11150 Elk Park,San Antonio,TX,78249-4244,362499,4,2.5,Parkwood,3005,7100,1989,75,121,21,Active,,,https://www.redfin.com/TX/San-Antonio/11150-Elk-Park-78249/home/49124708,Sabor,1789593,N,Y,29.5549717,-98.6310281
MLS Listing,,Townhouse,6631 Crown Rdg,San Antonio,TX,78239-1511,140000,2,2.0,Crownridge,1576,2787,1973,77,89,310,Active,,,https://www.redfin.com/TX/San-Antonio/6631-Crown-Rdg-78239/home/48974603,Sabor,1775125,N,Y,29.5379776,-98.3664862
MLS Listing,,Single Family Residential,466 Menlo Blvd,San Antonio,TX,78223-2404,105555,3,1.0,Highland Hills,1275,6838,1953,85,83,,Active,,,https://www.redfin.com/TX/San-Antonio/466-Menlo-Blvd-78223/home/48913377,Sabor,1787504,N,Y,29.3765383,-98.4333718
MLS Listing,,Single Family Residential,1807 Aspen Silver,San Antonio,TX,78245-4741,314998,4,2.5,Laurel Mountain Ranch,2325,5401,2017,85,135,33,Active,,,https://www.redfin.com/TX/San-Antonio/1807-Aspen-Silver-78245/home/113764019,Sabor,1779912,N,Y,29.4136266,-98.7243323
MLS Listing,,Single Family Residential,9959 Panther Bay,San Antonio,TX,78245-1780,214998,3,2.5,Sunset,1698,4835,2000,89,127,16,Active,,,https://www.redfin.com/TX/San-Antonio/9959-Panther-Bay-78245/home/49150869,Sabor,1784094,N,Y,29.4085244,-98.6892659
MLS Listing,,Single Family Residential,13607 Sonora Blf,Helotes,TX,78023-3639,299990,3,2.0,Sonoma Arbor,1579,6490,2004,90,190,37,Active,,,https://www.redfin.com/TX/Helotes/13607-Sonora-Blf-78023/home/48634708,Sabor,1784322,N,Y,29.571245,-98.6613415
MLS Listing,,Single Family Residential,2518 Brighton Oaks,San Antonio,TX,78231-2251,574998,3,2.5,Summerfield,2578,8581,1996,96,223,160,Active,,,https://www.redfin.com/TX/San-Antonio/2518-Brighton-Oaks-78231/home/49117714,Sabor,1782395,N,Y,29.5613046,-98.5344769
MLS Listing,,Single Family Residential,310 Florida St,San Antonio,TX,78210-1516,519999,2,2.0,Lavaca,1662,7753,1908,110,313,,Active,,,https://www.redfin.com/TX/San-Antonio/310-Florida-St-78210/home/48746171,Sabor,1779512,N,Y,29.407497,-98.4827208
MLS Listing,,Single Family Residential,2003 Kerrisdale Dr,San Antonio,TX,78260,849999,5,5.5,Royal Oaks Estates,3708,14505,2022,124,229,71,Active,,,https://www.redfin.com/TX/San-Antonio/2003-Kerrisdale-Dr-78260/home/169085266,Sabor,1774983,N,Y,29.6950957,-98.4608153
MLS Listing,,Single Family Residential,2335 Castello Way,San Antonio,TX,78259-3712,545000,4,3.5,Sienna,2829,6011,2018,156,193,50,Active,,,https://www.redfin.com/TX/San-Antonio/2335-Castello-Way-78259/home/148003080,Sabor,1761477,N,Y,29.6198375,-98.4505344
MLS Listing,,Single Family Residential,7122 Turnbow,San Antonio,TX,78252-4411,325000,4,2.5,Luckey Ranch,2789,7753,2018,166,117,37,Active,,,https://www.redfin.com/TX/San-Antonio/7122-Turnbow-78252/home/143903300,Sabor,1761761,N,Y,29.3589981,-98.7329335
MLS Listing,,Single Family Residential,406 S San Gabriel Ave,San Antonio,TX,78237-1942,179999,3,2.0,West Lawn Area 5,1378,5880,1947,173,131,,Active,,,https://www.redfin.com/TX/San-Antonio/406-S-San-Gabriel-Ave-78237/home/48884236,Sabor,1761760,N,Y,29.4266963,-98.5606404
Redfin Data,,Single Family Residential,5827 Gomer Pyle,San Antonio,TX,78240,309990,3,2.0,San Antonio,1608,16530,1971,2,193,,Pre On-Market,,,https://www.redfin.com/TX/San-Antonio/5827-Gomer-Pyle-78240/home/48993060,Coming Soon,101643,N,Y,29.5051431,-98.6023039
Redfin Data,,Single Family Residential,8322 Border Pass Dr,San Antonio,TX,78240,334999,4,2.5,San Antonio,2660,9207,1994,7,126,,Pre On-Market,,,https://www.redfin.com/TX/San-Antonio/8322-Border-Pass-Dr-78240/home/49120085,Coming Soon,101624,N,Y,29.5161614,-98.6174325
Redfin Data,,Condo/Co-op,610 E Market St #2510,San Antonio,TX,78205,698000,2,2.0,San Antonio,1533,,2007,40,455,,Pre On-Market,,,https://www.redfin.com/TX/San-Antonio/610-E-Market-St-78205/unit-2510/home/48678230,Coming Soon,100961,N,Y,29.4220385,-98.4842501
Redfin Data,,Single Family Residential,18343 Valencia Vis,San Antonio,TX,78259,539998,3,3.5,San Antonio,2772,7191,2013,56,195,,Pre On-Market,,,https://www.redfin.com/TX/San-Antonio/18343-Valencia-Vis-78259/home/48717534,Coming Soon,100529,N,Y,29.6097227,-98.4195147
Redfin Data,,Single Family Residential,1102 Mount Eden Dr,San Antonio,TX,78213,495000,3,2.5,San Antonio,2695,11200,1960,75,184,,Pre On-Market,,,https://www.redfin.com/TX/San-Antonio/1102-Mount-Eden-Dr-78213/home/48961165,Coming Soon,100017,N,Y,29.5287046,-98.5097589
MLS Listing,,Single Family Residential,6819 Loma Secca,San Antonio,TX,78233-5395,299990,3,2.5,Loma Vista,2200,5052,2014,1,136,21,Active,,,https://www.redfin.com/TX/San-Antonio/6819-Loma-Secca-78233/home/48678383,Sabor,1809617,N,Y,29.5626805,-98.3540496
MLS Listing,,Single Family Residential,942 Vermont St,San Antonio,TX,78211,185000,3,1.0,Harlandale,1080,6272,1952,1,171,,Active,,,https://www.redfin.com/TX/San-Antonio/942-Vermont-St-78211/home/48889097,Sabor,1809615,N,Y,29.378477,-98.5186121
MLS Listing,,Single Family Residential,104 Shenandoah,San Antonio,TX,78210,350000,3,2.5,Denver Heights,1552,5270,2022,1,226,30,Active,,,https://www.redfin.com/TX/San-Antonio/104-Shenandoah-St-78210/home/187774163,Sabor,1809612,N,Y,29.4104293,-98.4659634
MLS Listing,,Single Family Residential,9851 Forestier Grn,San Antonio,TX,78221,289965,3,2.5,Hacienda,1681,3920,2023,1,172,33,Active,,,https://www.redfin.com/TX/San-Antonio/9851-Forestier-Grn-78221/home/192602228,Sabor,1809611,N,Y,29.3192478,-98.4903638
MLS Listing,,Single Family Residential,3526 Angus Xing,San Antonio,TX,78245,270000,3,2.0,Stoney Creek,1296,4791,2022,1,208,37,Active,,,https://www.redfin.com/TX/San-Antonio/3526-Angus-Xing-78245/home/176841635,Sabor,1809601,N,Y,29.394561,-98.730461
MLS Listing,,Single Family Residential,330 Covina,San Antonio,TX,78218,209995,2,1.0,East Terrell Hills,1291,8058,1958,1,163,,Active,September-22-2024 01:00 PM,September-22-2024 04:00 PM,https://www.redfin.com/TX/San-Antonio/330-Covina-Ave-78218/home/48952219,Sabor,1809598,N,Y,29.4980409,-98.4049628
MLS Listing,,Single Family Residential,9665 Holly Patch,San Antonio,TX,78254-2279,329000,4,2.0,Valley Ranch - Bexar County,1904,5967,2020,1,173,67,Active,,,https://www.redfin.com/TX/San-Antonio/9665-Holly-Patch-78254/home/173254676,Sabor,1809591,N,Y,29.5340322,-98.761218
MLS Listing,,Single Family Residential,339 Cedron Chase,San Antonio,TX,78253,265000,3,2.5,Villas Of Westcreek,1808,4878,2006,1,147,22,Active,,,https://www.redfin.com/TX/San-Antonio/339-Cedron-Chase-78253/home/48633871,Sabor,1809589,N,Y,29.4302481,-98.7401155
MLS Listing,,Single Family Residential,426 Maplewood Ln,San Antonio,TX,78216-6849,244999,3,2.0,Ridgeview,1194,9016,1954,1,205,,Active,,,https://www.redfin.com/TX/San-Antonio/426-Maplewood-Ln-78216/home/48942537,Sabor,1809587,N,Y,29.5074617,-98.4850848
MLS Listing,,Single Family Residential,931 Canton,San Antonio,TX,78202-3204,249999,3,2.0,E Houston So To Hedgessa,1300,6403,2024,1,192,,Active,,,https://www.redfin.com/TX/San-Antonio/931-Canton-78202/home/48857399,Sabor,1809586,N,Y,29.4245361,-98.4460363
MLS Listing,,Single Family Residential,339 W Woodlawn Ave,San Antonio,TX,78212-3312,1389000,7,5.5,Monte Vista,6297,17728,1940,1,221,,Active,,,https://www.redfin.com/TX/San-Antonio/339-W-Woodlawn-Ave-78212/home/48733289,Sabor,1809581,N,Y,29.4532463,-98.499125
MLS Listing,,Single Family Residential,5863 Spring Cabin,San Antonio,TX,78247-1962,245000,3,2.5,Spring Creek Forest,1534,4312,1987,1,160,,Active,,,https://www.redfin.com/TX/San-Antonio/5863-Spring-Cabin-78247/home/49061352,Sabor,1809578,N,Y,29.5781632,-98.3809271
MLS Listing,,Single Family Residential,613 Indianola St,San Antonio,TX,78210-1082,700000,3,2.0,Lavaca,1878,4573,2005,1,373,,Active,September-22-2024 11:00 AM,September-22-2024 03:00 PM,https://www.redfin.com/TX/San-Antonio/613-Indianola-St-78210/home/48649927,Sabor,1809569,N,Y,29.416289,-98.4853949
MLS Listing,,Single Family Residential,419 N Monumental,San Antonio,TX,78202-2927,399000,3,3.0,Dignowity Hill Hist Dist,1603,5096,1945,1,249,,Active,,,https://www.redfin.com/TX/San-Antonio/419-N-Monumental-78202/home/48728262,Sabor,1809566,N,Y,29.4244962,-98.4682244
MLS Listing,,Single Family Residential,4007 Goliad Frd,San Antonio,TX,78222,235000,4,2.0,Riposa Vita,1703,5379,2016,1,138,27,Active,,,https://www.redfin.com/TX/San-Antonio/4007-Goliad-Frd-78222/home/110108220,Sabor,1809567,N,Y,29.3825093,-98.3815287
MLS Listing,,Single Family Residential,2639 Amber Vw,San Antonio,TX,78261,549900,5,5.5,Trinity Oaks,4109,12497,2009,1,134,53,Active,,,https://www.redfin.com/TX/San-Antonio/2639-Amber-Vw-78261/home/48672944,Sabor,1809561,N,Y,29.7034061,-98.4462195
MLS Listing,,Single Family Residential,4602 Christopher St,San Antonio,TX,78222,334500,4,3.0,Salado Creek,2473,5662,2024,1,135,27,Active,,,https://www.redfin.com/TX/San-Antonio/4602-Christopher-St-78222/home/192598554,Sabor,1809558,N,Y,29.3492616,-98.4033759
MLS Listing,,Single Family Residential,4618 Christopher St,San Antonio,TX,78223,305500,3,2.5,Salado Creek,1858,5662,2024,1,164,27,Active,,,https://www.redfin.com/TX/San-Antonio/4618-Christopher-St-78222/home/192598316,Sabor,1809556,N,Y,29.3492616,-98.4033759
MLS Listing,,Single Family Residential,4607 Christopher St,San Antonio,TX,78223,282500,3,2.0,Salado Creek,1535,5662,2024,1,184,27,Active,,,https://www.redfin.com/TX/San-Antonio/4607-Christopher-St-78222/home/192598283,Sabor,1809553,N,Y,29.3492616,-98.4033759
MLS Listing,,Single Family Residential,4614 Christopher St,San Antonio,TX,78223,282500,3,2.0,Salado Creek,1535,5662,2024,1,184,27,Active,,,https://www.redfin.com/TX/San-Antonio/4614-Christopher-St-78222/home/192598264,Sabor,1809551,N,Y,29.3492616,-98.4033759
MLS Listing,,Single Family Residential,16418 Ledge Rock St,San Antonio,TX,78232-2516,425000,4,3.0,Thousand Oaks,2344,12414,1975,1,181,,Active,,,https://www.redfin.com/TX/San-Antonio/16418-Ledge-Rock-St-78232/home/49029393,Sabor,1803469,N,Y,29.5923776,-98.4562797
MLS Listing,,Vacant Land,5118 Gavilan Dr,San Antonio,TX,78242,68495,,,Hillside Acres,9450,9448,,1,7,,Active,,,https://www.redfin.com/TX/San-Antonio/5118-Gavilan-Dr-78242/home/49011945,Sabor,1809544,N,Y,29.350204,-98.598598
MLS Listing,,Single Family Residential,4334 Moana Dr,San Antonio,TX,78218,244800,3,2.0,East Terrell Hills,1325,7840,1961,1,185,,Active,,,https://www.redfin.com/TX/San-Antonio/4334-Moana-Dr-78218/home/48949856,Sabor,1809542,N,Y,29.4938132,-98.4075983
MLS Listing,,Single Family Residential,725 Westfall Ave,San Antonio,TX,78210-2222,320000,3,2.0,Denver Heights,1286,7492,1930,1,249,,Active,,,https://www.redfin.com/TX/San-Antonio/725-Westfall-Ave-78210/home/48730846,Sabor,1809540,N,Y,29.4030524,-98.4646407
MLS Listing,,Single Family Residential,210 Felisa St,San Antonio,TX,78210-4612,280000,3,4.0,Riverside Park,1508,7100,1928,1,186,,Active,,,https://www.redfin.com/TX/San-Antonio/210-Felisa-St-78210/home/48759190,Sabor,1809541,N,Y,29.3904174,-98.488984
MLS Listing,,Single Family Residential,2507 E Commerce St,San Antonio,TX,78203-1957,299900,2,2.5,Jefferson Heights,1107,6621,2022,1,271,,Active,,,https://www.redfin.com/TX/San-Antonio/2507-E-Commerce-St-78203/home/187770961,Sabor,1809538,N,Y,29.4196725,-98.45422
MLS Listing,,Single Family Residential,4107 Big Mdws,San Antonio,TX,78230,200000,3,2.0,San Antonio,1350,8842,1968,1,148,15,Active,,,https://www.redfin.com/TX/San-Antonio/4107-Big-Meadows-St-78230/home/48979472,Sabor,1799529,N,Y,29.5418194,-98.5642002
MLS Listing,,Single Family Residential,4618 Daniel Crk,San Antonio,TX,78223,270300,4,2.5,Salado Creek,1900,5662,2024,1,142,27,Active,,,https://www.redfin.com/TX/San-Antonio/4618-Daniel-Crk-78222/home/192597714,Sabor,1809531,N,Y,29.3500849,-98.4038245
MLS Listing,,Single Family Residential,9010 Limestone Hl,San Antonio,TX,78254-6900,349900,3,2.5,Stonefield Estates,2570,6577,2000,1,136,29,Active,,,https://www.redfin.com/TX/San-Antonio/9010-Limestone-Hl-78254/home/49157344,Sabor,1809533,N,Y,29.5396541,-98.6622337
MLS Listing,,Single Family Residential,9927 Balboa Is,San Antonio,TX,78245,265000,3,2.5,Amber Creek,1807,5052,2017,1,147,28,Active,,,https://www.redfin.com/TX/San-Antonio/9927-Balboa-Is-78245/home/48716618,Sabor,1809529,N,Y,29.3901533,-98.6867032
MLS Listing,,Single Family Residential,4440 Kiowa Pass,San Antonio,TX,78245,301959,4,2.5,Melissa Ranch,2194,4181,2024,1,138,33,Active,,,https://www.redfin.com/TX/San-Antonio/4440-Kiowa-Pass-78232/home/191108961,Sabor,1809527,N,Y,29.3875464,-98.6889008
MLS Listing,,Single Family Residential,211 Clover Crk,San Antonio,TX,78245-2266,299000,3,2.5,Park Place,2579,9365,2000,1,116,16,Active,,,https://www.redfin.com/TX/San-Antonio/211-Clover-Crk-78245/home/49164052,Sabor,1809526,N,Y,29.4326337,-98.6952133
MLS Listing,,Single Family Residential,4451 Kiowa Pass,San Antonio,TX,78245,298180,4,2.5,Melissa Ranch,2093,4200,2024,1,142,67,Active,,,https://www.redfin.com/TX/San-Antonio/4451-Kiowa-Pass-78232/home/190086959,Sabor,1809525,N,Y,29.3872711,-98.6894362
MLS Listing,,Single Family Residential,9321 Trestle Crk,San Antonio,TX,78254,456365,3,4.0,Stillwater Ranch,1713,4791,2024,1,266,57,Active,,,https://www.redfin.com/TX/San-Antonio/9321-Trestle-Crk-78254/home/192597314,Sabor,1809523,N,Y,29.5294742,-98.7433461
MLS Listing,,Multi-Family (5+ Unit),500 Burton Ave,San Antonio,TX,78221,1350000,20,12.0,San Jose Townsite Ncb 9335,7800,15987,1984,1,173,,Active,,,https://www.redfin.com/TX/San-Antonio/500-Burton-Ave-78221/home/48898283,NTREIS,20731749,N,Y,29.3533564,-98.5139804
MLS Listing,,Single Family Residential,12815 Dewberry Crk,San Antonio,TX,78254,444490,3,2.0,Stillwater Ranch,1545,4791,2024,1,288,57,Active,,,https://www.redfin.com/TX/San-Antonio/12815-Dewberry-Crk-78254/home/192597117,Sabor,1809517,N,Y,29.5307075,-98.7439227
MLS Listing,,Single Family Residential,6706 Carlsbad Rio,San Antonio,TX,78233-4580,289999,4,2.5,Monterrey Village,2430,5575,2005,1,119,11,Active,,,https://www.redfin.com/TX/San-Antonio/6706-Carlsbad-Rio-78233/home/48638832,Sabor,1809509,N,Y,29.5611488,-98.3578162
MLS Listing,,Single Family Residential,9006 Gibbons Trce,San Antonio,TX,78245,269000,3,2.0,WESTLAKES,1650,5924,2019,1,163,30,Active,,,https://www.redfin.com/TX/San-Antonio/9006-Gibbons-Trce-78245/home/169098801,ACTRIS,1096390,N,Y,29.4278007,-98.6608
MLS Listing,,Single Family Residential,10123 Kendall Cyn,San Antonio,TX,78255,1154950,5,5.5,Canyons At Scenic Loop,4467,23958,2024,1,259,66,Active,,,https://www.redfin.com/TX/San-Antonio/10123-Kendall-Cyn-78255/home/169629179,Sabor,1809501,N,Y,29.6648154,-98.6918771
MLS Listing,,Single Family Residential,13619 Valley Lk,San Antonio,TX,78245,455650,4,3.0,Valley Ranch - Bexar County,2702,5227,2024,1,169,63,Active,,,https://www.redfin.com/TX/San-Antonio/13619-Valley-Lk-78253/home/192596358,Sabor,1809497,N,Y,29.5194353,-98.7644864
MLS Listing,,Single Family Residential,539 W Olmos Dr,San Antonio,TX,78212-1862,117500,2,1.0,Olmos/san Pedro Place Sa,1096,6490,1925,1,107,,Active,,,https://www.redfin.com/TX/San-Antonio/539-W-Olmos-Dr-78212/home/48861726,Sabor,1793732,N,Y,29.4708451,-98.5011892
MLS Listing,,Single Family Residential,5407 Middlefield Dr,San Antonio,TX,78242-1301,187000,3,2.0,Gateway Terrace,1012,10711,1960,1,185,,Active,,,https://www.redfin.com/TX/San-Antonio/5407-Middlefield-Dr-78242/home/49005318,Sabor,1809496,N,Y,29.3643425,-98.6016229
MLS Listing,,Single Family Residential,23826 Carina Cyn,San Antonio,TX,78255,1199950,5,5.5,Canyons At Scenic Loop,4467,25264,2024,1,269,66,Active,,,https://www.redfin.com/TX/San-Antonio/23826-Carina-Cyn-78255/home/48708026,Sabor,1809494,N,Y,29.6635218,-98.6795359
MLS Listing,,Single Family Residential,9230 Espadrille Run,Converse,TX,78109,329900,4,2.0,Hightop Ridge,1849,5227,2023,1,178,32,Active,,,https://www.redfin.com/TX/Converse/9230-Espadrille-Run-78109/home/184811869,Sabor,1809488,N,Y,29.4904815,-98.3025669
MLS Listing,,Single Family Residential,4302 Chalk Flts,San Antonio,TX,78253-4166,315000,4,2.0,Riverstone At Westpointe,1902,5619,2021,1,166,65,Active,,,https://www.redfin.com/TX/San-Antonio/4302-Chalk-Flts-78253/home/175589841,Sabor,1809487,N,Y,29.47492,-98.7723883
MLS Listing,,Single Family Residential,9338 Crestway Rd,Converse,TX,78109,279900,3,2.0,Hightop Ridge,1386,4791,2022,1,202,32,Active,,,https://www.redfin.com/TX/Converse/9338-Crestway-Rd-78109/home/184620941,Sabor,1809481,N,Y,29.4914719,-98.3049305
MLS Listing,,Single Family Residential,9322 Graze Br,San Antonio,TX,78211,299990,4,2.5,Somerset Trails,2125,4791,2024,1,141,29,Active,,,https://www.redfin.com/TX/San-Antonio/9322-Graze-Br-78211/home/177383430,Sabor,1809475,N,Y,29.32987,-98.570936
MLS Listing,,Single Family Residential,9410 Graze Land,San Antonio,TX,78211,300946,4,2.5,Somerset Trails,2039,4791,2024,1,148,29,Active,,,https://www.redfin.com/TX/San-Antonio/9410-Graze-Land-Dr-78211/home/177383390,Sabor,1809474,N,Y,29.329787,-98.572044
MLS Listing,,Single Family Residential,9322 Graze Land,San Antonio,TX,78211,298461,4,2.5,Somerset Trails,2093,4791,2024,1,143,29,Active,,,https://www.redfin.com/TX/San-Antonio/9322-Graze-Land-Dr-78211/home/177383396,Sabor,1809473,N,Y,29.330297,-98.571645
MLS Listing,,Single Family Residential,9406 Graze Land,San Antonio,TX,78211,259990,4,2.0,Somerset Trails,1394,4791,2024,1,187,29,Active,,,https://www.redfin.com/TX/San-Antonio/9406-Graze-Land-Dr-78211/home/177383391,Sabor,1809471,N,Y,29.329889,-98.571964
MLS Listing,,Single Family Residential,3726 Pinebluff Dr,San Antonio,TX,78230,282000,4,2.0,The Summit,2121,10890,1969,1,133,,Active,,,https://www.redfin.com/TX/San-Antonio/3726-Pinebluff-Dr-78230/home/48978832,Sabor,1809468,N,Y,29.5368919,-98.5619511
MLS Listing,,Single Family Residential,5802 Tree Vw,San Antonio,TX,78220,244000,3,2.0,Royal View,2647,8058,1977,1,92,,Active,,,https://www.redfin.com/TX/San-Antonio/5802-Tree-View-St-78220/home/49096973,Sabor,1809467,N,Y,29.4197334,-98.3777592
MLS Listing,,Vacant Land,5114 Gavilan Dr,San Antonio,TX,78242,68495,,,Hillside Acres,,9448,,1,,,Active,,,https://www.redfin.com/TX/San-Antonio/5114-Gavilan-Dr-78242/home/49011944,Sabor,1809469,N,Y,29.350175,-98.598382
MLS Listing,,Single Family Residential,11919 Camp Real Ln,San Antonio,TX,78253,355000,4,2.5,ALAMO RANCH,2795,7623,2010,1,127,44,Active,,,https://www.redfin.com/TX/San-Antonio/11919-Camp-Real-Ln-78253/home/48669971,ACTRIS,9100835,N,Y,29.476266,-98.7260154
MLS Listing,,Condo/Co-op,4949 Hamilton Wolfe Rd #7102,San Antonio,TX,78229,155000,2,1.5,San Antonio,974,,1984,1,159,270,Active,,,https://www.redfin.com/TX/San-Antonio/4949-Hamilton-Wolfe-78229/unit-7102/home/182708929,Sabor,1809464,N,Y,29.521548,-98.583787
MLS Listing,,Single Family Residential,4459 Kiowa Pass,San Antonio,TX,78245,264990,4,2.5,Melissa Ranch,1644,4200,2024,1,161,67,Active,,,https://www.redfin.com/TX/San-Antonio/4459-Kiowa-Pass-78232/home/190358786,Sabor,1809459,N,Y,29.3870771,-98.6894362
MLS Listing,,Single Family Residential,9318 Graze Br,San Antonio,TX,78211,264990,3,2.0,Somerset Trails,1500,5140,2024,1,177,29,Active,,,https://www.redfin.com/TX/San-Antonio/9318-Graze-Br-78211/home/177383431,Sabor,1809456,N,Y,29.329972,-98.570856
MLS Listing,,Single Family Residential,126 Groveland Pl,San Antonio,TX,78209-6331,412000,3,2.0,Mahncke Park,1734,5401,1950,1,238,,Active,September-21-2024 11:00 AM,September-21-2024 02:00 PM,https://www.redfin.com/TX/San-Antonio/126-Groveland-Pl-78209/home/48845680,Sabor,1809458,N,Y,29.4647141,-98.4629202
MLS Listing,,Single Family Residential,9415 Graze Land,San Antonio,TX,78211,289990,4,2.5,Somerset Trails,2093,4791,2024,1,139,29,Active,,,https://www.redfin.com/TX/San-Antonio/9415-Graze-Land-Dr-78211/home/190689274,Sabor,1809453,N,Y,29.3300376,-98.5726857
MLS Listing,,Single Family Residential,4955 Sandstone Way,San Antonio,TX,78222,259990,4,2.5,Blue Ridge Ranch,1644,4199,2024,1,158,32,Active,,,https://www.redfin.com/TX/San-Antonio/4955-Sandstone-Way-78222/home/190631404,Sabor,1809452,N,Y,29.3754067,-98.3738591
MLS Listing,,Single Family Residential,2502 Rim Rock Trl,San Antonio,TX,78251,295000,4,2.0,Timber Ridge,1726,6538,1987,1,171,,Active,,,https://www.redfin.com/TX/San-Antonio/2502-Rim-Rock-Trl-78251/home/49113483,Sabor,1809445,N,Y,29.463475,-98.6639752
MLS Listing,,Single Family Residential,5103 Sandstone Way,San Antonio,TX,78222,284990,4,2.5,Blue Ridge Ranch,2093,8712,2024,1,136,128,Active,,,https://www.redfin.com/TX/San-Antonio/5103-Sandstone-Way-78222/home/190459304,Sabor,1809444,N,Y,29.3743314,-98.3733944
MLS Listing,,Multi-Family (2-4 Unit),706 Martin Luther King Dr,San Antonio,TX,78203-1523,710000,6,5.0,Denver Heights,2812,6011,2024,1,252,,Active,,,https://www.redfin.com/TX/San-Antonio/706-Martin-Luther-King-Dr-78203/home/48728536,Sabor,1809443,N,Y,29.4131238,-98.4681758
MLS Listing,,Single Family Residential,4954 Sandstone Way,San Antonio,TX,78222,289990,4,2.5,Blue Ridge Ranch,2093,8712,2024,1,139,128,Active,,,https://www.redfin.com/TX/San-Antonio/4954-Sandstone-Way-78222/home/191043275,Sabor,1809440,N,Y,29.3758971,-98.3732604
MLS Listing,,Single Family Residential,4511 Jeffs Farm,San Antonio,TX,78244-1747,229500,3,2.0,Highland Farms,1282,5488,2011,1,179,26,Active,,,https://www.redfin.com/TX/San-Antonio/4511-Jeffs-Farm-78244/home/48680849,Sabor,1809439,N,Y,29.4695823,-98.3707384
MLS Listing,,Single Family Residential,8915 Black Frst,Helotes,TX,78023,375000,4,2.0,Bavarian Forest,2134,6969,2010,1,176,36,Active,September-22-2024 02:00 PM,September-22-2024 04:00 PM,https://www.redfin.com/TX/Helotes/8915-Black-Frst-78023/home/48695498,Sabor,1809436,N,Y,29.5642577,-98.6596542
MLS Listing,,Single Family Residential,13754 Pinkston,San Antonio,TX,78252,284990,3,2.0,Cinco Lakes,1589,6534,2024,1,179,37,Active,,,https://www.redfin.com/TX/San-Antonio/13754-Pinkston-78252/home/189954393,Sabor,1809438,N,Y,29.3547083,-98.7008196
MLS Listing,,Single Family Residential,323 Callaghan Ave,San Antonio,TX,78210-1305,775000,3,3.0,Lavaca,1954,7840,1900,1,397,,Active,,,https://www.redfin.com/TX/San-Antonio/323-Callaghan-Ave-78210/home/48725211,Sabor,1767575,N,Y,29.4128475,-98.4845483
MLS Listing,,Single Family Residential,930 W Rosewood Ave,San Antonio,TX,78201-5257,369000,3,2.0,Beacon Hill,1664,6969,1915,1,222,,Active,,,https://www.redfin.com/TX/San-Antonio/930-W-Rosewood-Ave-78201/home/48748027,Sabor,1809432,N,Y,29.4642547,-98.5091393
MLS Listing,,Condo/Co-op,17104 Vardon Way #17104,San Antonio,TX,78248,295000,2,2.0,Canyon Crk Village Condos Bldg Nn,1565,,1986,1,188,440,Active,,,https://www.redfin.com/TX/San-Antonio/17104-Vardon-Way-78248/unit-17104/home/192442985,NTREIS,20729565,N,Y,29.5991925,-98.5145163
MLS Listing,,Single Family Residential,7438 Rimhurst,San Antonio,TX,78250,244888,3,2.0,Northwest Crossing,1050,4399,1986,1,233,21,Active,,,https://www.redfin.com/TX/San-Antonio/7438-Rimhurst-78250/home/49103937,Sabor,1809428,N,Y,29.5109246,-98.6903153
MLS Listing,,Single Family Residential,7547 Brandyridge,San Antonio,TX,78250-2960,224900,3,2.0,Meadows Ns,1058,4399,1984,1,213,21,Active,,,https://www.redfin.com/TX/San-Antonio/7547-Brandyridge-78250/home/49103974,Sabor,1809427,N,Y,29.5096749,-98.6910402
MLS Listing,,Single Family Residential,315 Eland,San Antonio,TX,78213,139000,2,1.0,Dell View,850,7143,1953,1,164,,Active,,,https://www.redfin.com/TX/San-Antonio/315-Eland-Dr-78213/home/48910258,Sabor,1809423,N,Y,29.4933312,-98.5425122
MLS Listing,,Single Family Residential,438 Cable Dr,San Antonio,TX,78227-3104,189000,3,2.0,Rainbow Hills,1115,8755,1967,1,170,,Active,,,https://www.redfin.com/TX/San-Antonio/438-Cable-Dr-78227/home/49008236,Sabor,1809420,N,Y,29.4023363,-98.6581611
MLS Listing,,Condo/Co-op,7701 Wurzbach Rd #2303,San Antonio,TX,78229-4445,403000,3,2.5,San Antonio,3040,,1982,1,133,1885,Active,,,https://www.redfin.com/TX/San-Antonio/7701-Wurzbach-Rd-78229/unit-2303/home/49054036,Sabor,1809419,N,Y,29.5082641,-98.5817148
MLS Listing,,Single Family Residential,12622 Big Valley Crk,San Antonio,TX,78254,495000,4,2.5,Stillwater Ranch,2584,5906,2022,1,192,57,Active,,,https://www.redfin.com/TX/San-Antonio/12622-Big-Valley-Crk-78254/home/177419378,Sabor,1809416,N,Y,29.5207397,-98.742397
MLS Listing,,Single Family Residential,1706 Small Crk,San Antonio,TX,78260,799950,4,3.5,Kinder Ranch,,9147,2024,1,,100,Active,,,https://www.redfin.com/TX/San-Antonio/1706-Small-Crk-78260/home/176104517,Sabor,1809413,N,Y,29.7200562,-98.4616306
MLS Listing,,Single Family Residential,13613 Foal Cv,San Antonio,TX,78252-1840,185000,2,2.0,Silos,741,4225,2020,1,250,60,Active,,,https://www.redfin.com/TX/San-Antonio/13613-Foal-Cv-78252/home/177447279,Sabor,1809405,N,Y,29.358313,-98.7658638
MLS Listing,,Single Family Residential,5102 Las Campanas St,San Antonio,TX,78233-5821,259900,3,2.0,Valencia,1499,9757,1972,1,173,,Active,September-21-2024 11:00 AM,September-21-2024 03:00 PM,https://www.redfin.com/TX/San-Antonio/5102-Las-Campanas-St-78233/home/49020199,Sabor,1809402,N,Y,29.5554069,-98.3900514
MLS Listing,,Single Family Residential,211 Joy St,San Antonio,TX,78212,105000,2,1.0,Kenwood,760,40510,1961,1,138,,Active,,,https://www.redfin.com/TX/San-Antonio/211-Joy-St-78212/home/48862051,Sabor,1809396,N,Y,29.4780968,-98.4941947
MLS Listing,,Single Family Residential,6206 Datewest Cir,San Antonio,TX,78240,300000,3,2.0,Elm Ridge,1481,11199,1983,1,203,,Active,,,https://www.redfin.com/TX/San-Antonio/6206-Datewest-Cir-78240/home/49047462,Sabor,1809394,N,Y,29.51962,-98.6140589
MLS Listing,,Single Family Residential,7231 Magnolia Blf,San Antonio,TX,78218-3095,199900,3,2.5,Northeast Crossing Tif 2,2239,4791,2008,1,89,25,Active,,,https://www.redfin.com/TX/San-Antonio/7231-Magnolia-Blf-78218/home/48682338,Sabor,1809389,N,Y,29.4960716,-98.3713957
MLS Listing,,Single Family Residential,238 Harrow Dr,San Antonio,TX,78227-4312,154238,3,2.0,Valley Hi,1400,8668,1969,1,110,,Active,,,https://www.redfin.com/TX/San-Antonio/238-Harrow-Dr-78227/home/49000114,Sabor,1809383,N,Y,29.3838912,-98.6493532
MLS Listing,,Single Family Residential,4206 Goshen Pass,San Antonio,TX,78230,289999,3,2.0,Shenandoah,1262,7801,1967,1,230,15,Active,,,https://www.redfin.com/TX/San-Antonio/4206-Goshen-Pass-St-78230/home/48979084,Sabor,1809381,N,Y,29.5415889,-98.5662744
MLS Listing,,Single Family Residential,7526 Apple Valley Dr,San Antonio,TX,78242-2502,145000,4,2.0,Lackland City,1404,8407,1970,1,103,,Active,,,https://www.redfin.com/TX/San-Antonio/7526-Apple-Valley-Dr-78242/home/49003009,Sabor,1809380,N,Y,29.348494,-98.621765
MLS Listing,,Single Family Residential,11530 N Peak,San Antonio,TX,78245-2343,279990,4,2.5,Seale Subd,2116,6708,2013,1,132,33,Active,,,https://www.redfin.com/TX/San-Antonio/11530-N-Peak-78245/home/52930751,Sabor,1809378,N,Y,29.4100741,-98.7221513
MLS Listing,,Townhouse,6611 E Southpoint St #125,San Antonio,TX,78229,95000,2,2.0,N. Pointe Vista Condosa,864,,,1,110,364,Active,,,https://www.redfin.com/TX/San-Antonio/6611-Southpoint-St-78229/unit-125/home/192591147,Sabor,1809376,N,Y,29.491364,-98.566715
MLS Listing,,Single Family Residential,1330 Meester Dr,San Antonio,TX,78245,389990,4,3.0,Arcadia Ridge Phase 1 - Bexar,1938,,2024,1,201,35,Active,,,https://www.redfin.com/TX/San-Antonio/1330-Meester-DR-78245/home/192591083,Sabor,1809375,N,Y,29.3978144,-98.7371039
MLS Listing,,Single Family Residential,8751 Timberwick St,San Antonio,TX,78250,300000,4,2.0,Great Northwest,1920,11412,1984,1,156,26,Active,,,https://www.redfin.com/TX/San-Antonio/8751-Timberwick-St-78250/home/49107156,ACTRIS,7542020,N,Y,29.4898565,-98.6604337
MLS Listing,,Vacant Land,110 Rockhill Dr,San Antonio,TX,78209-2220,650000,,,Northwood Alamo Heights,,30709,,1,,,Active,,,https://www.redfin.com/TX/San-Antonio/110-Rockhill-Dr-78209/home/48940913,Sabor,1809371,N,Y,29.5063879,-98.4574884
MLS Listing,,Single Family Residential,13747 Pinkston,San Antonio,TX,78252,324990,4,2.5,Cinco Lakes,2628,5397,2024,1,124,37,Active,,,https://www.redfin.com/TX/San-Antonio/13747-Pinkston-78252/home/190383678,Sabor,1809367,N,Y,29.3547083,-98.7008196
MLS Listing,,Single Family Residential,13758 Pinkston,San Antonio,TX,78252,289990,3,2.0,Cinco Lakes,1500,5227,2024,1,193,38,Active,,,https://www.redfin.com/TX/San-Antonio/13758-Pinkston-78252/home/190358813,Sabor,1809365,N,Y,29.3547083,-98.7008196
MLS Listing,,Single Family Residential,1415 Delgado St,San Antonio,TX,78207-1947,115000,2,1.0,26th/zarzamora,920,7797,1945,1,125,,Active,,,https://www.redfin.com/TX/San-Antonio/1415-Delgado-St-78207/home/48737362,Sabor,1809364,N,Y,29.4392364,-98.5308666
MLS Listing,,Single Family Residential,9423 Graze Land Dr,San Antonio,TX,78211,249990,3,2.0,Somerset Trails,1249,5140,2024,1,200,29,Active,,,https://www.redfin.com/TX/San-Antonio/9423-Graze-Land-Dr-78211/home/177383372,Sabor,1809359,N,Y,29.329759,-98.572727
MLS Listing,,Single Family Residential,4410 Tourmaline Way,San Antonio,TX,78245,259990,4,2.5,Melissa Ranch,1640,4200,2023,1,159,67,Active,,,https://www.redfin.com/TX/San-Antonio/4410-Tourmaline-Way-78232/home/187919068,Sabor,1809358,N,Y,29.3881387,-98.6898151
MLS Listing,,Single Family Residential,11855 Viney Pass,San Antonio,TX,78252-2018,279900,4,2.0,Luckey Ranch,1792,8581,2020,1,156,37,Active,,,https://www.redfin.com/TX/San-Antonio/11855-Viney-Pass-78252/home/173246411,Sabor,1809356,N,Y,29.36056,-98.7284989
MLS Listing,,Single Family Residential,9734 Lindrith,Helotes,TX,78023,349000,3,3.0,The Heights,2210,6621,2002,1,158,150,Active,,,https://www.redfin.com/TX/Helotes/9734-Lindrith-78023/home/49147097,Sabor,1809353,N,Y,29.5481586,-98.6796444
MLS Listing,,Single Family Residential,9203 Sundrop Vly,San Antonio,TX,78254-2007,424424,2,2.5,Valley Ranch - Bexar County,2004,13068,2017,1,212,92,Active,,,https://www.redfin.com/TX/San-Antonio/9203-Sundrop-Vly-78254/home/167593459,Sabor,1809351,N,Y,29.5278821,-98.7721295
MLS Listing,,Single Family Residential,702 E Euclid,San Antonio,TX,78212,499000,4,2.0,Tobin Hill,1552,3920,1922,2,322,,Active,,,https://www.redfin.com/TX/San-Antonio/702-E-Euclid-Ave-78212/home/171554839,Sabor,1809339,N,Y,29.44051,-98.4882553
MLS Listing,,Single Family Residential,9902 Gazelle Frst,San Antonio,TX,78251-4326,298000,4,2.5,Westover Valley,2514,7100,2005,2,119,18,Active,,,https://www.redfin.com/TX/San-Antonio/9902-Gazelle-Frst-78251/home/48631330,Sabor,1809337,N,Y,29.4812074,-98.687515
MLS Listing,,Single Family Residential,1910 Tillman Park,San Antonio,TX,78253,585000,4,3.5,Fronterra At Westpointe,3426,8276,2019,2,171,40,Active,September-21-2024 11:00 AM,September-21-2024 03:00 PM,https://www.redfin.com/TX/San-Antonio/1910-Tillman-Park-78253/home/167588668,Sabor,1809335,N,Y,29.4537947,-98.7216981
MLS Listing,,Single Family Residential,15570 Gray Catbird,San Antonio,TX,78253-6972,300000,5,2.5,Redbird Ranch,2522,5401,2018,2,119,58,Active,,,https://www.redfin.com/TX/San-Antonio/15570-Gray-Catbird-78253/home/169082097,Sabor,1809331,N,Y,29.4381344,-98.8042193
MLS Listing,,Single Family Residential,8534 Timber Briar St,San Antonio,TX,78250-4316,328000,4,2.5,Silver Creek,1793,8450,1981,2,183,26,Active,,,https://www.redfin.com/TX/San-Antonio/8534-Timberbriar-St-78250/home/49107941,Sabor,1809329,N,Y,29.4886428,-98.6513571
MLS Listing,,Single Family Residential,22422 Peonia Park,San Antonio,TX,78261-1736,440000,3,2.5,Canyon Crest,2796,6011,2021,2,157,0,Active,,,https://www.redfin.com/TX/San-Antonio/22422-Peonia-Park-78261/home/177474265,Sabor,1809324,N,Y,29.6503862,-98.3857246
MLS Listing,,Single Family Residential,324 Hammond Ave,San Antonio,TX,78210-3033,430000,3,3.0,Highland Park,1425,7492,1942,2,302,,Active,,,https://www.redfin.com/TX/San-Antonio/324-Hammond-Ave-78210/home/48750052,Sabor,1809322,N,Y,29.3992813,-98.4684959
MLS Listing,,Single Family Residential,5206 Lost Tree,San Antonio,TX,78244-2805,250000,4,2.5,The Park At Woodlake,1710,6577,1998,2,146,51,Active,,,https://www.redfin.com/TX/San-Antonio/5206-Lost-Tree-78244/home/48819309,Sabor,1809315,N,Y,29.4759306,-98.3435353
MLS Listing,,Single Family Residential,219 Glad Dr,San Antonio,TX,78223,229900,3,2.0,Kathy & Francis Jean,1328,7797,1950,2,173,,Active,,,https://www.redfin.com/TX/San-Antonio/219-Glad-78223/home/48863022,Sabor,1809312,N,Y,29.3826339,-98.4659658
MLS Listing,,Single Family Residential,2306 W Huisache,San Antonio,TX,78201,350000,3,2.0,Woodlawn Terrace,1300,8450,1948,2,269,,Active,,,https://www.redfin.com/TX/San-Antonio/2306-W-Huisache-Ave-78201/home/48894055,Sabor,1809310,N,Y,29.4576863,-98.537578
MLS Listing,,Single Family Residential,8242 Piney Wood Run,San Antonio,TX,78255,325000,3,2.0,Walnut Pass,1863,6185,2006,2,174,31,Active,,,https://www.redfin.com/TX/San-Antonio/8242-Piney-Wood-Run-78255/home/48645938,Sabor,1809308,N,Y,29.6662073,-98.6479998
MLS Listing,,Single Family Residential,12015 Fire Opal,San Antonio,TX,78245-3905,285000,3,2.0,Amhurst,1644,5488,2019,2,173,200,Active,,,https://www.redfin.com/TX/San-Antonio/12015-Fire-Opal-78245/home/173247714,Sabor,1809306,N,Y,29.4170278,-98.7312325
MLS Listing,,Single Family Residential,10131 Southern Sun,San Antonio,TX,78245-2863,230000,3,2.0,Heritage Park,1406,5401,2002,2,164,57,Active,,,https://www.redfin.com/TX/San-Antonio/10131-Southern-Sun-78245/home/48602276,Sabor,1809303,N,Y,29.3986428,-98.6925674
MLS Listing,,Vacant Land,1635 E Chavaneaux Rd,San Antonio,TX,78214,80000,,,Villa Coronado,11761,11761,,2,7,,Active,,,https://www.redfin.com/TX/San-Antonio/1635-E-Chavaneaux-Rd-78214/home/48928165,Sabor,1809302,N,Y,29.32124,-98.470761
MLS Listing,,Vacant Land,1639 E Chavaneaux,San Antonio,TX,78214,80000,,,Villa Coronado,11761,11761,,2,7,,Active,,,https://www.redfin.com/TX/San-Antonio/1639-E-Chavaneaux-Rd-78214/home/48928161,Sabor,1809297,N,Y,29.321241,-98.470553
MLS Listing,,Single Family Residential,2405 Sunset Bnd,San Antonio,TX,78244-1024,275000,3,2.5,Miller Ranch,1910,4399,2018,2,144,23,Active,,,https://www.redfin.com/TX/San-Antonio/2405-Sunset-Bnd-78244/home/110102784,Sabor,1809295,N,Y,29.4516684,-98.3641307
MLS Listing,,Single Family Residential,102 Bethany Pl,San Antonio,TX,78201-3125,225000,2,1.0,Monticello Heights,1201,10367,1951,2,187,,Active,,,https://www.redfin.com/TX/San-Antonio/102-Bethany-Pl-78201/home/48905675,Sabor,1809291,N,Y,29.4747446,-98.5423404
MLS Listing,,Single Family Residential,15022 Miss Ellie Dr,San Antonio,TX,78247-3075,410000,4,2.5,Green Spring Valley,3324,5619,1993,2,123,36,Active,,,https://www.redfin.com/TX/San-Antonio/15022-Miss-Ellie-Dr-78247/home/49116604,Sabor,1809289,N,Y,29.5790413,-98.4225492
MLS Listing,,Single Family Residential,8204 Elktree Pass,San Antonio,TX,78254,340000,4,2.5,Bridgewood,2960,7858,2003,2,115,33,Active,,,https://www.redfin.com/TX/San-Antonio/8204-Elktree-Pass-78254/home/49151845,Sabor,1809286,N,Y,29.5163421,-98.700726
MLS Listing,,Single Family Residential,12515 Enfield Park,San Antonio,TX,78232,419000,3,2.0,Gardens Of Oak Hollo,1858,10062,1980,2,226,,Active,,,https://www.redfin.com/TX/San-Antonio/12515-Enfield-Park-78232/home/49046265,Sabor,1809279,N,Y,29.5664504,-98.4551342
MLS Listing,,Single Family Residential,7315 Judsonwood,San Antonio,TX,78244-2801,239990,3,2.0,Woodlake Park,1814,7318,1998,2,132,51,Active,,,https://www.redfin.com/TX/San-Antonio/7315-Judsonwood-78244/home/48819319,Sabor,1809275,N,Y,29.4750362,-98.3443606
MLS Listing,,Single Family Residential,5810 Rams Cv,San Antonio,TX,78222,327200,4,2.5,Blue Ridge Ranch,2260,4791,2024,2,145,29,Active,,,https://www.redfin.com/TX/San-Antonio/5810-Rams-Cv-78222/home/192465096,Sabor,1809273,N,Y,29.36775,-98.3786548
MLS Listing,,Single Family Residential,9355 Brushy Pt,San Antonio,TX,78250,246999,2,2.0,New Territories,1269,5619,1982,2,195,,Active,,,https://www.redfin.com/TX/San-Antonio/9355-Brushy-Point-St-78250/home/49121466,Sabor,1809272,N,Y,29.5176979,-98.6783446
MLS Listing,,Multi-Family (2-4 Unit),217 Lotus St,San Antonio,TX,78210-1663,425000,4,4.0,Durango/roosevelt,2280,7361,1910,2,186,,Active,,,https://www.redfin.com/TX/San-Antonio/217-Lotus-St-78210/home/48746607,Sabor,1809267,N,Y,29.4055577,-98.4836174
MLS Listing,,Single Family Residential,454 Lively Dr,San Antonio,TX,78213,269500,3,2.0,Dellview,1965,7309,1953,2,137,,Active,,,https://www.redfin.com/TX/San-Antonio/454-Lively-Dr-78213/home/48917216,Sabor,1809260,N,Y,29.5052068,-98.5379642
MLS Listing,,Single Family Residential,4611 Adkins Trl,San Antonio,TX,78238-2406,229000,3,2.5,Villas At Ingram Hills,1437,3310,2004,2,159,20,Active,,,https://www.redfin.com/TX/San-Antonio/4611-Adkins-Trl-78238/home/48617495,Sabor,1809261,N,Y,29.4780168,-98.6198329
MLS Listing,,Condo/Co-op,912 #102 Dawson St,San Antonio,TX,78202,285000,2,2.5,Block 1370,1251,4214,2023,2,228,,Active,,,https://www.redfin.com/TX/San-Antonio/912-Dawson-St-78202/unit-102/home/190563205,HARMLS,36677813,N,Y,29.4261262,-98.469645
MLS Listing,,Single Family Residential,4624 Avery Way,San Antonio,TX,78261-3087,475000,3,2.0,Cibolo Canyons,1874,6534,2013,2,253,384,Active,September-21-2024 11:00 AM,September-21-2024 01:00 PM,https://www.redfin.com/TX/San-Antonio/4624-Avery-Way-78261/home/56888883,Sabor,1809251,N,Y,29.6570624,-98.3984478
MLS Listing,,Condo/Co-op,8611 Datapoint Dr #74,San Antonio,TX,78229-3257,165000,2,2.0,Point North,1030,,1982,2,160,390,Active,,,https://www.redfin.com/TX/San-Antonio/8611-Datapoint-Dr-78229/unit-74/home/192580351,Sabor,1809247,N,Y,29.5202211,-98.5690511
MLS Listing,,Single Family Residential,17019 Blaise Ter,San Antonio,TX,78247,558990,4,3.5,Autry Pond,3030,5662,2024,2,184,25,Active,,,https://www.redfin.com/TX/San-Antonio/17019-Blaise-Ter-78247/home/187565985,Sabor,1809244,N,Y,29.596564,-98.429715
MLS Listing,,Single Family Residential,522 Crane Ave,San Antonio,TX,78214,180000,2,1.0,RAVEN HILL,972,6577,1954,2,185,,Active,,,https://www.redfin.com/TX/San-Antonio/522-Crane-Ave-78214/home/48941751,ACTRIS,1391202,N,Y,29.3582254,-98.4841978
MLS Listing,,Single Family Residential,26214 Choctaw Trl,San Antonio,TX,78260-5904,485000,3,2.5,Timberwood Park,2094,22215,1993,2,232,8,Active,,,https://www.redfin.com/TX/San-Antonio/26214-Choctaw-Trl-78260/home/48794768,Sabor,1809243,N,Y,29.6901736,-98.4943729
MLS Listing,,Vacant Land,706 S Brownleaf St,San Antonio,TX,78227,38000,,,Bexar,,6098,,2,,,Active,,,https://www.redfin.com/TX/San-Antonio/706-S-Brownleaf-St-78227/home/49007651,Sabor,1809240,N,Y,29.427953,-98.6167679
MLS Listing,,Single Family Residential,1110 Artisan Cv,San Antonio,TX,78245-3246,294995,4,3.0,Waters Edge,2299,4181,2015,2,128,48,Active,,,https://www.redfin.com/TX/San-Antonio/1110-Artisan-Cv-78245/home/77100733,Sabor,1809236,N,Y,29.4243358,-98.657682
MLS Listing,,Single Family Residential,315 Springwood Ln,San Antonio,TX,78216-6851,270000,3,2.0,Ridgeview,1355,9844,1956,2,199,,Active,September-21-2024 11:00 AM,September-21-2024 02:00 PM,https://www.redfin.com/TX/San-Antonio/315-Springwood-Ln-78216/home/48944454,Sabor,1809235,N,Y,29.5087033,-98.4904848
MLS Listing,,Single Family Residential,17014 Blaise Ter,San Antonio,TX,78247,499990,3,2.5,Autry Pond,2540,5662,2024,2,197,25,Active,,,https://www.redfin.com/TX/San-Antonio/17014-Blaise-Ter-78247/home/187566043,Sabor,1809234,N,Y,29.596519,-98.429169
MLS Listing,,Single Family Residential,3902 Creek Frst,San Antonio,TX,78230,735000,5,3.5,Hunters Creek North,3838,12763,1993,2,192,,Active,September-21-2024 11:00 AM,September-21-2024 02:00 PM,https://www.redfin.com/TX/San-Antonio/3902-Creek-Frst-78230/home/49050665,Sabor,1809227,N,Y,29.564393,-98.5561431
MLS Listing,,Single Family Residential,17006 Blaise Ter,San Antonio,TX,78247,554990,4,3.5,Autry Pond,3030,5662,2024,2,183,25,Active,,,https://www.redfin.com/TX/San-Antonio/17006-Blaise-Ter-78247/home/187566045,Sabor,1809219,N,Y,29.596246,-98.429127
MLS Listing,,Single Family Residential,174 Palma Noce,San Antonio,TX,78253-5854,282000,3,3.0,Monticello Ranch,2044,4443,2010,2,138,35,Active,,,https://www.redfin.com/TX/San-Antonio/174-Palma-Noce-78253/home/48707436,Sabor,1809214,N,Y,29.4317274,-98.7522832
MLS Listing,,Single Family Residential,830 E Petaluma Blvd,San Antonio,TX,78221-3054,199000,2,1.0,Harlandale,912,6882,1961,2,218,,Active,,,https://www.redfin.com/TX/San-Antonio/830-E-Petaluma-Blvd-78221/home/48953871,Sabor,1809213,N,Y,29.3388743,-98.4878254
MLS Listing,,Single Family Residential,10026 Del Lago,San Antonio,TX,78245,224900,3,2.0,Mesa Creek,1639,4791,2007,2,137,30,Active,,,https://www.redfin.com/TX/San-Antonio/10026-Del-Lago-Ct-78245/home/48667850,Sabor,1809205,N,Y,29.3935028,-98.688564
MLS Listing,,Multi-Family (2-4 Unit),7567 Windsor Oaks,San Antonio,TX,78239-3566,450000,10,4.0,Windsor Heights,3023,8755,2002,2,149,,Active,,,https://www.redfin.com/TX/San-Antonio/7567-Windsor-Oaks-78239/home/48807424,Sabor,1809202,N,Y,29.5053809,-98.3635917
MLS Listing,,Single Family Residential,722 W Kings Hwy,San Antonio,TX,78212-2736,315000,3,1.0,Beacon Hill,1518,6969,1936,2,208,,Active,,,https://www.redfin.com/TX/San-Antonio/722-W-Kings-Hwy-78212/home/48850110,Sabor,1809199,N,Y,29.4594034,-98.5058557
MLS Listing,,Single Family Residential,17015 Blaise Ter,San Antonio,TX,78247,499990,4,3.0,Autry Pond,2300,5662,2024,2,217,25,Active,,,https://www.redfin.com/TX/San-Antonio/17015-Blaise-Ter-78247/home/187565986,Sabor,1809196,N,Y,29.596428,-98.429694
MLS Listing,,Single Family Residential,19539 Mill Oak,San Antonio,TX,78258-3126,550000,4,3.0,Stone Oak,3681,7927,1997,2,149,144,Active,,,https://www.redfin.com/TX/San-Antonio/19539-Mill-Oak-78258/home/49071783,Sabor,1809195,N,Y,29.628755,-98.5072924
MLS Listing,,Single Family Residential,440 Irongate Rdg,San Antonio,TX,78253,314900,4,2.5,Caracol Heights,3288,5662,2000,2,96,15,Active,,,https://www.redfin.com/TX/San-Antonio/440-Irongate-Rdg-78253/home/49146432,Sabor,1809191,N,Y,29.4378864,-98.7218333
MLS Listing,,Single Family Residential,5222 Everly Ter,San Antonio,TX,78263,599990,4,3.5,Everly Estates,3674,21780,2024,2,163,58,Active,,,https://www.redfin.com/TX/San-Antonio/5222-Everly-Ter-78263/home/192577168,Sabor,1809181,N,Y,29.3674155,-98.3059042
MLS Listing,,Single Family Residential,323 Southlawn Ave,San Antonio,TX,78237-3855,54700,2,1.0,Gardendale Area,816,4704,1955,2,67,,Active,,,https://www.redfin.com/TX/San-Antonio/323-Southlawn-Ave-78237/home/192577113,Sabor,1809176,N,Y,29.4119692,-98.5613265
MLS Listing,,Single Family Residential,2815 Spokane Rd,San Antonio,TX,78222-2132,195000,3,1.0,Jupe Subdivision,1149,8102,1952,2,170,,Active,,,https://www.redfin.com/TX/San-Antonio/2815-Spokane-Rd-78222/home/48958472,Sabor,1809166,N,Y,29.3915197,-98.3964296
MLS Listing,,Single Family Residential,23611 Messina Cyn,San Antonio,TX,78255,1395000,4,4.0,The Canyons At Scenic Loop,3010,23043,2024,2,463,58,Active,,,https://www.redfin.com/TX/San-Antonio/23611-Messina-Cyn-78255/home/57220444,Sabor,1809163,N,Y,29.6619319,-98.6791049
MLS Listing,,Single Family Residential,5923 Northgap,Windcrest,TX,78239,380000,4,3.0,Windcrest,2484,11399,1974,2,153,,Active,September-21-2024 01:00 PM,September-21-2024 04:00 PM,https://www.redfin.com/TX/Windcrest/5923-Northgap-St-78239/home/48829108,Sabor,1809162,N,Y,29.5263268,-98.3728941
MLS Listing,,Vacant Land,327 Susanwood,San Antonio,TX,78245,36000,,,Huntleigh Park,5102,7710,,2,7,,Active,,,https://www.redfin.com/TX/San-Antonio/327-Susanwood-Dr-78220/home/48638858,Sabor,1809160,N,Y,29.4227174,-98.4030799
MLS Listing,,Single Family Residential,9175 Powhatan,San Antonio,TX,78230,329250,3,2.0,Colonies North,1628,5706,1979,2,202,,Active,September-20-2024 04:00 PM,September-20-2024 07:00 PM,https://www.redfin.com/TX/San-Antonio/9175-Powhatan-Dr-78230/home/48977235,Sabor,1809157,N,Y,29.522221,-98.5505077
MLS Listing,,Single Family Residential,11930 Oatway Vly,San Antonio,TX,78252-2404,265000,3,2.5,Luckey Ranch,1450,12327,2019,2,183,29,Active,,,https://www.redfin.com/TX/San-Antonio/11930-Oatway-Vly-78252/home/169080356,Sabor,1807184,N,Y,29.3703335,-98.7299324
MLS Listing,,Single Family Residential,1647 Vista Del Monte,San Antonio,TX,78216-7815,399700,3,2.0,Vista Del Norte,2105,11020,1984,2,190,34,Active,,,https://www.redfin.com/TX/San-Antonio/1647-Vista-del-Monte-78216/home/49054243,Sabor,1809150,N,Y,29.5725816,-98.5153672
MLS Listing,,Single Family Residential,7706 Mesquite Farm,San Antonio,TX,78239-3259,252500,3,2.5,Walzem Farms,2296,5662,2006,2,110,17,Active,,,https://www.redfin.com/TX/San-Antonio/7706-Mesquite-Farm-78239/home/48623056,Sabor,1809149,N,Y,29.4985116,-98.3583698
MLS Listing,,Condo/Co-op,7701 Wurzbach Rd #2205,San Antonio,TX,78229-4445,219500,2,2.0,San Antonio,1283,,1982,2,171,795,Active,,,https://www.redfin.com/TX/San-Antonio/7701-Wurzbach-Rd-78229/unit-2205/home/190395822,Sabor,1809147,N,Y,29.5082893,-98.5818458
MLS Listing,,Condo/Co-op,912 #101 Dawson St,San Antonio,TX,78202,285000,2,2.5,Block 1370,1250,4214,2023,2,228,,Active,,,https://www.redfin.com/TX/San-Antonio/912-Dawson-St-78202/unit-101/home/190563197,HARMLS,92425270,N,Y,29.4261262,-98.469645
MLS Listing,,Single Family Residential,8403 Glen Breeze,San Antonio,TX,78239-3015,154900,3,2.0,East Village,1294,7797,1973,2,120,,Active,,,https://www.redfin.com/TX/San-Antonio/8403-Glen-Breeze-78239/home/49024523,Sabor,1809140,N,Y,29.5142211,-98.3470852
MLS Listing,,Single Family Residential,3915 Goliad Frd,San Antonio,TX,78222-4430,270000,4,2.5,Riposa Vita,2286,5096,2016,2,118,21,Active,,,https://www.redfin.com/TX/San-Antonio/3915-Goliad-Frd-78222/home/110107909,Sabor,1809133,N,Y,29.3829663,-98.3818413
MLS Listing,,Multi-Family (2-4 Unit),3216 N Elmendorf St,San Antonio,TX,78201-5169,649900,6,7.0,Monticello Park,3065,,2021,2,212,78,Active,,,https://www.redfin.com/TX/San-Antonio/3216-N-Elmendorf-St-78201/home/181944206,Sabor,1807869,N,Y,29.4619446,-98.524999
MLS Listing,,Single Family Residential,3263 Swandale Dr,San Antonio,TX,78230-4439,650000,5,3.0,Hidden Creek,3109,12022,1979,2,209,,Active,September-21-2024 10:00 AM,September-21-2024 02:00 PM,https://www.redfin.com/TX/San-Antonio/3263-Swandale-Dr-78230/home/48982989,Sabor,1809118,N,Y,29.5226627,-98.5497206
MLS Listing,,Single Family Residential,5734 Tianna Lace,San Antonio,TX,78253-6269,390000,4,2.5,Terraces At Alamo Ranch,2815,8755,2013,2,139,79,Active,September-22-2024 01:00 PM,September-22-2024 04:00 PM,https://www.redfin.com/TX/San-Antonio/5734-Tianna-Lace-78253/home/52311977,Sabor,1809117,N,Y,29.4895467,-98.7309997
MLS Listing,,Single Family Residential,2203 Palomino Dr,San Antonio,TX,78227-2630,180000,3,2.0,Lackland Terrace,1680,11499,1961,2,107,,Active,September-19-2024 03:00 PM,September-19-2024 06:00 PM,https://www.redfin.com/TX/San-Antonio/2203-Palomino-Dr-78227/home/49009601,Sabor,1806369,N,Y,29.4096646,-98.6427569
MLS Listing,,Single Family Residential,11906 Silver Sails,San Antonio,TX,78254,325000,3,2.5,Silver Canyon,2304,5362,2018,2,141,18,Active,,,https://www.redfin.com/TX/San-Antonio/11906-Silver-Sails-78254/home/169083414,ACTRIS,8239629,N,Y,29.5358037,-98.7294081
MLS Listing,,Single Family Residential,126 Bemis,San Antonio,TX,78237,126000,3,2.0,Prosperity/villa Corona Ed,1397,6969,1955,2,90,,Active,,,https://www.redfin.com/TX/San-Antonio/126-Bemis-Dr-78237/home/48939398,Sabor,1809116,N,Y,29.4234684,-98.5852868
MLS Listing,,Multi-Family (2-4 Unit),6950 Lark Haven Ln,San Antonio,TX,78263-6224,299000,4,3.0,Knoll Ridge,2360,18992,1960,2,127,,Active,,,https://www.redfin.com/TX/San-Antonio/6950-Lark-Haven-Ln-78263/home/48826300,Sabor,1806352,N,Y,29.354652,-98.2989274
MLS Listing,,Single Family Residential,6126 Border Trail Dr,San Antonio,TX,78240-5905,300000,3,2.0,Eckhert Crossing,1621,6882,1996,2,185,13,Active,,,https://www.redfin.com/TX/San-Antonio/6126-Border-Trail-Dr-78240/home/49119680,Sabor,1809111,N,Y,29.5181733,-98.6093893
MLS Listing,,Single Family Residential,259 Craigmont Ln,San Antonio,TX,78213-3818,250000,2,1.0,Brkhaven/starlit/grn Meadow,1485,7797,1956,2,168,,Active,,,https://www.redfin.com/TX/San-Antonio/259-Craigmont-Ln-78213/home/48939273,Sabor,1809110,N,Y,29.5002014,-98.5142687
MLS Listing,,Single Family Residential,3827 Pipers Crest St,San Antonio,TX,78251,250000,3,2.0,Pipers Meadow,1510,11674,1979,2,166,,Active,,,https://www.redfin.com/TX/San-Antonio/3827-Pipers-Crest-St-78251/home/49090696,Sabor,1809104,N,Y,29.4689657,-98.6402083
MLS Listing,,Multi-Family (2-4 Unit),"478,482,486,490 Abigail Aly",San Antonio,TX,78253,1050000,12,10.0,Hunters Ranch,5000,,2024,2,210,50,Active,,,https://www.redfin.com/TX/San-Antonio/478-482-486-490-Abigail-ALY-78253/home/192571945,Sabor,1809102,N,Y,29.4733158,-98.8142264
MLS Listing,,Multi-Family (2-4 Unit),"514,518,522,526 Abigail Aly",San Antonio,TX,78253,1050000,12,10.0,Hunters Ranch,5000,,2024,2,210,50,Active,,,https://www.redfin.com/TX/San-Antonio/514-518-522-526-Abigail-ALY-78253/home/192571888,Sabor,1809100,N,Y,29.4733158,-98.8142264
MLS Listing,,Single Family Residential,1241 Churing Dr,San Antonio,TX,78245,160000,3,2.0,Heritage Farm,1087,3920,1979,2,147,,Active,,,https://www.redfin.com/TX/San-Antonio/1241-Churing-Dr-78245/home/49018761,Sabor,1809094,N,Y,29.4218506,-98.6761668
MLS Listing,,Single Family Residential,8531 Black Sapphire,San Antonio,TX,78263,214999,4,2.0,Sapphire Grove,1483,4791,2024,3,145,106,Active,,,https://www.redfin.com/TX/San-Antonio/8531-Black-Sapphire-78263/home/192569579,Sabor,1809090,N,Y,29.3554237,-98.3197946
MLS Listing,,Vacant Land,210 Sunnyland Dr,San Antonio,TX,78228,130000,,,Inspiration Hills,,13982,,3,,6,Active,,,https://www.redfin.com/TX/San-Antonio/210-Sunnyland-Dr-78228/home/48936462,Sabor,1809088,N,Y,29.473659,-98.574478
MLS Listing,,Single Family Residential,4638 Golden Mdw,San Antonio,TX,78250,279500,3,2.0,Misty Oaks,1221,10585,1984,3,229,21,Active,,,https://www.redfin.com/TX/San-Antonio/4638-Golden-Mdws-78250/home/49106792,Sabor,1809087,N,Y,29.479677,-98.651475
MLS Listing,,Single Family Residential,27207 Ranch Crk,Boerne,TX,78006,945000,3,2.5,Highlands Ranch,3352,159560,2005,3,282,117,Active,,,https://www.redfin.com/TX/Boerne/27207-Ranch-Crk-78006/home/48629168,Sabor,1809085,N,Y,29.6972916,-98.6766262
MLS Listing,,Single Family Residential,1023 Mckinley Ave,San Antonio,TX,78210-4230,217000,2,1.0,Highland Park,872,7492,1945,3,249,,Active,,,https://www.redfin.com/TX/San-Antonio/1023-McKinley-Ave-78210/home/48750890,Sabor,1809083,N,Y,29.3922766,-98.4705863
MLS Listing,,Single Family Residential,2618 Marlborough,San Antonio,TX,78230-4539,375000,3,2.0,Colonial Hills,2101,14984,1965,3,178,,Active,,,https://www.redfin.com/TX/San-Antonio/2618-Marlborough-Dr-78230/home/48963367,Sabor,1809079,N,Y,29.5204684,-98.5376474
MLS Listing,,Single Family Residential,11702 Blasting Way,San Antonio,TX,78073,157999,3,2.0,Valle Sol,1033,4791,2024,3,153,85,Active,,,https://www.redfin.com/TX/Von-Ormy/11702-Blasting-Way-78073/home/192202345,Sabor,1809074,N,Y,29.3066283,-98.6180509
MLS Listing,,Single Family Residential,3931 Terrell Trce,San Antonio,TX,78211,217999,3,2.0,Somerset Grove,1402,4791,2024,3,155,25,Active,,,https://www.redfin.com/TX/San-Antonio/3931-Terrell-TRCE-78211/home/192541157,Sabor,1809073,N,Y,29.367937088012695,-98.49519348144531
MLS Listing,,Single Family Residential,3927 Terrell Trce,San Antonio,TX,78211,197999,3,2.0,Somerset Grove,1266,4791,2024,3,156,25,Active,,,https://www.redfin.com/TX/San-Antonio/3927-Terrell-TRCE-78211/home/192394320,Sabor,1809072,N,Y,29.367937088012695,-98.49519348144531
MLS Listing,,Single Family Residential,8915 Macdona Pl,San Antonio,TX,78211,219999,4,2.0,Somerset Grove,1600,4791,2024,3,137,25,Active,,,https://www.redfin.com/TX/San-Antonio/8915-Macdona-St-78221/home/192019596,Sabor,1809071,N,Y,29.3630052,-98.518572
MLS Listing,,Single Family Residential,3931 Poteet Pl,San Antonio,TX,78211,203999,4,2.0,Somerset Grove,1802,4791,2024,3,113,25,Active,,,https://www.redfin.com/TX/San-Antonio/3931-Poteet-Pl-78211/home/192130719,Sabor,1809070,N,Y,29.3388392,-98.5710078
MLS Listing,,Single Family Residential,3962 Poteet Pl,San Antonio,TX,78211,192999,3,2.0,Somerset Grove,1380,4791,2024,3,140,25,Active,,,https://www.redfin.com/TX/San-Antonio/3962-Poteet-Pl-78211/home/192568231,Sabor,1809069,N,Y,29.3386295,-98.5713272
MLS Listing,,Single Family Residential,3930 Poteet Pl,San Antonio,TX,78211,183999,3,2.0,Somerset Grove,1200,4791,2024,3,153,25,Active,,,https://www.redfin.com/TX/San-Antonio/3930-Poteet-Pl-78211/home/192317767,Sabor,1809068,N,Y,29.3386295,-98.5713272
MLS Listing,,Single Family Residential,9530 Autumn Shade,San Antonio,TX,78254-1941,204900,3,2.0,Oak Grove,1246,7187,1986,3,164,,Active,,,https://www.redfin.com/TX/San-Antonio/9530-Autumn-Shade-78254/home/49122903,Sabor,1809065,N,Y,29.5290006,-98.670454
MLS Listing,,Single Family Residential,3939 Poteet Pl,San Antonio,TX,78211,202999,4,2.0,Somerset Grove,1500,4791,2024,3,135,25,Active,,,https://www.redfin.com/TX/San-Antonio/3939-Poteet-Pl-78211/home/192221344,Sabor,1809063,N,Y,29.3388392,-98.5710078
MLS Listing,,Single Family Residential,12935 Lake Fryer,San Antonio,TX,78152,179499,3,2.0,Spring Grove,1200,4791,2024,3,150,17,Active,,,https://www.redfin.com/TX/San-Antonio/12935-Colwell-Lk-78253/home/171176487,Sabor,1809061,N,Y,29.4935799,-98.7496616
MLS Listing,,Single Family Residential,7217 Black Star,San Antonio,TX,78263,245999,4,2.0,Sapphire Grove,1483,4791,2024,3,166,106,Active,,,https://www.redfin.com/TX/San-Antonio/7217-Black-Star-78263/home/192567575,Sabor,1809057,N,Y,29.3554237,-98.3197946
MLS Listing,,Single Family Residential,6928 Calcite Trl,San Antonio,TX,78223,199999,4,2.0,Stone Garden,1600,4791,2024,3,125,106,Active,,,https://www.redfin.com/TX/San-Antonio/6928-Calcite-Trl-78223/home/191980289,Sabor,1809050,N,Y,29.2736367,-98.353977
MLS Listing,,Single Family Residential,6920 Calcite Trl,San Antonio,TX,78223,188999,3,2.0,Stone Garden,1402,4791,2024,3,135,106,Active,,,https://www.redfin.com/TX/San-Antonio/6920-Calcite-Trl-78223/home/192567524,Sabor,1809049,N,Y,29.2735205,-98.3541891
MLS Listing,,Single Family Residential,7406 Silos Rdg,San Antonio,TX,78252,233999,3,2.0,Silos Unit#1,1254,3510,2022,3,187,60,Active,,,https://www.redfin.com/TX/San-Antonio/7406-Silos-Rdg-78252/home/181944658,Sabor,1809048,N,Y,29.3581542,-98.7689673
MLS Listing,,Single Family Residential,6949 Calcite Trl,San Antonio,TX,78223,228999,4,2.5,Stone Garden,1952,4791,2024,3,117,106,Active,,,https://www.redfin.com/TX/San-Antonio/6949-Calcite-Trl-78223/home/192567521,Sabor,1809047,N,Y,29.2742959,-98.3538433
MLS Listing,,Single Family Residential,8511 Black Sapphire,San Antonio,TX,78263,164999,3,2.0,Sapphire Grove,1230,4791,2024,3,134,106,Active,,,https://www.redfin.com/TX/San-Antonio/8511-Black-Sapphire-78263/home/192567519,Sabor,1809046,N,Y,29.3554237,-98.3197946
MLS Listing,,Single Family Residential,227 Marigold Dr,San Antonio,TX,78227,242999,4,2.0,Tarasco Gardens,1667,4791,2024,3,146,33,Active,,,https://www.redfin.com/TX/San-Antonio/227-Marigold-Dr-78227/home/192239481,Sabor,1809044,N,Y,29.4038159,-98.6528202
MLS Listing,,Single Family Residential,11827 Guessing Way,San Antonio,TX,78073,220999,3,2.0,Valle Sol,1402,4791,2024,3,158,85,Active,,,https://www.redfin.com/TX/Von-Ormy/11827-Guessing-Way-78073/home/192567500,Sabor,1809043,N,Y,29.3052581,-98.6154017
MLS Listing,,Single Family Residential,219 Marigold Dr,San Antonio,TX,78227,220999,3,2.0,Tarasco Gardens,1474,4791,2024,3,150,33,Active,,,https://www.redfin.com/TX/San-Antonio/219-Marigold-Dr-78227/home/192023412,Sabor,1809042,N,Y,29.4038093,-98.6525063
MLS Listing,,Single Family Residential,18906 Las Vistas,San Antonio,TX,78258-4124,550000,3,2.5,The Waters Of Sonterra,2205,4356,2002,3,249,118,Active,,,https://www.redfin.com/TX/San-Antonio/18906-Las-Vistas-78258/home/49071556,Sabor,1809040,N,Y,29.6171244,-98.4995811
MLS Listing,,Single Family Residential,11714 Blasting Way,San Antonio,TX,78073,209999,4,2.5,Valle Sol,1802,4791,2024,3,117,85,Active,,,https://www.redfin.com/TX/Von-Ormy/11714-Blasting-Way-78073/home/192567497,Sabor,1809041,N,Y,29.306374,-98.6178772
MLS Listing,,Single Family Residential,11718 Blasting Way,San Antonio,TX,78073,201999,4,2.0,Valle Sol,1500,4791,2024,3,135,85,Active,,,https://www.redfin.com/TX/Von-Ormy/11718-Blasting-Way-78073/home/192567496,Sabor,1809038,N,Y,29.3062955,-98.6178138
MLS Listing,,Single Family Residential,11710 Blasting Way,San Antonio,TX,78073,183999,3,2.0,Valle Sol,1200,4791,2024,3,153,85,Active,,,https://www.redfin.com/TX/Von-Ormy/11710-Blasting-Way-78073/home/192567495,Sabor,1809039,N,Y,29.3064525,-98.6179406
MLS Listing,,Single Family Residential,11706 Blasting Way,San Antonio,TX,78073,211999,4,2.0,Valle Sol,1500,4791,2024,3,141,85,Active,,,https://www.redfin.com/TX/Von-Ormy/11706-Blasting-Way-78073/home/192567493,Sabor,1809037,N,Y,29.3065309,-98.6180039
MLS Listing,,Single Family Residential,239 Marigold Dr,San Antonio,TX,78227,233999,3,2.0,Tarasco Gardens,1402,4791,2024,3,167,33,Active,,,https://www.redfin.com/TX/San-Antonio/239-Marigold-Dr-78227/home/192312348,Sabor,1809036,N,Y,29.4038258,-98.6532762
MLS Listing,,Single Family Residential,8543 Black Sapphire,San Antonio,TX,78263,197999,4,2.0,Sapphire Grove,1500,4791,2024,3,132,106,Active,,,https://www.redfin.com/TX/San-Antonio/8543-Black-Sapphire-78263/home/192567489,Sabor,1809034,N,Y,29.3554237,-98.3197946
MLS Listing,,Single Family Residential,8423 Pink Sapphire,San Antonio,TX,78263,202999,3,2.0,Sapphire Grove,1402,4791,2024,3,145,106,Active,,,https://www.redfin.com/TX/San-Antonio/8423-Pink-Sapphire-78263/home/192175455,Sabor,1809033,N,Y,29.3546095,-98.3244325
MLS Listing,,Single Family Residential,8539 Black Sapphire,San Antonio,TX,78263,184999,3,2.0,Sapphire Grove,1380,4791,2024,3,134,106,Active,,,https://www.redfin.com/TX/San-Antonio/8539-Black-Sapphire-78263/home/192567484,Sabor,1809031,N,Y,29.3554237,-98.3197946
MLS Listing,,Single Family Residential,8431 Pink Sapphire,San Antonio,TX,78263,233999,4,2.0,Sapphire Grove,1600,4791,2024,3,146,106,Active,,,https://www.redfin.com/TX/San-Antonio/8431-Pink-Sapphire-78263/home/192567483,Sabor,1809032,N,Y,29.3545564,-98.3241886
MLS Listing,,Single Family Residential,8415 Pink Sapphire,San Antonio,TX,78263,223999,4,2.0,Sapphire Grove,1600,4791,2024,3,140,106,Active,,,https://www.redfin.com/TX/San-Antonio/8415-Pink-Sapphire-78263/home/192019607,Sabor,1809030,N,Y,29.3546674,-98.3246992
MLS Listing,,Single Family Residential,7429 Myrtle Trl,San Antonio,TX,78244-2237,209900,4,2.0,Ventura,2174,6011,1989,3,97,,Active,,,https://www.redfin.com/TX/San-Antonio/7429-Myrtle-Trl-78244/home/48818515,Sabor,1809026,N,Y,29.5050248,-98.3314855
MLS Listing,,Single Family Residential,1014 Gallagher Ter,San Antonio,TX,78221,211999,4,2.5,Mission Del Lago,1802,4791,2024,3,118,27,Active,,,https://www.redfin.com/TX/San-Antonio/1014-Gallagher-TER-78221/home/192269213,Sabor,1809022,N,Y,29.27998924255371,-98.47779846191406
MLS Listing,,Single Family Residential,13215 Faxon Pass,San Antonio,TX,78221,215999,3,2.0,Mission Del Lago,1266,4791,2024,3,171,27,Active,,,https://www.redfin.com/TX/San-Antonio/13215-Faxon-Pass-78221/home/192221239,Sabor,1809021,N,Y,29.27998924255371,-98.47779846191406
MLS Listing,,Single Family Residential,4838 Legacy Pt,Von Ormy,TX,78073,221999,3,2.0,Legacy Point,1474,4791,2024,3,151,92,Active,,,https://www.redfin.com/TX/Von-Ormy/4838-Legacy-Pt-78073/home/192567471,Sabor,1809020,N,Y,29.2999741,-98.5979824
MLS Listing,,Single Family Residential,7222 Black Star,San Antonio,TX,78263,186999,3,2.0,Sapphire Grove,1200,4791,2024,3,156,106,Active,,,https://www.redfin.com/TX/San-Antonio/7222-Black-Star-78263/home/192567463,Sabor,1809016,N,Y,29.3554237,-98.3197946
MLS Listing,,Condo/Co-op,923 Vance Jackson Unit A201,San Antonio,TX,78201,115000,2,1.0,San Antonio,836,,1974,3,138,386,Active,,,https://www.redfin.com/TX/San-Antonio/923-Vance-Jackson-Rd-78201/unit-201A/home/48880595,Sabor,1809013,N,Y,29.4805236,-98.5366422
MLS Listing,,Single Family Residential,8523 Black Sapphire,San Antonio,TX,78263,181999,4,2.0,Sapphire Grove,1500,4791,2024,3,121,106,Active,,,https://www.redfin.com/TX/San-Antonio/8523-Black-Sapphire-78263/home/192567450,Sabor,1809012,N,Y,29.3554237,-98.3197946
MLS Listing,,Single Family Residential,7931 Nessie Trl,San Antonio,TX,78222,272999,4,2.5,Torian Village,1952,4791,2024,3,140,63,Active,,,https://www.redfin.com/TX/San-Antonio/7931-Nessie-Trl-78227/home/192481147,Sabor,1809010,N,Y,29.4322852,-98.6443616
MLS Listing,,Single Family Residential,8427 Pink Sapphire,San Antonio,TX,78263,236999,4,2.5,Sapphire Grove,1952,4791,2024,3,121,106,Active,,,https://www.redfin.com/TX/San-Antonio/8427-Pink-Sapphire-78263/home/192312342,Sabor,1809009,N,Y,29.3545829,-98.3243105
MLS Listing,,Single Family Residential,8511 Astral Pl,San Antonio,TX,78252,236999,4,2.0,Crescent Hills,1600,4791,2024,3,148,42,Active,,,https://www.redfin.com/TX/San-Antonio/8511-Astral-Pl-78252/home/192567405,Sabor,1808997,N,Y,29.333102,-98.638899
MLS Listing,,Single Family Residential,8438 Astral Pl,San Antonio,TX,78252,233999,3,2.0,Crescent Hills,1402,4791,2024,3,167,42,Active,,,https://www.redfin.com/TX/San-Antonio/8438-Astral-Pl-78252/home/192269429,Sabor,1808995,N,Y,29.333102,-98.638899
MLS Listing,,Single Family Residential,7854 Nessie Trl,San Antonio,TX,78227,239999,3,2.0,Torian Village,1266,4791,2024,3,190,63,Active,,,https://www.redfin.com/TX/San-Antonio/7854-Nessie-Trl-78227/home/192094537,Sabor,1808996,N,Y,29.4318672,-98.6429871
MLS Listing,,Single Family Residential,14106 Chemtou Trl,San Antonio,TX,78245,244999,4,2.0,Brookmill,1600,4791,2024,3,153,75,Active,,,https://www.redfin.com/TX/San-Antonio/14106-Chemtou-Trl-78245/home/192221317,Sabor,1808993,N,Y,29.3950361,-98.7780461
MLS Listing,,Single Family Residential,7703 Pangboche Trl,San Antonio,TX,78227,236999,3,2.0,Torian Village,1260,4791,2024,3,188,63,Active,,,https://www.redfin.com/TX/San-Antonio/7703-Pangboche-TRL-Unknown/home/192094542,Sabor,1808992,N,Y,29.407936096191406,-98.6267318725586
MLS Listing,,Single Family Residential,3947 Rock Mill Dm,San Antonio,TX,78245,290999,3,2.0,Brookmill,1675,4791,2024,3,174,75,Active,,,https://www.redfin.com/TX/San-Antonio/3947-Rock-Mill-Dm-78245/home/192221293,Sabor,1808990,N,Y,29.3934177,-98.778422
MLS Listing,,Single Family Residential,2607 Indian Frst,San Antonio,TX,78244-4403,265000,4,2.0,Miller Ranch,1733,4965,2016,3,153,24,Active,,,https://www.redfin.com/TX/San-Antonio/2607-Indian-Frst-78244/home/110108655,Sabor,1808989,N,Y,29.4535778,-98.3707913
MLS Listing,,Single Family Residential,7639 Pangboche Trl,San Antonio,TX,78227,256999,4,2.0,Torian Village,1667,4791,2024,3,154,63,Active,,,https://www.redfin.com/TX/San-Antonio/7639-Pangboche-TRL-Unknown/home/192175478,Sabor,1808988,N,Y,29.407936096191406,-98.6267318725586
MLS Listing,,Single Family Residential,7635 Pangboche Trl,San Antonio,TX,78227,246999,3,2.0,Torian Village,1474,4791,2024,3,168,63,Active,,,https://www.redfin.com/TX/San-Antonio/7635-Pangboche-TRL-Unknown/home/192239456,Sabor,1808987,N,Y,29.407936096191406,-98.6267318725586
MLS Listing,,Single Family Residential,4942 Stoneleigh Dr,San Antonio,TX,78220-4844,229000,3,3.0,Dellcrest,1521,8537,1961,3,151,,Active,,,https://www.redfin.com/TX/San-Antonio/4942-Stoneleigh-Dr-78220/home/48961924,Sabor,1808986,N,Y,29.4006128,-98.394811
MLS Listing,,Single Family Residential,1818 W Hermosa Dr,San Antonio,TX,78201-3546,350000,5,2.0,Los Angeles Hts/keystone Histo,1753,6011,1950,3,200,,Active,,,https://www.redfin.com/TX/San-Antonio/1818-W-Hermosa-Dr-78201/home/48886392,Sabor,1808985,N,Y,29.4782328,-98.5250766
MLS Listing,,Single Family Residential,11835 Guessing Way,San Antonio,TX,78073,216999,4,2.0,Valle Sol,1600,4791,2024,3,136,85,Active,,,https://www.redfin.com/TX/Von-Ormy/11835-Guessing-Way-78073/home/192567377,Sabor,1808984,N,Y,29.3050699,-98.6152496
MLS Listing,,Vacant Land,LOT 12 Cantera Golf,San Antonio,TX,78255,875000,,,The Vistas At La Cantera,,30753,,3,,250,Active,,,https://www.redfin.com/TX/San-Antonio/LOT-12-Cantera-Golf-78255/home/192567371,Sabor,1808983,N,Y,29.6085026,-98.620298
MLS Listing,,Single Family Residential,11831 Guessing Way,San Antonio,TX,78073,194999,3,2.0,Valle Sol,1266,4791,2024,3,154,85,Active,,,https://www.redfin.com/TX/Von-Ormy/11831-Guessing-Way-78073/home/192567367,Sabor,1808982,N,Y,29.305164,-98.6153256
MLS Listing,,Single Family Residential,11839 Guessing Way,San Antonio,TX,78073,210999,3,2.0,Valle Sol,1402,4791,2024,3,150,85,Active,,,https://www.redfin.com/TX/Von-Ormy/11839-Guessing-Way-78073/home/192567363,Sabor,1808981,N,Y,29.3049757,-98.6151735
MLS Listing,,Single Family Residential,11730 Blasting Way,San Antonio,TX,78073,181999,4,2.0,Valle Sol,1500,4791,2024,3,121,85,Active,,,https://www.redfin.com/TX/Von-Ormy/11730-Blasting-Way-78073/home/192567337,Sabor,1808978,N,Y,29.3060602,-98.6176237
MLS Listing,,Single Family Residential,11726 Blasting Way,San Antonio,TX,78073,179999,3,2.0,Valle Sol,1200,4791,2024,3,150,85,Active,,,https://www.redfin.com/TX/Von-Ormy/11726-Blasting-Way-78073/home/192567327,Sabor,1808975,N,Y,29.3061386,-98.6176871
MLS Listing,,Single Family Residential,8435 Pink Sapphire,San Antonio,TX,78263,222999,3,2.0,Sapphire Grove,1402,4791,2024,3,159,106,Active,,,https://www.redfin.com/TX/San-Antonio/8435-Pink-Sapphire-78263/home/192567316,Sabor,1808974,N,Y,29.3545299,-98.3240667
MLS Listing,,Single Family Residential,8419 Pink Sapphire,San Antonio,TX,78263,192999,3,2.0,Sapphire Grove,1266,4791,2024,3,152,106,Active,,,https://www.redfin.com/TX/San-Antonio/8419-Pink-Sapphire-78263/home/192130743,Sabor,1808973,N,Y,29.3546376,-98.324562
MLS Listing,,Single Family Residential,11722 Blasting Way,San Antonio,TX,78073,194999,4,2.5,Valle Sol,1802,4791,2024,3,108,85,Active,,,https://www.redfin.com/TX/Von-Ormy/11722-Blasting-Way-78073/home/192567285,Sabor,1808972,N,Y,29.3062171,-98.6177504
MLS Listing,,Single Family Residential,11741 Troubadour Trl,San Antonio,TX,78245,310000,3,2.0,Harlach Farms,1540,5227,2018,3,201,38,Active,,,https://www.redfin.com/TX/San-Antonio/11741-Troubadour-Trl-78245/home/145237423,Sabor,1808970,N,Y,29.3819246,-98.7263528
MLS Listing,,Single Family Residential,8456 Pink Sapphire,San Antonio,TX,78263,212999,4,2.0,Sapphire Grove,1600,4791,2024,3,133,106,Active,,,https://www.redfin.com/TX/San-Antonio/8456-Pink-Sapphire-78263/home/192000692,Sabor,1808968,N,Y,29.3539692,-98.3236746
MLS Listing,,Single Family Residential,10650 Vesta Curv,San Antonio,TX,78224,234999,3,2.0,Vida,1402,4791,2024,3,168,33,Active,,,https://www.redfin.com/TX/San-Antonio/10650-Vesta-Curv-78224/home/192566559,Sabor,1808967,N,Y,29.308504104614258,-98.53758239746094
MLS Listing,,Single Family Residential,10654 Vesta Curv,San Antonio,TX,78224,260999,4,2.5,Vida,1952,6969,2024,3,134,33,Active,,,https://www.redfin.com/TX/San-Antonio/10654-Vesta-Curv-78224/home/192591971,Sabor,1808965,N,Y,29.308504104614258,-98.53758239746094
MLS Listing,,Single Family Residential,8535 Black Sapphire,San Antonio,TX,78263,183999,3,2.0,Sapphire Grove,1213,4791,2024,3,152,106,Active,,,https://www.redfin.com/TX/San-Antonio/8535-Black-Sapphire-78263/home/192567185,Sabor,1808963,N,Y,29.3554237,-98.3197946
MLS Listing,,Single Family Residential,8527 Black Sapphire,San Antonio,TX,78263,231999,4,2.5,Sapphire Grove,1897,4791,2024,3,122,106,Active,,,https://www.redfin.com/TX/San-Antonio/8527-Black-Sapphire-78263/home/192567145,Sabor,1808959,N,Y,29.3554237,-98.3197946
MLS Listing,,Single Family Residential,6411 Ridge Pl,San Antonio,TX,78250-4038,345000,6,4.0,Great Northwest,1778,7535,1983,3,194,26,Active,,,https://www.redfin.com/TX/San-Antonio/6411-Ridge-Place-St-78250/home/49109845,Sabor,1808955,N,Y,29.4946544,-98.6737828
MLS Listing,,Condo/Co-op,306 Madison #4,San Antonio,TX,78204-1360,300000,2,1.0,San Antonio,575,,1920,3,522,395,Active,,,https://www.redfin.com/TX/San-Antonio/306-Madison-St-78204/unit-4/home/190194877,Sabor,1808950,N,Y,29.4142661,-98.4918998
MLS Listing,,Single Family Residential,7221 Black Star,San Antonio,TX,78263,209999,3,2.0,Sapphire Grove,1354,4791,2024,3,155,106,Active,,,https://www.redfin.com/TX/San-Antonio/7221-Black-Star-78263/home/192567085,Sabor,1808948,N,Y,29.3554237,-98.3197946
MLS Listing,,Single Family Residential,3818 Wetmore Rdg,San Antonio,TX,78247-2753,292000,3,2.5,St. James Place,2050,6446,1997,3,142,35,Active,,,https://www.redfin.com/TX/San-Antonio/3818-Wetmore-Rdg-78247/home/49013816,Sabor,1808947,N,Y,29.5704998,-98.4160841
MLS Listing,,Single Family Residential,871 Gillette Blvd,San Antonio,TX,78224-2315,269000,3,2.0,Harlandale,1535,17641,1950,3,175,,Active,,,https://www.redfin.com/TX/San-Antonio/871-Gillette-Blvd-78224/home/48926415,Sabor,1808944,N,Y,29.3306216,-98.5266731
MLS Listing,,Single Family Residential,10119 Cedarvale Dr,San Antonio,TX,78245,270000,3,2.0,Heritage Farm,1952,6534,1992,3,138,,Active,,,https://www.redfin.com/TX/San-Antonio/10119-Cedarvale-Dr-78245/home/49019991,Sabor,1808940,N,Y,29.4359397,-98.6794631
MLS Listing,,Single Family Residential,4137 EL Paso St,San Antonio,TX,78237-3027,129500,2,1.0,West Lawn Area 5,666,3267,1954,3,194,,Active,,,https://www.redfin.com/TX/San-Antonio/4137-El-Paso-St-78237/home/48876197,Sabor,1808939,N,Y,29.42342,-98.5527914
MLS Listing,,Vacant Land,1807 Settlers Ct,San Antonio,TX,78258,1100000,,,Greystone Country,218236,218235,,3,5,213,Active,,,https://www.redfin.com/TX/San-Antonio/1807-Settlers-Ct-78258/home/48610788,Sabor,1808935,N,Y,29.626516,-98.53163
MLS Listing,,Single Family Residential,11228 Bushwack Pass,San Antonio,TX,78254,220000,3,2.0,Bridgewood,1212,4965,2002,3,182,33,Active,,,https://www.redfin.com/TX/San-Antonio/11228-Bushwack-Pass-78254/home/48602116,Sabor,1808934,N,Y,29.5167744,-98.7121053
MLS Listing,,Single Family Residential,143 Paul St,San Antonio,TX,78203,225000,2,2.0,Ncb 2923,864,4652,1937,3,260,,Active,,,https://www.redfin.com/TX/San-Antonio/143-Paul-St-78203/home/48745132,Sabor,1808931,N,Y,29.4154237,-98.4685874
MLS Listing,,Single Family Residential,9709 Durham Ml,San Antonio,TX,78254,273999,4,2.5,Waterwheel,1952,4791,2024,3,140,60,Active,,,https://www.redfin.com/TX/San-Antonio/9709-Durham-Ml-78254/home/192413593,Sabor,1808930,N,Y,29.5326369,-98.7823189
MLS Listing,,Single Family Residential,9718 Durham Ml,San Antonio,TX,78254,254999,3,2.0,Waterwheel,1402,4791,2024,3,182,60,Active,,,https://www.redfin.com/TX/San-Antonio/9718-Durham-Ml-78254/home/192566414,Sabor,1808929,N,Y,29.5327835,-98.7818783
MLS Listing,,Multi-Family (2-4 Unit),14414 Edgemont St,San Antonio,TX,78217,320000,4,4.0,El Chaparral,1878,8637,1983,3,170,,Active,,,https://www.redfin.com/TX/San-Antonio/14414-Edgemont-St-78217/home/49025986,Sabor,1808928,N,Y,29.5722582,-98.3903708
MLS Listing,,Single Family Residential,9714 Durham Ml,San Antonio,TX,78254,243999,3,2.0,Waterwheel,1266,4791,2024,3,193,60,Active,,,https://www.redfin.com/TX/San-Antonio/9714-Durham-Ml-78254/home/192566378,Sabor,1808927,N,Y,29.5327048,-98.7819277
MLS Listing,,Condo/Co-op,305 Madison #1,San Antonio,TX,78204-1355,275000,1,1.0,San Antonio,475,,1920,3,579,300,Active,,,https://www.redfin.com/TX/San-Antonio/305-Madison-St-78204/unit-1/home/190194915,Sabor,1808925,N,Y,29.4145297,-98.4920129
MLS Listing,,Single Family Residential,12535 Quarter J,San Antonio,TX,78254-6031,370000,3,2.0,Stillwater Ranch,2086,5009,2011,4,177,57,Active,,,https://www.redfin.com/TX/San-Antonio/12535-Quarter-J-78254/home/48682595,Sabor,1808923,N,Y,29.5097663,-98.7430999
MLS Listing,,Single Family Residential,20334 Fire Stone,San Antonio,TX,78264,234999,4,2.5,Ruby Crossing,1952,4791,2024,4,120,25,Active,,,https://www.redfin.com/TX/San-Antonio/20334-Fire-Stone-78264/home/192202408,Sabor,1808922,N,Y,29.2172236,-98.4423519
MLS Listing,,Single Family Residential,7734 Windmill Hill St,San Antonio,TX,78229-3556,795000,4,3.5,5555 Fredricksburg,3673,12763,1999,4,216,55,Active,,,https://www.redfin.com/TX/San-Antonio/7734-Windmill-Hill-St-78229/home/48937780,Sabor,1808921,N,Y,29.5075847,-98.5663073
MLS Listing,,Single Family Residential,20404 Onyx Ring,San Antonio,TX,78264,181999,3,2.0,Ruby Crossing,1200,4791,2024,4,152,25,Active,,,https://www.redfin.com/TX/San-Antonio/20404-Onyx-Ring-78264/home/192563923,Sabor,1808919,N,Y,29.2155975,-98.4445963
MLS Listing,,Single Family Residential,11366 Candle Park,San Antonio,TX,78249-4426,230000,3,2.0,Parkwood,1559,5488,1991,4,148,21,Active,,,https://www.redfin.com/TX/San-Antonio/11366-Candle-Park-78249/home/49125073,Sabor,1808918,N,Y,29.5544081,-98.6392655
MLS Listing,,Single Family Residential,20402 Onyx Ring,San Antonio,TX,78264,157999,3,2.0,Ruby Crossing,1033,4791,2024,4,153,25,Active,,,https://www.redfin.com/TX/San-Antonio/20402-Onyx-Ring-78264/home/192019599,Sabor,1808916,N,Y,29.2156847,-98.4448232
MLS Listing,,Single Family Residential,511 Tomahawk Trl,Hill Country Village,TX,78232-3619,1800000,5,3.5,Hill Country Village,4250,217800,1978,4,424,,Active,,,https://www.redfin.com/TX/San-Antonio/511-Tomahawk-Trl-78232/home/48837027,Sabor,1808909,N,Y,29.5785194,-98.4984523
MLS Listing,,Single Family Residential,11518 Plover Pl,San Antonio,TX,78221-4405,318000,5,3.5,Mission Del Lago,2677,5270,2015,4,119,29,Active,,,https://www.redfin.com/TX/San-Antonio/11518-Plover-Pl-78221/home/110096401,Sabor,1808901,N,Y,29.3028008,-98.4863612
MLS Listing,,Single Family Residential,11730 Mission Trace St,San Antonio,TX,78230-2120,360000,3,2.5,Mission Trace,2367,3223,1977,4,152,189,Active,,,https://www.redfin.com/TX/San-Antonio/11730-Mission-Trace-St-78230/home/49026646,Sabor,1808800,N,Y,29.5492543,-98.5568145
MLS Listing,,Single Family Residential,262 Pinewood Ln,San Antonio,TX,78216,427500,3,2.0,Ridgeview,1663,11499,1957,4,257,,Active,,,https://www.redfin.com/TX/San-Antonio/262-Pinewood-Ln-78216/home/48944702,Sabor,1808898,N,Y,29.5097327,-98.4922599
MLS Listing,,Single Family Residential,4307 Buena Vista St,San Antonio,TX,78237-2126,149900,3,1.0,West Lawn Area 5,816,4486,1933,4,184,,Active,,,https://www.redfin.com/TX/San-Antonio/4307-Buena-Vista-St-78237/home/48907721,Sabor,1808897,N,Y,29.4290627,-98.549376
MLS Listing,,Single Family Residential,427 Morningview,San Antonio,TX,78220,250000,3,2.0,Wheatley Heights,1500,5488,2024,4,167,,Active,,,https://www.redfin.com/TX/San-Antonio/427-Morningview-Dr-78220/home/48911863,Sabor,1808893,N,Y,29.410659,-98.431658
MLS Listing,,Single Family Residential,4335 Southton Way,San Antonio,TX,78223-5509,260000,3,2.5,Southton Ranch,3068,5052,2007,4,85,17,Active,,,https://www.redfin.com/TX/San-Antonio/4335-Southton-Way-78223/home/48666073,Sabor,1808889,N,Y,29.2876517,-98.4048105
MLS Listing,,Vacant Land,728 Humboldt,San Antonio,TX,78211,50000,,,Harlandale,6011,5662,,4,8,,Active,,,https://www.redfin.com/TX/San-Antonio/728-Humboldt-St-78211/home/48890515,Sabor,1808882,N,Y,29.3724165,-98.5355111
MLS Listing,,Single Family Residential,314 Mesa Loop,San Antonio,TX,78258,369000,3,2.5,Mesa Verde,1849,7405,2004,4,200,10,Active,,,https://www.redfin.com/TX/San-Antonio/314-Mesa-Loop-78258/home/49163234,Sabor,1808881,N,Y,29.6494182,-98.4921558
MLS Listing,,Single Family Residential,23514 Enchanted Fall,San Antonio,TX,78260-4319,489000,4,2.5,The Heights,2890,7666,2004,4,169,,Active,September-21-2024 11:00 AM,September-21-2024 03:00 PM,https://www.redfin.com/TX/San-Antonio/23514-Enchanted-Fall-78260/home/48612632,Sabor,1808879,N,Y,29.6689442,-98.4982104
MLS Listing,,Single Family Residential,4110 Warm Winds,San Antonio,TX,78253-4104,410000,3,2.0,Hill Country Retreat,1979,7230,2012,4,207,168,Active,,,https://www.redfin.com/TX/San-Antonio/4110-Warm-Winds-78253/home/48713120,Sabor,1808874,N,Y,29.4734348,-98.7384264
MLS Listing,,Single Family Residential,527 Indian Blossom,San Antonio,TX,78219,285000,3,2.5,Willow Point,1760,4617,2024,4,162,31,Active,,,https://www.redfin.com/TX/San-Antonio/527-Indian-Blossom-Unknown/home/188177726,Sabor,1808873,N,Y,29.442148208618164,-98.38868713378906
MLS Listing,,Single Family Residential,1035 Rock Shelter,San Antonio,TX,78260-2565,539000,5,3.0,Boulders At Canyon Springs,2658,7753,2021,4,203,122,Active,September-21-2024 02:00 PM,September-21-2024 04:00 PM,https://www.redfin.com/TX/San-Antonio/1035-Rock-Shelter-78260/home/48690130,Sabor,1808869,N,Y,29.6845399,-98.476769
MLS Listing,,Single Family Residential,1106 Mineral Hls,San Antonio,TX,78260,320000,4,2.0,Canyon Springs/enclave At,1913,7405,2006,4,167,91,Active,,,https://www.redfin.com/TX/San-Antonio/1106-Mineral-Hls-78260/home/48672604,Sabor,1808868,N,Y,29.6866662,-98.4754814
MLS Listing,,Single Family Residential,7722 Braun Bnd,San Antonio,TX,78250-2679,525000,5,3.5,Braun Hollow,3406,7492,2000,4,154,40,Active,,,https://www.redfin.com/TX/San-Antonio/7722-Braun-Bnd-78250/home/49121090,Sabor,1808865,N,Y,29.5163973,-98.6501621
MLS Listing,,Single Family Residential,2510 Montebello,San Antonio,TX,78259-2014,380000,4,2.5,Encino Forest,2595,6011,1987,4,146,46,Active,September-21-2024 12:00 AM,September-21-2024 03:00 PM,https://www.redfin.com/TX/San-Antonio/2510-Montebello-78259/home/49091973,Sabor,1808864,N,Y,29.633015,-98.439806
MLS Listing,,Single Family Residential,937 Landon Rdg,San Antonio,TX,78245,228999,3,2.0,Landon Ridge,1266,4791,2024,4,181,43,Active,,,https://www.redfin.com/TX/San-Antonio/937-Landon-Rdg-78245/home/192106476,Sabor,1808862,N,Y,29.4247719,-98.78973
MLS Listing,,Single Family Residential,2822 Worbler Pass,San Antonio,TX,78245-2854,160000,2,1.0,Heritage Park,980,5009,2001,4,163,,Active,,,https://www.redfin.com/TX/San-Antonio/2822-Worbler-Pass-78245/home/49151282,Sabor,1808860,N,Y,29.4032016,-98.6921462
MLS Listing,,Vacant Land,10336 Mount Evans,San Antonio,TX,78251,130000,,,Mountain View,,20691,,4,,,Active,,,https://www.redfin.com/TX/San-Antonio/10336-Mount-Evans-78251/home/49073334,Sabor,1808858,N,Y,29.483186,-98.695434
MLS Listing,,Single Family Residential,7715 Rainfall Ridge Dr,San Antonio,TX,78239,226000,3,2.5,Crownwood,1908,7666,1985,4,118,,Active,,,https://www.redfin.com/TX/San-Antonio/7715-Rainfall-Ridge-Dr-78239/home/48810414,Sabor,1808856,N,Y,29.5177088,-98.3325164
MLS Listing,,Single Family Residential,5363 Uecker Rd,San Antonio,TX,78220-4940,255000,3,2.0,Uecker Tract 1,1629,5662,1950,4,157,,Active,,,https://www.redfin.com/TX/San-Antonio/5363-Uecker-Rd-78220/home/160830051,Sabor,1808853,N,Y,29.4063823,-98.3862152
MLS Listing,,Multi-Family (2-4 Unit),7642 Oak Chase,San Antonio,TX,78239-3552,280000,6,4.0,Windsor Heights,2535,8450,2004,4,110,,Active,,,https://www.redfin.com/TX/San-Antonio/7642-Oak-Chase-78239/home/48807407,Sabor,1807702,N,Y,29.5063371,-98.3618702
MLS Listing,,Single Family Residential,911 Silver Spruce,San Antonio,TX,78232,445000,3,2.0,Hidden Forest,2079,9365,1978,4,214,36,Active,,,https://www.redfin.com/TX/San-Antonio/911-Silver-Spruce-St-78232/home/49077355,Sabor,1808840,N,Y,29.5878887,-98.5073259
MLS Listing,,Single Family Residential,7530 Cove Way,San Antonio,TX,78250,370000,4,3.5,Northchase,2547,6664,2018,4,145,23,Active,September-22-2024 01:00 PM,September-22-2024 03:00 PM,https://www.redfin.com/TX/San-Antonio/7530-Cove-Way-78250/home/167722710,Sabor,1808829,N,Y,29.5077935,-98.6616345
MLS Listing,,Single Family Residential,912 Dawson 200 St,San Antonio,TX,78202,315000,2,2.0,Block 1370,2501,4214,2020,4,126,,Active,,,https://www.redfin.com/TX/San-Antonio/912-Dawson-St-78202/unit-200/home/190563204,HARMLS,39541784,N,Y,29.4261262,-98.469645
MLS Listing,,Single Family Residential,1806 Highland Mist Ln,San Antonio,TX,78251-3100,349900,5,2.5,Oak Creek,2683,20342,1994,4,130,,Active,,,https://www.redfin.com/TX/San-Antonio/1806-Highland-Mist-Ln-78251/home/48779669,Sabor,1808825,N,Y,29.4614778,-98.7052255
MLS Listing,,Single Family Residential,16200 Garden Oaks St,San Antonio,TX,78232-2503,379800,3,2.0,Garden Oaks,1927,5009,1979,4,197,,Active,,,https://www.redfin.com/TX/San-Antonio/16200-Garden-Oaks-St-78232/home/49044262,Sabor,1808824,N,Y,29.59018,-98.4533486
MLS Listing,,Single Family Residential,1419 Oasis Crk,San Antonio,TX,78260-6032,450000,3,2.0,Lakeside At Canyon Springs,2763,8712,2007,4,163,70,Active,,,https://www.redfin.com/TX/San-Antonio/1419-Oasis-Crk-78260/home/48664078,Sabor,1808819,N,Y,29.690852,-98.470756
MLS Listing,,Single Family Residential,1005 Virginia Blvd,San Antonio,TX,78203-1627,295000,3,2.0,Denver Heights West Of New Bra,1342,6664,1997,4,220,,Active,,,https://www.redfin.com/TX/San-Antonio/1005-Virginia-Blvd-78203/home/48729001,Sabor,1808818,N,Y,29.4108991,-98.4668378
MLS Listing,,Single Family Residential,1611 LA Manda Blvd,San Antonio,TX,78201-2328,295000,3,2.0,Los Angeles Heights,1743,6098,1949,4,169,,Active,,,https://www.redfin.com/TX/San-Antonio/1611-La-Manda-Blvd-78201/home/48903555,Sabor,1808817,N,Y,29.4868063,-98.5212586
MLS Listing,,Single Family Residential,4806 Appaloosa,San Antonio,TX,78244-3517,219900,3,2.0,Mustang Valley,1547,4617,2007,4,142,17,Active,,,https://www.redfin.com/TX/San-Antonio/4806-Appaloosa-Run-78244/home/48676264,Sabor,1808816,N,Y,29.4732085,-98.337477
MLS Listing,,Single Family Residential,805 Denver Blvd,San Antonio,TX,78210-2242,140000,3,1.0,Denver Heights West Of New Bra,960,7013,1950,4,146,,Active,,,https://www.redfin.com/TX/San-Antonio/805-Denver-Blvd-78210/home/48730561,Sabor,1808814,N,Y,29.4051314,-98.4630456
MLS Listing,,Single Family Residential,10707 Lone Ranger,San Antonio,TX,78254-2686,535000,4,3.0,Davis Ranch,3344,7187,2021,4,160,41,Active,,,https://www.redfin.com/TX/Helotes/10707-Lone-Ranger-78023/home/181939152,Sabor,1808776,N,Y,29.54345,-98.73862
MLS Listing,,Single Family Residential,8902 Catkin Mdw,San Antonio,TX,78245-4000,285000,4,2.5,Chestnut Springs,2156,10497,2009,4,132,8,Active,,,https://www.redfin.com/TX/San-Antonio/8902-Catkin-Mdw-78245/home/48698363,Sabor,1808810,N,Y,29.4360642,-98.6610843
MLS Listing,,Single Family Residential,5007 Taylor Kenton,San Antonio,TX,78240-5424,249999,3,2.5,Kenton Place Two,1569,3267,1997,4,159,23,Active,,,https://www.redfin.com/TX/San-Antonio/5007-Taylor-Kenton-78240/home/49034666,Sabor,1808805,N,Y,29.5313014,-98.5814397
MLS Listing,,Single Family Residential,2316 Newoak Park,San Antonio,TX,78230,399900,4,2.5,Huntington Place,2334,9104,1995,4,171,25,Active,,,https://www.redfin.com/TX/San-Antonio/2316-Newoak-Park-78230/home/49119856,Sabor,1808804,N,Y,29.5621412,-98.5813063
