SALE TYPE,SOLD DATE,PROPERTY TYPE,ADDRESS,CITY,STATE OR PROVINCE,ZIP OR POSTAL CODE,PRICE,BEDS,BATHS,LOCATION,SQUARE FEET,LOT SIZE,YEAR BUILT,DAYS ON MARKET,$/SQUARE FEET,HOA/MONTH,STATUS,NEXT OPEN HOUSE START TIME,NEXT OPEN HOUSE END TIME,URL (SEE https://www.redfin.com/buy-a-home/comparative-market-analysis FOR INFO ON PRICING),SOURCE,MLS#,FAVORITE,INTERESTED,LATITUDE,LONGITUDE
MLS Listing,,Single Family Residential,6268 Jarvis Rd,Sarasota,FL,34241,500000,3,2.0,LAKE SARASOTA,1364,10179,2001,3,367,,Active,,,https://www.redfin.com/FL/Sarasota/6268-Jarvis-Rd-34241/home/47698664,Stellar MLS as Distributed by MLS Grid,A4623064,N,Y,27.2917038,-82.4448852
MLS Listing,,Condo/Co-op,5591 Rosehill Rd #203,Sarasota,FL,34233,320000,2,2.0,ADMIRALS WALK,1316,,2002,18,243,552,Active,,,https://www.redfin.com/FL/Sarasota/5591-Rosehill-Rd-34233/unit-203/home/47598577,Stellar MLS as Distributed by MLS Grid,A4621586,N,Y,27.2711472,-82.4593921
MLS Listing,,Single Family Residential,8124 Glenbrooke Pl,Sarasota,FL,34243,411000,3,2.0,GLENBROOKE,1466,8233,1987,20,280,31,Active,,,https://www.redfin.com/FL/Sarasota/8124-Glenbrooke-Pl-34243/home/45966395,Stellar MLS as Distributed by MLS Grid,A4621571,N,Y,27.395885,-82.5017238
MLS Listing,,Single Family Residential,1720 Ingram Ave,Sarasota,FL,34232,429000,3,2.0,BAHIA VISTA HEIGHTS,1225,8020,1959,29,350,,Active,,,https://www.redfin.com/FL/Sarasota/1720-Ingram-Ave-34232/home/47634100,Stellar MLS as Distributed by MLS Grid,T3547106,N,Y,27.3176799,-82.4926146
MLS Listing,,Townhouse,1226 Grantham Dr,Sarasota,FL,34234,345000,3,2.5,BRADFORD MANOR TWNHMS,1758,1880,2019,39,196,285,Active,,,https://www.redfin.com/FL/Sarasota/1226-Grantham-Dr-34234/home/47606136,Stellar MLS as Distributed by MLS Grid,A4618815,N,Y,27.3709906,-82.5215637
MLS Listing,,Single Family Residential,12621 Promenade Ests,Sarasota,FL,34238,615000,4,3.0,PROMENADE ESTATES ON PALMER RANCH,2826,6672,2020,81,218,218,Active,,,https://www.redfin.com/FL/Sarasota/12621-Promenade-Estates-Blvd-34238/home/170361217,Stellar MLS as Distributed by MLS Grid,T3536924,N,Y,27.2021874,-82.4524774
MLS Listing,,Condo/Co-op,3987 Maceachen Blvd #123,Sarasota,FL,34233,275000,2,2.0,TREGATE EAST,978,,1978,1,281,571,Active,,,https://www.redfin.com/FL/Sarasota/3987-Maceachen-Blvd-34233/unit-123/home/47648998,Stellar MLS as Distributed by MLS Grid,A4623691,N,Y,27.2963702,-82.494184
MLS Listing,,Condo/Co-op,4973 Village Gardens Dr #50,Sarasota,FL,34234,229000,2,2.0,VILLAGE GARDENS PH 1,966,,1981,1,237,580,Active,,,https://www.redfin.com/FL/Sarasota/4973-Village-Gardens-Dr-34234/unit-50/home/47621136,Stellar MLS as Distributed by MLS Grid,A4623207,N,Y,27.3755251,-82.5456023
MLS Listing,,Single Family Residential,6619 Bowline Dr,Sarasota,FL,34231,375000,2,2.0,GULF GATE,1434,8030,1967,1,262,,Active,,,https://www.redfin.com/FL/Sarasota/6619-Bowline-Dr-34231/home/47666438,Stellar MLS as Distributed by MLS Grid,A4623208,N,Y,27.2599486,-82.5013912
MLS Listing,,Single Family Residential,2105 Leon Ave,Sarasota,FL,34234,225000,3,1.0,IRVINGTON HEIGHTS,840,8946,1960,1,268,,Active,,,https://www.redfin.com/FL/Sarasota/2105-Leon-Ave-34234/home/47824574,Stellar MLS as Distributed by MLS Grid,A4623678,N,Y,27.3558521,-82.5403669
MLS Listing,,Single Family Residential,4726 E Trails Dr,Sarasota,FL,34232,1075000,4,2.5,LAKES ESTATES 3 OF SARASOTA,2965,20572,1988,1,363,165,Active,,,https://www.redfin.com/FL/Sarasota/4726-E-Trails-Dr-34232/home/47633220,Stellar MLS as Distributed by MLS Grid,A4619151,N,Y,27.31684,-82.474218
MLS Listing,,Condo/Co-op,7150 N Tamiami Trl Unit S523,Sarasota,FL,34243,124000,1,1.0,SARASOTA CAY CLUB CONDO,348,,1959,1,356,620,Active,,,https://www.redfin.com/FL/Sarasota/7150-N-Tamiami-Trl-34243/unit-S523/home/45921888,Stellar MLS as Distributed by MLS Grid,TB8303979,N,Y,27.4130872,-82.5735366
MLS Listing,,Condo/Co-op,7150 N Tamiami Trl Unit S521,Sarasota,FL,34243,150000,1,1.0,SARASOTA CAY CLUB CONDO,348,,1959,1,431,620,Active,,,https://www.redfin.com/FL/Sarasota/7150-N-Tamiami-Trl-34243/unit-S521/home/45921890,Stellar MLS as Distributed by MLS Grid,TB8303876,N,Y,27.4130872,-82.5735366
MLS Listing,,Condo/Co-op,7560 Fairway Woods Dr #305,Sarasota,FL,34238,375000,2,2.0,SARASOTA RANCH ESTATES,1956,,1985,1,192,726,Active,,,https://www.redfin.com/FL/Sarasota/7560-Fairway-Woods-Dr-34238/unit-305/home/47676706,FORTMLS,224075786,N,Y,27.2425103,-82.4964685
MLS Listing,,Condo/Co-op,6157 Midnight Pass Rd Unit E12,Sarasota,FL,34242,525000,2,2.0,BAY OAKS,1101,185130,1974,1,477,700,Active,,,https://www.redfin.com/FL/Sarasota/6157-Midnight-Pass-Rd-34242/unit-E12/home/47671252,Stellar MLS as Distributed by MLS Grid,A4623418,N,Y,27.2587217,-82.5377783
MLS Listing,,Single Family Residential,1757 Mova St,Sarasota,FL,34231,380000,3,1.0,VAMO 2ND ADD TO,1114,10125,1964,1,341,,Active,,,https://www.redfin.com/FL/Sarasota/1757-Mova-St-34231/home/47681249,Stellar MLS as Distributed by MLS Grid,N6134544,N,Y,27.2213799,-82.4978076
MLS Listing,,Single Family Residential,7889 Mainsail Ln,Sarasota,FL,34240,2123000,4,4.0,SHOREVIEW/LAKEWOOD RANCH WATER,3963,9712,2023,1,536,436,Active,,,https://www.redfin.com/FL/Sarasota/7889-Mainsail-Ln-34240/home/174438617,Stellar MLS as Distributed by MLS Grid,A4622515,N,Y,27.3704579,-82.4015901
MLS Listing,,Single Family Residential,1862 Rita St,Sarasota,FL,34231,411700,3,2.0,MEAD HELEN D,1157,11475,1979,1,356,,Active,,,https://www.redfin.com/FL/Sarasota/1862-Rita-St-34231/home/47681747,Stellar MLS as Distributed by MLS Grid,A4622926,N,Y,27.2199608,-82.4951956
MLS Listing,,Single Family Residential,160 Eagleston Ln,Lakewood Rch,FL,34240,661499,3,2.5,BUNGALOW WALK LAKEWOOD RANCH NEIGHBORHOOD,1696,3219,2024,1,390,190,Active,September-21-2024 10:00 AM,September-21-2024 05:00 PM,https://www.redfin.com/FL/LAKEWOOD-RCH/160-Eagleston-LN-34240/home/192578052,Stellar MLS as Distributed by MLS Grid,G5087157,N,Y,27.361122,-82.504925
MLS Listing,,Single Family Residential,3217 Salem Ave,Sarasota,FL,34232,402900,2,2.0,SARASOTA SPGS,1285,10124,1960,1,314,,Active,,,https://www.redfin.com/FL/Sarasota/3217-Salem-Ave-34232/home/47643745,Stellar MLS as Distributed by MLS Grid,A4623077,N,Y,27.304735,-82.4795504
MLS Listing,,Single Family Residential,2961 Captiva Gardens Dr #25,Sarasota,FL,34231,360000,2,2.0,CAPTIVA GARDENS,1206,,1975,1,299,625,Active,,,https://www.redfin.com/FL/Sarasota/2961-Captiva-Gardens-Dr-34231/unit-25/home/47675331,Stellar MLS as Distributed by MLS Grid,A4623618,N,Y,27.2455752,-82.4983275
MLS Listing,,Single Family Residential,3973 Boca Pointe Dr,Sarasota,FL,34238,2300000,4,4.5,PRESTANCIA M N & O AMD,3689,20234,1993,1,623,236,Active,,,https://www.redfin.com/FL/Sarasota/3973-Boca-Pointe-Dr-34238/home/47678230,Stellar MLS as Distributed by MLS Grid,A4622864,N,Y,27.2401806,-82.4888472
MLS Listing,,Single Family Residential,6817 Superior Street Cir,Sarasota,FL,34243,499900,3,2.0,LONGPOND AT MOTE RANCH III,1779,10019,1996,1,281,76,Active,,,https://www.redfin.com/FL/Sarasota/6817-Superior-Street-Cir-34243/home/45962269,Stellar MLS as Distributed by MLS Grid,TB8304195,N,Y,27.4182522,-82.4815631
MLS Listing,,Single Family Residential,5570 Country Club Way,Sarasota,FL,34243,400000,2,2.0,CLUB VILLAS II AT PALM-AIRE PHASE X,1878,,1989,1,213,566,Active,,,https://www.redfin.com/FL/Sarasota/5570-Country-Club-Way-34243/home/45963707,Stellar MLS as Distributed by MLS Grid,A4623230,N,Y,27.4032818,-82.4907133
MLS Listing,,Single Family Residential,5784 Forester Pond Ave,Sarasota,FL,34243,420000,2,2.0,CEDAR CREEK,1341,7805,1990,1,313,50,Active,,,https://www.redfin.com/FL/Sarasota/5784-Forester-Pond-Ave-34243/home/47619844,Stellar MLS as Distributed by MLS Grid,A4623579,N,Y,27.3848812,-82.498701
MLS Listing,,Single Family Residential,3525 Founders Club Dr,Sarasota,FL,34240,2875000,3,3.5,FOUNDERS CLUB,3451,21480,2019,1,833,443,Active,,,https://www.redfin.com/FL/Sarasota/3525-Founders-Club-Dr-34240/home/47593945,Stellar MLS as Distributed by MLS Grid,A4623406,N,Y,27.3265523,-82.3921024
MLS Listing,,Single Family Residential,4063 Westbourne Cir,Sarasota,FL,34238,685000,3,2.0,STONEYBROOK AT PALMER RANCH,2236,11059,1994,1,306,116,Active,,,https://www.redfin.com/FL/Sarasota/4063-Westbourne-Cir-34238/home/47682109,Stellar MLS as Distributed by MLS Grid,A4619601,N,Y,27.2125181,-82.4882729
MLS Listing,,Condo/Co-op,2121 Wood St #213,Sarasota,FL,34237,230000,2,2.0,CITYWALK,885,,1974,1,260,523,Active,,,https://www.redfin.com/FL/Sarasota/2121-Wood-St-34237/unit-213/home/47591902,Stellar MLS as Distributed by MLS Grid,A4622924,N,Y,27.3295731,-82.5270268
MLS Listing,,Single Family Residential,5035 Webber St,Sarasota,FL,34232,335000,2,1.0,BRENTWOOD ESTATES,1156,10142,1960,1,290,,Active,,,https://www.redfin.com/FL/Sarasota/5035-Webber-St-34232/home/47643203,Stellar MLS as Distributed by MLS Grid,A4623290,N,Y,27.3086216,-82.4684786
MLS Listing,,Condo/Co-op,1111 Longfellow Rd #1111,Sarasota,FL,34243,220000,2,2.0,SHADYBROOK VILLAGE AMD,1152,,1979,1,191,476,Active,,,https://www.redfin.com/FL/Sarasota/1111-Longfellow-Rd-34243/unit-1111/home/46019052,Stellar MLS as Distributed by MLS Grid,A4623512,N,Y,27.420098,-82.552145
MLS Listing,,Single Family Residential,495 Mckinley Dr,Sarasota,FL,34236,5900000,4,4.5,LIDO BEACH DIV B PLAT 3,3903,15425,1993,1,1512,,Active,,,https://www.redfin.com/FL/Sarasota/495-McKinley-Dr-34236/home/47820451,Stellar MLS as Distributed by MLS Grid,A4623467,N,Y,27.3109074,-82.5697654
MLS Listing,,Condo/Co-op,5630 Golf Pointe Dr #207,Sarasota,FL,34243,295000,3,2.5,GOLF POINTE AT PALM-AIRE,1620,,1984,1,182,665,Active,,,https://www.redfin.com/FL/Sarasota/5630-Golf-Pointe-Dr-34243/unit-207/home/45963814,Stellar MLS as Distributed by MLS Grid,A4622374,N,Y,27.4108573,-82.4899509
MLS Listing,,Condo/Co-op,111 Golden Gate Pt #201,Sarasota,FL,34236,2990000,3,3.0,THE EVOLUTION,2505,,2024,1,1194,3953,Active,,,https://www.redfin.com/FL/Sarasota/111-Golden-Gate-Pt-34236/unit-201/home/174800853,Stellar MLS as Distributed by MLS Grid,A4621924,N,Y,27.3347464,-82.5502813
MLS Listing,,Condo/Co-op,800 Hudson Ave #105,Sarasota,FL,34236,649000,2,2.5,HUDSON HARBOUR,1252,,1984,1,518,1125,Active,,,https://www.redfin.com/FL/Sarasota/800-Hudson-Ave-34236/unit-105/home/47832076,Stellar MLS as Distributed by MLS Grid,A4623516,N,Y,27.3279752,-82.5379802
MLS Listing,,Condo/Co-op,6157 Midnight Pass Rd Unit E65,Sarasota,FL,34242,550000,2,2.0,BAY OAKS,1101,185339,1974,1,500,700,Active,,,https://www.redfin.com/FL/Sarasota/6157-Midnight-Pass-Rd-34242/unit-E65/home/47671156,Stellar MLS as Distributed by MLS Grid,A4623556,N,Y,27.2587217,-82.5377783
MLS Listing,,Single Family Residential,4271 Carol Ann Rd #24,Sarasota,FL,34233,359900,3,2.0,CRESTWOOD VILLAGE OF SARA 4 & 5,1850,,1989,1,195,779,Active,,,https://www.redfin.com/FL/Sarasota/4271-Carol-Ann-Rd-34233/unit-24/home/47646521,Stellar MLS as Distributed by MLS Grid,A4623562,N,Y,27.2951938,-82.4639288
MLS Listing,,Single Family Residential,4964 Live Oak Dr,Sarasota,FL,34232,465000,2,2.0,BRENTWOOD ESTATES,1458,8489,1975,1,319,,Active,,,https://www.redfin.com/FL/Sarasota/4964-Live-Oak-Dr-34232/home/47642835,Stellar MLS as Distributed by MLS Grid,A4622347,N,Y,27.3135001,-82.4701891
MLS Listing,,Single Family Residential,3721 Aster Dr,Sarasota,FL,34233,495000,3,2.0,BENEVA PINES,2128,15715,1981,2,233,350,Active,,,https://www.redfin.com/FL/Sarasota/3721-Aster-Dr-34233/home/47661424,Stellar MLS as Distributed by MLS Grid,O6241840,N,Y,27.2826062,-82.497177
MLS Listing,,Condo/Co-op,8630 Midnight Pass Rd Unit 103A,Sarasota,FL,34242,659000,2,2.0,BAY TREE CLUB,1115,,1970,2,591,830,Active,,,https://www.redfin.com/FL/Sarasota/8630-Midnight-Pass-Rd-34242/unit-103A/home/47679984,Stellar MLS as Distributed by MLS Grid,A4621844,N,Y,27.2240002,-82.5183841
MLS Listing,,Single Family Residential,3072 Meyer Dr,Sarasota,FL,34239,639000,3,2.0,SOUTH GATE,1868,11550,1959,2,342,8,Active,,,https://www.redfin.com/FL/Sarasota/3072-Meyer-Dr-34239/home/47639234,Stellar MLS as Distributed by MLS Grid,A4623511,N,Y,27.3042404,-82.5084268
MLS Listing,,Single Family Residential,2428 Webber St,Sarasota,FL,34239,425000,2,1.0,ORANGE PARK,1154,7058,1925,2,368,,Active,,,https://www.redfin.com/FL/Sarasota/2428-Webber-St-34239/home/47593358,Stellar MLS as Distributed by MLS Grid,A4623297,N,Y,27.3080825,-82.5209684
MLS Listing,,Single Family Residential,7305 Mauna Loa Blvd,Sarasota,FL,34241,619000,3,2.0,LAKE SARASOTA,2336,10339,1984,2,265,,Active,,,https://www.redfin.com/FL/Sarasota/7305-Mauna-Loa-Blvd-34241/home/47697811,Stellar MLS as Distributed by MLS Grid,A4622991,N,Y,27.2911513,-82.4227214
MLS Listing,,Townhouse,2208 Bahia Vista St Unit F3,Sarasota,FL,34239,349000,3,3.0,CORDOVA GARDENS V,1397,,1981,2,250,720,Active,,,https://www.redfin.com/FL/Sarasota/2208-Bahia-Vista-St-34239/unit-F3/home/47831823,Stellar MLS as Distributed by MLS Grid,TB8303968,N,Y,27.3219393,-82.5256335
MLS Listing,,Single Family Residential,3209 Riviera Dr,Sarasota,FL,34232,479000,4,2.0,FOREST LAKES,1784,15427,1974,2,268,5,Active,,,https://www.redfin.com/FL/Sarasota/3209-Riviera-Dr-34232/home/47641156,Stellar MLS as Distributed by MLS Grid,A4623488,N,Y,27.3041059,-82.4938116
MLS Listing,,Condo/Co-op,642 N Jefferson Ave #13,Sarasota,FL,34237,250000,2,2.0,BERMUDA PARK,924,164502,1998,2,271,490,Active,,,https://www.redfin.com/FL/Sarasota/642-N-Jefferson-Ave-34237/unit-13/home/47826960,Stellar MLS as Distributed by MLS Grid,A4623521,N,Y,27.3417651,-82.518748
MLS Listing,,Condo/Co-op,5691 Bidwell Pkwy #102,Sarasota,FL,34233,239900,1,1.0,ADMIRALS WALK,848,,2002,3,283,357,Active,,,https://www.redfin.com/FL/Sarasota/5691-Bidwell-Pkwy-34233/unit-102/home/47598903,Stellar MLS as Distributed by MLS Grid,A4623510,N,Y,27.2698812,-82.4600608
MLS Listing,,Condo/Co-op,7016 W Country Club Dr N,Sarasota,FL,34243,325000,2,2.0,PALM-AIRE AT SARASOTA 10-B,1118,,1979,3,291,401,Active,,,https://www.redfin.com/FL/Sarasota/7016-W-Country-Club-Dr-N-34243/home/45963156,Stellar MLS as Distributed by MLS Grid,A4623317,N,Y,27.418346,-82.496472
MLS Listing,,Vacant Land,DR Martin Luther King JR Way,Sarasota,FL,34234,99900,,,NEWTOWN 1ST ADD TO,,7575,,3,,,Active,,,https://www.redfin.com/FL/Sarasota/Dr-Martin-Luther-King-Jr-Way-34234/home/47824948,Stellar MLS as Distributed by MLS Grid,TB8303832,N,Y,27.359396,-82.537663
MLS Listing,,Single Family Residential,2912 Pinecrest Way,Sarasota,FL,34239,649000,2,2.0,SOUTH GATE UNIT 25,1571,12101,1960,3,413,16,Active,,,https://www.redfin.com/FL/Sarasota/2912-Pinecrest-Way-34239/home/47639556,Stellar MLS as Distributed by MLS Grid,A4623358,N,Y,27.3027168,-82.5113322
MLS Listing,,Single Family Residential,3837 Camino Real,Sarasota,FL,34239,1095000,3,3.0,GRANADA,1887,8270,2003,3,580,,Active,,,https://www.redfin.com/FL/Sarasota/3837-Camino-Real-34239/home/47590992,Stellar MLS as Distributed by MLS Grid,A4623339,N,Y,27.2994594,-82.5365052
MLS Listing,,Single Family Residential,6775 Timberland Ln,Sarasota,FL,34241,2250000,5,5.0,TIMBER LAND RANCHETTES,7544,217803,1977,3,298,125,Active,September-19-2024 02:00 PM,September-19-2024 04:00 PM,https://www.redfin.com/FL/Sarasota/6775-Timberland-Ln-34241/home/47700283,Stellar MLS as Distributed by MLS Grid,TB8302764,N,Y,27.2619788,-82.402752
MLS Listing,,Single Family Residential,4775 Tri Par Dr,Sarasota,FL,34234,214900,2,2.0,TRI-PAR ESTATES,1108,6333,1969,3,194,132,Active,,,https://www.redfin.com/FL/Sarasota/4775-Tri-Par-Dr-34234/home/47620947,Stellar MLS as Distributed by MLS Grid,A4623394,N,Y,27.3763646,-82.5344273
MLS Listing,,Single Family Residential,8971 Bloomfield Blvd,Sarasota,FL,34238,1549000,4,3.5,SILVER OAK,4210,15286,2003,3,368,285,Active,,,https://www.redfin.com/FL/Sarasota/8971-Bloomfield-Blvd-34238/home/47839840,Stellar MLS as Distributed by MLS Grid,A4623313,N,Y,27.2154106,-82.4630059
MLS Listing,,Condo/Co-op,3654 Hispania Pl #314,Sarasota,FL,34232,189000,2,1.0,VILLAGE PLAZA SEC 2,995,,1974,3,190,432,Active,,,https://www.redfin.com/FL/Sarasota/3654-Hispania-Pl-34232/unit-314/home/47642322,Stellar MLS as Distributed by MLS Grid,A4623254,N,Y,27.3010659,-82.4960313
MLS Listing,,Condo/Co-op,4452 Narraganset Trl #94,Sarasota,FL,34233,198700,2,2.0,LAKE TIPPECANOE,1182,,1976,3,168,1620,Active,,,https://www.redfin.com/FL/Sarasota/4452-Narraganset-Trl-34233/unit-94/home/47647998,Stellar MLS as Distributed by MLS Grid,A4623470,N,Y,27.2893035,-82.4770651
MLS Listing,,Condo/Co-op,5721 Bentgrass Dr Unit 20-210,Sarasota,FL,34235,270000,2,2.0,LAS PALMAS OF SARASOTA,1246,3554728,2002,3,217,588,Active,,,https://www.redfin.com/FL/Sarasota/5721-Bentgrass-Dr-34235/unit-20-210/home/47597801,Stellar MLS as Distributed by MLS Grid,A4623340,N,Y,27.3756016,-82.4584395
MLS Listing,,Condo/Co-op,6263 Midnight Pass Rd #301,Sarasota,FL,34242,1080000,3,3.0,EXCELSIOR BEACH TO BAY 7,2018,,1981,4,535,1566,Active,,,https://www.redfin.com/FL/Sarasota/6263-Midnight-Pass-Rd-34242/unit-301/home/47671821,Stellar MLS as Distributed by MLS Grid,A4623044,N,Y,27.2566787,-82.5366976
MLS Listing,,Single Family Residential,4629 Antrim Dr,Sarasota,FL,34240,1300000,4,3.0,WORTHINGTON-PH 1,2998,10293,2021,4,434,203,Active,,,https://www.redfin.com/FL/Sarasota/4629-Antrim-Dr-34240/home/170101260,Stellar MLS as Distributed by MLS Grid,A4623292,N,Y,27.3153016,-82.3971763
MLS Listing,,Single Family Residential,1364 Georgetowne Cir,Sarasota,FL,34232,499900,3,2.0,GEORGETOWNE,1776,10357,1981,4,281,8,Active,September-17-2024 12:00 PM,September-17-2024 03:00 PM,https://www.redfin.com/FL/Sarasota/1364-Georgetowne-Cir-34232/home/47628230,Stellar MLS as Distributed by MLS Grid,TB8303213,N,Y,27.3494435,-82.4650088
MLS Listing,,Single Family Residential,5882 Lantern Ct,Sarasota,FL,34243,639000,3,2.5,MOTE RANCH VILLAGE I,2137,10062,1990,4,299,74,Active,,,https://www.redfin.com/FL/Sarasota/5882-Lantern-Ct-34243/home/45962493,Stellar MLS as Distributed by MLS Grid,A4623271,N,Y,27.4188587,-82.4851157
MLS Listing,,Single Family Residential,8440 Sanderling Rd,Sarasota,FL,34242,6700000,4,4.5,SIESTA PROPERTIES INC,3302,46933,1969,4,2029,450,Active,,,https://www.redfin.com/FL/Sarasota/8440-Sanderling-Rd-34242/home/47679971,Stellar MLS as Distributed by MLS Grid,A4621267,N,Y,27.2284851,-82.5217992
MLS Listing,,Vacant Land,1479 Bay Point Dr,Sarasota,FL,34236,5549000,,,BAY POINT PARK 2,,21336,,4,,10,Active,,,https://www.redfin.com/FL/Sarasota/1479-Bay-Point-Dr-34236/home/47832783,Stellar MLS as Distributed by MLS Grid,A4623431,N,Y,27.3241297,-82.5405441
MLS Listing,,Single Family Residential,2517 S Brink Ave,Sarasota,FL,34239,665000,3,2.5,SOUTH GATE,1800,14082,1972,4,369,,Active,,,https://www.redfin.com/FL/Sarasota/2517-S-Brink-Ave-34239/home/47638657,Stellar MLS as Distributed by MLS Grid,A4622852,N,Y,27.3108718,-82.5108276
MLS Listing,,Townhouse,8660 Ice Wine St,Sarasota,FL,34238,414900,3,2.5,PROMENADE/PALMER RANCH PH 2,1819,2573,2020,4,228,632,Active,,,https://www.redfin.com/FL/Sarasota/8660-Ice-Wine-St-34238/home/170097733,Stellar MLS as Distributed by MLS Grid,A4623130,N,Y,27.257285,-82.479504
MLS Listing,,Single Family Residential,2117 Randa Blvd,Sarasota,FL,34235,449000,3,2.0,KENSINGTON PARK,1386,8625,1956,4,324,,Active,,,https://www.redfin.com/FL/Sarasota/2117-Randa-Blvd-34235/home/47629819,Stellar MLS as Distributed by MLS Grid,A4623370,N,Y,27.3562422,-82.504273
MLS Listing,,Single Family Residential,8343 Skye Ranch Blvd,Sarasota,FL,34241,829900,4,3.0,LT RANCH NBRHD ONE,2390,9196,2021,4,347,208,Active,,,https://www.redfin.com/FL/Sarasota/8343-Skye-Ranch-Blvd-34241/home/174439150,Stellar MLS as Distributed by MLS Grid,W7868355,N,Y,27.2404313,-82.3993816
MLS Listing,,Single Family Residential,4159 Prairie View Dr N,Sarasota,FL,34232,424900,4,3.0,SETTLEMENT THE,2318,21875,1986,4,183,24,Active,,,https://www.redfin.com/FL/Sarasota/4159-Prairie-View-Dr-34232/home/47830042,Stellar MLS as Distributed by MLS Grid,A4623261,N,Y,27.333781,-82.485772
MLS Listing,,Single Family Residential,3318 Yonge Ave #23,Sarasota,FL,34235,449000,3,2.0,BEEKMAN ESTATES SEC 2,1976,14982,1997,4,227,209,Active,,,https://www.redfin.com/FL/Sarasota/3318-Yonge-Ave-34235/unit-23/home/47622708,Stellar MLS as Distributed by MLS Grid,A4622723,N,Y,27.3693972,-82.5028249
MLS Listing,,Townhouse,3020 Via Sienna Cir,Sarasota,FL,34243,429900,3,2.5,SIENNA PARK TWNHMS/UNIVERSITY,2221,3118,2021,4,194,200,Active,,,https://www.redfin.com/FL/Sarasota/3020-Via-Sienna-Cir-34243/home/177970093,Stellar MLS as Distributed by MLS Grid,A4623375,N,Y,27.383959,-82.504405
MLS Listing,,Condo/Co-op,5942 Tidewood Ave #11,Sarasota,FL,34231,659000,2,2.0,BAYWOOD COLONY SEC 1,1601,235772,1973,4,412,1111,Active,,,https://www.redfin.com/FL/Sarasota/5942-Tidewood-Ave-34231/unit-11/home/47669168,Stellar MLS as Distributed by MLS Grid,A4622754,N,Y,27.2646562,-82.5347545
MLS Listing,,Single Family Residential,1389 Harbor Dr,Sarasota,FL,34239,2490000,3,2.5,HARBOR ACRES,2376,13596,1950,4,1048,,Active,,,https://www.redfin.com/FL/Sarasota/1389-Harbor-Dr-34239/home/47833261,Stellar MLS as Distributed by MLS Grid,A4623196,N,Y,27.3213837,-82.5415756
MLS Listing,,Condo/Co-op,1709 N Tamiami Trl #509,Sarasota,FL,34234,895000,1,2.0,THE STRAND,1332,,2022,4,672,593,Active,,,https://www.redfin.com/FL/Sarasota/1709-N-Tamiami-Trl-34234/unit-509/home/183148629,Stellar MLS as Distributed by MLS Grid,A4623371,N,Y,27.3536817,-82.548561
MLS Listing,,Single Family Residential,1368 Tearose Pl,Sarasota,FL,34239,950000,2,2.0,MANDARIN PARK,1542,7839,1999,4,616,490,Active,,,https://www.redfin.com/FL/Sarasota/1368-Tearose-Pl-34239/home/47833446,Stellar MLS as Distributed by MLS Grid,A4623006,N,Y,27.3215865,-82.5309633
MLS Listing,,Single Family Residential,2341 Pine Ter,Sarasota,FL,34231,639000,3,2.0,RIDGEWOOD,1306,14220,1983,4,489,,Active,,,https://www.redfin.com/FL/Sarasota/2341-Pine-Ter-34231/home/47652712,Stellar MLS as Distributed by MLS Grid,A4623231,N,Y,27.2898912,-82.5229793
MLS Listing,,Condo/Co-op,5683 Pipers Waite #44,Sarasota,FL,34235,615000,3,2.0,PIPERS WAITE,2362,,1985,4,260,808,Active,,,https://www.redfin.com/FL/Sarasota/5683-Pipers-Waite-34235/unit-44/home/47626071,Stellar MLS as Distributed by MLS Grid,A4623112,N,Y,27.363772,-82.460482
MLS Listing,,Single Family Residential,7339 Great Egret Blvd,Sarasota,FL,34241,800000,4,3.0,HERON LANDING,2469,9519,2022,4,324,233,Active,,,https://www.redfin.com/FL/Sarasota/7339-Great-Egret-Blvd-34241/home/148585490,Stellar MLS as Distributed by MLS Grid,A4621146,N,Y,27.2703722,-82.4273831
MLS Listing,,Single Family Residential,3556 Wilkinson Woods Dr #20,Sarasota,FL,34231,332000,2,2.0,WILKINSON WOODS,1548,,1980,4,214,514,Active,,,https://www.redfin.com/FL/Sarasota/3556-Wilkinson-Woods-Dr-34231/unit-20/home/47650935,Stellar MLS as Distributed by MLS Grid,A4623121,N,Y,27.2919926,-82.4984502
MLS Listing,,Single Family Residential,3638 Winderwood Dr,Sarasota,FL,34232,419900,3,2.0,RIDGEWOOD ESTATES 12 ADD,1409,9200,1973,4,298,,Active,,,https://www.redfin.com/FL/Sarasota/3638-Winderwood-Dr-34232/home/47646153,Stellar MLS as Distributed by MLS Grid,A4622674,N,Y,27.3009115,-82.459727
MLS Listing,,Single Family Residential,2542 Hillview St,Sarasota,FL,34239,577000,3,2.0,ALFRED PARK,1378,10446,1957,4,419,,Active,,,https://www.redfin.com/FL/Sarasota/2542-Hillview-St-34239/home/47832236,Stellar MLS as Distributed by MLS Grid,A4622646,N,Y,27.3162366,-82.5190926
MLS Listing,,Single Family Residential,7430 Weeping Willow Dr,Sarasota,FL,34241,1300000,4,3.5,BENT TREE VILLAGE,3789,30798,1993,4,343,112,Active,,,https://www.redfin.com/FL/Sarasota/7430-Weeping-Willow-Dr-34241/home/47699196,Stellar MLS as Distributed by MLS Grid,A4612543,N,Y,27.2767315,-82.4216304
MLS Listing,,Condo/Co-op,3755 S School Ave #44,Sarasota,FL,34239,215000,2,2.0,SUNLAND APTS,964,,1972,5,223,531,Active,,,https://www.redfin.com/FL/Sarasota/3755-S-School-Ave-34239/unit-44/home/47637988,Stellar MLS as Distributed by MLS Grid,A4622755,N,Y,27.3002981,-82.526152
MLS Listing,,Single Family Residential,5103 Greencroft Rd #24,Sarasota,FL,34235,429000,2,2.0,VIVIENDA AT THE MEADOWS,1487,,1979,5,289,628,Active,,,https://www.redfin.com/FL/Sarasota/5103-Greencroft-Rd-34235/unit-24/home/47627778,Stellar MLS as Distributed by MLS Grid,N6134516,N,Y,27.3555839,-82.4686433
MLS Listing,,Single Family Residential,3510 Iroquois Ave,Sarasota,FL,34234,669000,3,2.0,DESOTO TERRACE,1905,12750,1956,5,351,,Active,,,https://www.redfin.com/FL/Sarasota/3510-Iroquois-Ave-34234/home/47817907,Stellar MLS as Distributed by MLS Grid,A4623232,N,Y,27.3662876,-82.5531777
MLS Listing,,Single Family Residential,3419 27th Pkwy,Sarasota,FL,34235,295995,3,2.0,KENSINGTON PARK,1337,8128,1961,5,221,,Active,,,https://www.redfin.com/FL/Sarasota/3419-27th-Pkwy-34235/home/47629215,Stellar MLS as Distributed by MLS Grid,TB8303352,N,Y,27.3588318,-82.5019345
MLS Listing,,Condo/Co-op,6857 Whitman Way,Sarasota,FL,34243,215000,3,2.5,SHADYBROOK VILLAGE AMD,1365,,1973,5,158,476,Active,,,https://www.redfin.com/FL/Sarasota/6857-Whitman-Way-34243/home/46018585,Stellar MLS as Distributed by MLS Grid,A4623181,N,Y,27.420098,-82.552145
MLS Listing,,Single Family Residential,3523 Jacinto Ct,Sarasota,FL,34239,1875000,4,4.5,GRANADA,2956,5520,2024,5,634,,Active,,,https://www.redfin.com/FL/Sarasota/3523-Jacinto-Ct-34239/home/189950248,Stellar MLS as Distributed by MLS Grid,A4622291,N,Y,27.3023658,-82.5353204
MLS Listing,,Condo/Co-op,5760 Midnight Pass Rd #702,Sarasota,FL,34242,975000,2,2.0,GULF & BAY CLUB PH 4,1361,,1981,5,716,1586,Active,,,https://www.redfin.com/FL/Sarasota/5760-Midnight-Pass-Rd-34242/unit-702/home/47668568,Stellar MLS as Distributed by MLS Grid,A4623167,N,Y,27.2650173,-82.5469693
MLS Listing,,Condo/Co-op,4205 Via Piedra Cir Unit 8-202,Sarasota,FL,34233,289900,2,2.0,"UNIT 8-202, STONERIDGE PHASE 8",1036,,2005,5,280,394,Active,,,https://www.redfin.com/FL/Sarasota/4205-Via-Piedra-Cir-34233/unit-8-202/home/47600543,Stellar MLS as Distributed by MLS Grid,TB8301403,N,Y,27.2938236,-82.4652357
MLS Listing,,Single Family Residential,3925 Oakhurst Blvd #3010,Sarasota,FL,34233,274900,2,2.0,OAKHURST PH III,1374,,1982,5,200,563,Active,,,https://www.redfin.com/FL/Sarasota/3925-Oakhurst-Blvd-34233/unit-3010/home/47647876,Stellar MLS as Distributed by MLS Grid,A4622298,N,Y,27.2969344,-82.4755314
MLS Listing,,Single Family Residential,4939 Lakescene Pl,Sarasota,FL,34243,499000,2,2.0,AVALON AT THE VILLAGES OF PALM-AIRE 2,1827,4783,2001,5,273,250,Active,,,https://www.redfin.com/FL/Sarasota/4939-Lakescene-Pl-34243/home/46039536,Stellar MLS as Distributed by MLS Grid,A4622866,N,Y,27.4174159,-82.4987518
MLS Listing,,Single Family Residential,5412 America Dr,Sarasota,FL,34231,1350000,3,2.0,PHILLIPPI GARDENS 08,1843,16504,1983,5,733,,Active,,,https://www.redfin.com/FL/Sarasota/5412-America-Dr-34231/home/47658069,Stellar MLS as Distributed by MLS Grid,A4623245,N,Y,27.2751618,-82.5248298
MLS Listing,,Single Family Residential,4335 Maceachen Blvd,Sarasota,FL,34233,429900,3,2.0,SOUTH GATE RIDGE 02,1633,7866,1959,5,263,,Active,,,https://www.redfin.com/FL/Sarasota/4335-Maceachen-Blvd-34233/home/47649457,Stellar MLS as Distributed by MLS Grid,O6238868,N,Y,27.291985,-82.4954149
MLS Listing,,Single Family Residential,8338 Cypress Hollow Dr,Sarasota,FL,34238,995000,3,2.5,DEER CREEK,3078,13437,1990,5,323,181,Active,,,https://www.redfin.com/FL/Sarasota/8338-Cypress-Hollow-Dr-34238/home/47678111,Stellar MLS as Distributed by MLS Grid,A4622494,N,Y,27.2305669,-82.4792662
MLS Listing,,Single Family Residential,2304 Sandrala Dr,Sarasota,FL,34231,609900,4,3.0,RIDGEWOOD,2223,14210,1957,5,274,,Active,,,https://www.redfin.com/FL/Sarasota/2304-Sandrala-Dr-34231/home/47653378,Stellar MLS as Distributed by MLS Grid,A4622337,N,Y,27.2876253,-82.5253215
MLS Listing,,Single Family Residential,3556 E Forest Lake Dr,Sarasota,FL,34232,1750000,5,3.5,FOREST LAKES,3887,39509,1963,5,450,21,Active,,,https://www.redfin.com/FL/Sarasota/3556-E-Forest-Lake-Dr-34232/home/47641933,Stellar MLS as Distributed by MLS Grid,A4623123,N,Y,27.3022071,-82.4914224
MLS Listing,,Single Family Residential,1733 Rita St,Sarasota,FL,34231,350000,2,1.0,VAMO 1ST ADD TO,1279,17400,1959,5,274,,Active,,,https://www.redfin.com/FL/Sarasota/1733-Rita-St-34231/home/47681088,Stellar MLS as Distributed by MLS Grid,A4623215,N,Y,27.2204068,-82.4994768
MLS Listing,,Single Family Residential,4540 Ascot Cir N,Sarasota,FL,34235,375000,2,2.0,LONGWOOD VILLAS UNIT 1,1447,3822,1986,5,259,865,Active,,,https://www.redfin.com/FL/Sarasota/4540-Ascot-Cir-N-34235/home/47618557,Stellar MLS as Distributed by MLS Grid,A4623182,N,Y,27.380264,-82.4838427
MLS Listing,,Single Family Residential,2201 Stratford Dr,Sarasota,FL,34232,375000,3,2.0,SARASOTA SPGS,1476,10969,1960,5,254,,Active,,,https://www.redfin.com/FL/Sarasota/2201-Stratford-Dr-34232/home/47642594,Stellar MLS as Distributed by MLS Grid,A4622490,N,Y,27.312743,-82.4743091
MLS Listing,,Single Family Residential,3410 Spanish Oak Ter,Sarasota,FL,34237,205000,2,2.0,OAKWOOD MANOR,1152,4121,1973,5,178,180,Active,,,https://www.redfin.com/FL/Sarasota/3410-Spanish-Oak-Ter-34237/home/47829146,Stellar MLS as Distributed by MLS Grid,A4622186,N,Y,27.3316523,-82.4995648
MLS Listing,,Single Family Residential,5367 Dominica Cir,Sarasota,FL,34233,650000,4,3.0,CENTER GATE ESTATES PH 01B,2986,16000,1981,5,218,13,Active,,,https://www.redfin.com/FL/Sarasota/5367-Dominica-Cir-34233/home/47647717,Stellar MLS as Distributed by MLS Grid,A4623142,N,Y,27.2869037,-82.4635837
MLS Listing,,Single Family Residential,6043 Anvil Ave,Sarasota,FL,34243,559000,3,2.0,CHAPARRAL,2047,7187,1999,6,273,74,Active,,,https://www.redfin.com/FL/Sarasota/6043-Anvil-Ave-34243/home/45962118,Stellar MLS as Distributed by MLS Grid,O6240991,N,Y,27.4216013,-82.4843004
MLS Listing,,Single Family Residential,8431 Boleyn Rd,Sarasota,FL,34240,3995000,5,4.5,PALMER FARMS,4697,218172,2022,6,851,,Active,,,https://www.redfin.com/FL/Sarasota/8431-Boleyn-Rd-34240/home/47694868,Stellar MLS as Distributed by MLS Grid,A4621921,N,Y,27.3259001,-82.3955037
MLS Listing,,Condo/Co-op,5855 Midnight Pass Rd #420,Sarasota,FL,34242,765000,2,2.0,HARBOR TOWERS Y & R,1152,378972,1976,6,664,660,Active,,,https://www.redfin.com/FL/Sarasota/5855-Midnight-Pass-Rd-34242/unit-420/home/47669648,Stellar MLS as Distributed by MLS Grid,A4622971,N,Y,27.2650637,-82.5416098
MLS Listing,,Single Family Residential,5435 Lago Maggio St,Sarasota,FL,34238,825000,3,2.0,ESPLANADE ON PALMER RANCH PHASE 1,1918,7637,2017,6,430,538,Active,,,https://www.redfin.com/FL/Sarasota/5435-Lago-Maggio-St-34238/home/148585033,Stellar MLS as Distributed by MLS Grid,A4623137,N,Y,27.206588,-82.457213
MLS Listing,,Single Family Residential,6933 9th Ct E,Sarasota,FL,34243,450000,3,2.0,SARABAY WOODS,1528,10934,1993,6,295,48,Active,September-22-2024 12:00 PM,September-22-2024 03:00 PM,https://www.redfin.com/FL/Sarasota/6933-9th-Ct-E-34243/home/46019266,Stellar MLS as Distributed by MLS Grid,A4623073,N,Y,27.4163964,-82.5539627
MLS Listing,,Single Family Residential,2554 Novus St,Sarasota,FL,34237,499999,3,3.0,HUDSON PARK,1636,6750,1984,6,306,,Active,,,https://www.redfin.com/FL/Sarasota/2554-Novus-St-34237/home/47830660,Stellar MLS as Distributed by MLS Grid,A4623197,N,Y,27.3293397,-82.518678
MLS Listing,,Single Family Residential,3124 Windrush Bourne #10,Sarasota,FL,34235,475000,2,2.0,WINDRUSH BOURNE,1414,,1984,6,336,566,Active,,,https://www.redfin.com/FL/Sarasota/3124-Windrush-Bourne-34235/unit-10/home/47626647,Stellar MLS as Distributed by MLS Grid,A4620852,N,Y,27.3625967,-82.4643761
MLS Listing,,Single Family Residential,5017 Vivienda Way #29,Sarasota,FL,34235,349900,2,2.0,VIVIENDA AT THE MEADOWS,1542,,1979,6,227,564,Active,,,https://www.redfin.com/FL/Sarasota/5017-Vivienda-Way-34235/unit-29/home/47628012,Stellar MLS as Distributed by MLS Grid,TB8302156,N,Y,27.356183,-82.4685333
MLS Listing,,Single Family Residential,5321 Laurelwood Pl,Sarasota,FL,34232,550000,3,2.0,RIDGEWOOD ESTATES,1473,9000,1972,6,373,,Active,,,https://www.redfin.com/FL/Sarasota/5321-Laurelwood-Pl-34232/home/47645506,Stellar MLS as Distributed by MLS Grid,A4623030,N,Y,27.3055351,-82.4628587
MLS Listing,,Single Family Residential,3523 Quiver Ct,Sarasota,FL,34240,1650000,4,4.0,HAMPTON LAKES/INDIAN LAKES,3614,177489,2020,6,457,190,Active,,,https://www.redfin.com/FL/Sarasota/3523-Quiver-Ct-34240/home/173304283,Stellar MLS as Distributed by MLS Grid,A4622845,N,Y,27.3475374,-82.28067
MLS Listing,,Single Family Residential,6579 Pine Breeze Run,Sarasota,FL,34243,377500,2,2.0,WOODBROOK PH I,1258,4195,2012,6,300,177,Active,,,https://www.redfin.com/FL/Sarasota/6579-Pine-Breeze-Run-34243/home/45932810,Stellar MLS as Distributed by MLS Grid,A4622885,N,Y,27.4243175,-82.5029323
MLS Listing,,Single Family Residential,4307 Madeira Ct #3202,Sarasota,FL,34233,330000,2,2.0,CASA DEL SOL SEC II,1375,408763,1989,6,240,538,Active,,,https://www.redfin.com/FL/Sarasota/4307-Madeira-Ct-34233/unit-3202/home/47647062,Stellar MLS as Distributed by MLS Grid,A4622995,N,Y,27.2916094,-82.453732
MLS Listing,,Single Family Residential,3541 Wilkinson Woods Dr #40,Sarasota,FL,34231,365000,2,2.0,WILKINSON WOODS,1548,,1980,6,236,514,Active,,,https://www.redfin.com/FL/Sarasota/3541-Wilkinson-Woods-Dr-34231/unit-40/home/47650981,Stellar MLS as Distributed by MLS Grid,A4622688,N,Y,27.292575,-82.4986563
MLS Listing,,Condo/Co-op,111 S Pineapple Ave #919,Sarasota,FL,34236,1550000,2,2.5,MARK SARASOTA CONDO,1575,72157,2019,6,984,1221,Active,,,https://www.redfin.com/FL/Sarasota/111-S-Pineapple-Ave-34236/unit-919/home/174443750,Stellar MLS as Distributed by MLS Grid,A4621820,N,Y,27.3355708,-82.541365
MLS Listing,,Condo/Co-op,1500 State St #303,Sarasota,FL,34236,689000,1,1.0,8604 - 1500 STATE STREET,736,,2017,6,936,716,Active,,,https://www.redfin.com/FL/Sarasota/1500-State-St-34236/unit-303/home/148584793,Stellar MLS as Distributed by MLS Grid,A4623132,N,Y,27.3354307,-82.5400162
MLS Listing,,Condo/Co-op,6006 Midnight Pass Rd #19,Sarasota,FL,34242,800000,2,1.5,CASA MAR,840,278953,1960,6,952,1253,Active,,,https://www.redfin.com/FL/Sarasota/6006-Midnight-Pass-Rd-34242/unit-19/home/47671073,Stellar MLS as Distributed by MLS Grid,A4622221,N,Y,27.2617814,-82.5413024
MLS Listing,,Vacant Land,61st St,Sarasota,FL,34243,395000,,,UNIVERSITY PKWY,,52605,,6,,25,Active,,,https://www.redfin.com/FL/Sarasota/61st-St-34243/home/47620210,Stellar MLS as Distributed by MLS Grid,A4623136,N,Y,27.387669,-82.516221
MLS Listing,,Single Family Residential,8125 Grande Shores Dr,Sarasota,FL,34240,1599999,3,2.5,LAKEHOUSE COVE/WATERSIDE PH 1,2850,10639,2018,6,561,355,Active,,,https://www.redfin.com/FL/Sarasota/8125-Grande-Shores-Dr-34240/home/148585137,Stellar MLS as Distributed by MLS Grid,A4622492,N,Y,27.3660799,-82.4013107
MLS Listing,,Single Family Residential,1806 Brook Field Ter,Sarasota,FL,34234,132500,2,2.0,TRI-PAR ESTATES,1073,4119,1970,6,123,132,Active,,,https://www.redfin.com/FL/Sarasota/1806-Brook-Field-Ter-34234/home/47620824,Stellar MLS as Distributed by MLS Grid,A4621570,N,Y,27.3776331,-82.5349729
MLS Listing,,Single Family Residential,2018 Arden Dr,Sarasota,FL,34232,435000,2,2.0,SARASOTA SPGS,1025,7560,1978,6,424,,Active,,,https://www.redfin.com/FL/Sarasota/2018-Arden-Dr-34232/home/47640234,Stellar MLS as Distributed by MLS Grid,A4623103,N,Y,27.3146459,-82.4886225
MLS Listing,,Single Family Residential,9025 Tequila Sunrise Dr,Sarasota,FL,34241,899000,4,3.0,SKYE RANCH,2391,8267,2023,7,376,208,Active,,,https://www.redfin.com/FL/Sarasota/9025-Tequila-Sunrise-Dr-34241/home/188777778,Stellar MLS as Distributed by MLS Grid,A4622965,N,Y,27.243336,-82.402041
MLS Listing,,Single Family Residential,2042 Kai Dr,Sarasota,FL,34231,415000,2,1.0,JENSEN SUB,1790,8766,1963,7,232,,Active,,,https://www.redfin.com/FL/Sarasota/2042-Kai-Dr-34231/home/47675840,Stellar MLS as Distributed by MLS Grid,A4621739,N,Y,27.2440723,-82.5074512
MLS Listing,,Single Family Residential,7745 Sandhill Lake Dr,Sarasota,FL,34241,935000,3,3.0,SANDHILL LAKE,2740,7898,2020,7,341,395,Active,,,https://www.redfin.com/FL/Sarasota/7745-Sandhill-Lake-Dr-34241/home/169899339,Stellar MLS as Distributed by MLS Grid,A4623022,N,Y,27.2692985,-82.4172107
MLS Listing,,Single Family Residential,5654 Woodland Sage Dr,Sarasota,FL,34238,699000,5,3.0,PROMENADE ESTATES,2631,7605,2020,7,266,219,Active,,,https://www.redfin.com/FL/Sarasota/5654-Woodland-Sage-Dr-34238/home/171802539,Stellar MLS as Distributed by MLS Grid,A4622752,N,Y,27.1989042,-82.4514743
MLS Listing,,Single Family Residential,4218 Berkshire Dr,Sarasota,FL,34241,525000,4,2.0,LAKE SARASOTA,2155,7560,1987,7,244,,Active,,,https://www.redfin.com/FL/Sarasota/4218-Berkshire-Dr-34241/home/47697293,Stellar MLS as Distributed by MLS Grid,O6239467,N,Y,27.294771,-82.4226486
MLS Listing,,Single Family Residential,6542 Draw Ln #90,Sarasota,FL,34238,299900,2,2.0,SUNRISE GOLF CLUB PH II,1374,,1978,7,218,298,Active,,,https://www.redfin.com/FL/Sarasota/6542-Draw-Ln-34238/unit-90/home/47663396,Stellar MLS as Distributed by MLS Grid,A4622987,N,Y,27.257368,-82.452828
MLS Listing,,Single Family Residential,4452 Mcintosh Lake Ave,Sarasota,FL,34233,835000,3,2.5,MCINTOSH LAKE,2678,13022,1995,7,312,29,Active,,,https://www.redfin.com/FL/Sarasota/4452-McIntosh-Lake-Ave-34233/home/47649942,Stellar MLS as Distributed by MLS Grid,A4613559,N,Y,27.2889768,-82.4835884
MLS Listing,,Single Family Residential,2811 Northwood Way,Sarasota,FL,34234,600000,4,2.0,NORTHWOOD,2077,15478,1992,7,289,25,Active,,,https://www.redfin.com/FL/Sarasota/2811-Northwood-Way-34234/home/47622569,Stellar MLS as Distributed by MLS Grid,A4622375,N,Y,27.373387,-82.5136726
MLS Listing,,Single Family Residential,7065 Del Lago Dr,Sarasota,FL,34238,575000,3,2.0,MIRA LAGO AT PALMER RANCH PH 1,2308,10084,1992,7,249,398,Active,,,https://www.redfin.com/FL/Sarasota/7065-Del-Lago-Dr-34238/home/47676018,Stellar MLS as Distributed by MLS Grid,A4620420,N,Y,27.254014,-82.4910582
MLS Listing,,Condo/Co-op,464 Golden Gate Pt #504,Sarasota,FL,34236,4595000,4,4.5,LA BELLASARA,3290,,2006,7,1397,3728,Active,,,https://www.redfin.com/FL/Sarasota/464-Golden-Gate-Pt-34236/unit-504/home/47609343,Stellar MLS as Distributed by MLS Grid,A4622710,N,Y,27.3323927,-82.5493161
MLS Listing,,Single Family Residential,2907 Marshall Dr,Sarasota,FL,34239,799000,2,2.0,ORANGE PARK,1138,9063,1954,7,702,,Active,,,https://www.redfin.com/FL/Sarasota/2907-Marshall-Dr-34239/home/47637224,Stellar MLS as Distributed by MLS Grid,A4622680,N,Y,27.3070062,-82.520303
MLS Listing,,Single Family Residential,1160 Center Pl,Sarasota,FL,34236,5499000,4,5.5,LIDO C,4000,11449,2024,7,1375,25,Active,,,https://www.redfin.com/FL/Sarasota/1160-Center-Pl-34236/home/54661987,Stellar MLS as Distributed by MLS Grid,A4622127,N,Y,27.3271624,-82.5852054
MLS Listing,,Single Family Residential,606 Canal Rd,Sarasota,FL,34242,1295000,2,1.0,SIESTA KEY,1462,11394,1946,7,886,,Active,,,https://www.redfin.com/FL/Sarasota/606-Canal-Rd-34242/home/47656463,Stellar MLS as Distributed by MLS Grid,A4621076,N,Y,27.2698621,-82.556651
MLS Listing,,Single Family Residential,7655 Registrar Way,Sarasota,FL,34243,489000,2,2.0,UNIVERSITY VILLAGE,1626,4726,2016,7,301,317,Active,,,https://www.redfin.com/FL/Sarasota/7655-Registrar-Way-34243/home/112494884,Stellar MLS as Distributed by MLS Grid,A4611425,N,Y,27.4048277,-82.5265375
MLS Listing,,Condo/Co-op,5160 Northridge Rd #212,Sarasota,FL,34238,324900,3,2.0,SERENADE ON PALMER RANCH,1376,,1999,7,236,528,Active,,,https://www.redfin.com/FL/Sarasota/5160-Northridge-Rd-34238/unit-212/home/47599349,Stellar MLS as Distributed by MLS Grid,A4622912,N,Y,27.2629063,-82.468025
MLS Listing,,Single Family Residential,1626 Ridgewood Ln,Sarasota,FL,34231,799000,2,2.0,BAYWINDS ESTATES,2369,10001,1989,7,337,,Active,,,https://www.redfin.com/FL/Sarasota/1626-Ridgewood-Ln-34231/home/47670366,Stellar MLS as Distributed by MLS Grid,A4620210,N,Y,27.2615717,-82.532439
MLS Listing,,Single Family Residential,5154 Oakland Hills Ave,Sarasota,FL,34234,140000,1,1.0,TRI-PAR ESTATES,480,3221,1990,7,292,106,Active,,,https://www.redfin.com/FL/Sarasota/5154-Oakland-Hills-Ave-34234/home/47620347,Stellar MLS as Distributed by MLS Grid,O6240121,N,Y,27.3786911,-82.5390853
MLS Listing,,Condo/Co-op,6029 E Peppertree Way #116,Sarasota,FL,34242,599000,2,1.5,PEPPERTREE BAY II,975,,1973,7,614,1174,Active,,,https://www.redfin.com/FL/Sarasota/6029-E-Peppertree-Way-34242/unit-116/home/47670469,Stellar MLS as Distributed by MLS Grid,A4622635,N,Y,27.2616124,-82.5393325
MLS Listing,,Townhouse,447 Canal Rd #447,Sarasota,FL,34242,2495000,3,3.5,GRAND SIESTA 1,2635,,2003,7,947,158,Active,,,https://www.redfin.com/FL/Sarasota/447-Canal-Rd-34242/unit-447/home/47587387,Stellar MLS as Distributed by MLS Grid,A4620971,N,Y,27.2721169,-82.5598106
MLS Listing,,Single Family Residential,4001 Westminster Dr,Sarasota,FL,34241,309000,3,1.5,LAKE SARASOTA,945,9464,1971,8,327,,Active,,,https://www.redfin.com/FL/Sarasota/4001-Westminster-Dr-34241/home/47696957,Stellar MLS as Distributed by MLS Grid,O6239730,N,Y,27.2959639,-82.4320464
MLS Listing,,Condo/Co-op,3469 Clark Rd #268,Sarasota,FL,34231,254900,3,2.0,SIENNA,1200,,1974,8,212,634,Active,,,https://www.redfin.com/FL/Sarasota/3469-Clark-Rd-34231/unit-268/home/47605466,Stellar MLS as Distributed by MLS Grid,A4622939,N,Y,27.2722989,-82.5013291
MLS Listing,,Single Family Residential,8120 Glenbrooke Pl,Sarasota,FL,34243,439900,3,2.0,GLENBROOKE,1643,8233,1985,8,268,25,Active,,,https://www.redfin.com/FL/Sarasota/8120-Glenbrooke-Pl-34243/home/45966394,Stellar MLS as Distributed by MLS Grid,TB8301958,N,Y,27.395872,-82.5014966
MLS Listing,,Single Family Residential,2611 Sunnyside St,Sarasota,FL,34239,699900,3,2.0,SOUTH GATE,2189,10250,1970,8,320,,Active,September-22-2024 12:00 PM,September-22-2024 03:00 PM,https://www.redfin.com/FL/Sarasota/2611-Sunnyside-St-34239/home/47636434,Stellar MLS as Distributed by MLS Grid,A4622940,N,Y,27.3108061,-82.5167908
MLS Listing,,Single Family Residential,1712 Worrington St,Sarasota,FL,34231,1299999,3,3.0,SARASOTA,2566,9960,2017,8,507,,Active,September-22-2024 01:00 PM,September-22-2024 03:00 PM,https://www.redfin.com/FL/Sarasota/1712-Worrington-St-34231/home/112472443,Stellar MLS as Distributed by MLS Grid,A4620827,N,Y,27.2917259,-82.5342626
MLS Listing,,Single Family Residential,2845 Indianwood Dr,Sarasota,FL,34232,500000,3,2.0,RIDGEWOOD ESTATES 20TH ADD,1052,8250,1980,8,475,,Active,,,https://www.redfin.com/FL/Sarasota/2845-Indianwood-Dr-34232/home/47645021,Stellar MLS as Distributed by MLS Grid,A4622934,N,Y,27.3063465,-82.4518437
MLS Listing,,Condo/Co-op,1257 S Portofino Dr #306,Sarasota,FL,34242,649900,2,2.0,SIESTA HARBOR I,929,,1968,8,700,791,Active,,,https://www.redfin.com/FL/Sarasota/1257-S-Portofino-Dr-34242/unit-306/home/47671453,Stellar MLS as Distributed by MLS Grid,A4619986,N,Y,27.2557446,-82.5353589
MLS Listing,,Single Family Residential,5828 Pomarine Ct,Sarasota,FL,34238,839000,3,3.0,SANDHILL PRESERVE,2321,6525,2016,8,361,433,Active,September-21-2024 12:00 PM,September-21-2024 03:00 PM,https://www.redfin.com/FL/Sarasota/5828-Pomarine-Ct-34238/home/105428502,Stellar MLS as Distributed by MLS Grid,A4622893,N,Y,27.2232938,-82.4527606
MLS Listing,,Single Family Residential,3309 Oakwood Blvd S,Sarasota,FL,34237,199500,2,2.0,OAKWOOD MANOR,1056,4107,1977,8,189,180,Active,,,https://www.redfin.com/FL/Sarasota/3309-Oakwood-Blvd-N-34237/home/47829126,Stellar MLS as Distributed by MLS Grid,A4622104,N,Y,27.330915,-82.50252
MLS Listing,,Single Family Residential,4507 Beneva Rd,Sarasota,FL,34233,319000,2,2.0,SOUTH GATE RIDGE 03,1080,8319,1973,8,295,,Active,,,https://www.redfin.com/FL/Sarasota/4507-Beneva-Rd-34233/home/47649766,Stellar MLS as Distributed by MLS Grid,A4622358,N,Y,27.288805,-82.4972762
MLS Listing,,Single Family Residential,10346 Morning Mist Ln,Sarasota,FL,34241,1249000,3,3.0,SKYE RANCH NBRHD 4 NORTH,3039,9330,2022,8,411,364,Active,,,https://www.redfin.com/FL/Sarasota/10346-Morning-Mist-Ln-34241/home/178025754,Stellar MLS as Distributed by MLS Grid,A4622788,N,Y,27.232575,-82.404358
MLS Listing,,Single Family Residential,7102 42nd Ct E,Sarasota,FL,34243,549600,3,2.0,THE TRAILS PH III,2142,14201,1995,8,257,50,Active,,,https://www.redfin.com/FL/Sarasota/7102-42nd-Ct-E-34243/home/45964214,Stellar MLS as Distributed by MLS Grid,O6233508,N,Y,27.4125114,-82.510825
MLS Listing,,Single Family Residential,2491 Hawthorne St,Sarasota,FL,34239,779900,3,2.0,SINGLETARYS SUB,2028,9830,1953,9,385,,Active,,,https://www.redfin.com/FL/Sarasota/2491-Hawthorne-St-34239/home/47831933,Stellar MLS as Distributed by MLS Grid,A4622770,N,Y,27.3185403,-82.5201917
MLS Listing,,Single Family Residential,5333 Kelly Dr #6,Sarasota,FL,34233,435000,3,2.0,CRESTWOOD VILLAGE OF SARA 4 & 5,1601,,1994,9,272,778,Active,September-18-2024 01:00 PM,September-18-2024 04:00 PM,https://www.redfin.com/FL/Sarasota/5333-Kelly-Dr-34233/unit-6/home/47646497,Stellar MLS as Distributed by MLS Grid,A4620399,N,Y,27.2950808,-82.463506
MLS Listing,,Single Family Residential,3206 Ramblewood Cir,Sarasota,FL,34237,259900,2,2.0,RAMBLEWOOD ACRES,1148,,1974,9,226,605,Active,,,https://www.redfin.com/FL/Sarasota/3206-Ramblewood-Cir-34237/home/47824203,Stellar MLS as Distributed by MLS Grid,A4622806,N,Y,27.3451689,-82.5053811
MLS Listing,,Condo/Co-op,7940 Limestone Ln Unit 19-204,Sarasota,FL,34233,349000,3,2.0,"STONEHAVEN PH 4, 5, 6, 7 & 25",1417,,2007,9,246,290,Active,,,https://www.redfin.com/FL/Sarasota/7940-Limestone-Ln-34233/unit-19-204/home/47606495,Stellar MLS as Distributed by MLS Grid,A4622791,N,Y,27.2707972,-82.4617743
MLS Listing,,Single Family Residential,5066 Pebble Beach Ave,Sarasota,FL,34234,199900,2,2.0,TRI-PAR ESTATES,1100,4676,1954,9,182,132,Active,,,https://www.redfin.com/FL/Sarasota/5066-Pebble-Beach-Ave-34234/home/47620731,Stellar MLS as Distributed by MLS Grid,A4620760,N,Y,27.3776023,-82.5396403
MLS Listing,,Single Family Residential,8975 Province St,Sarasota,FL,34240,599000,3,3.0,LAUREL MEADOWS,2056,10660,2002,9,291,116,Active,,,https://www.redfin.com/FL/Sarasota/8975-Province-St-34240/home/47841177,Stellar MLS as Distributed by MLS Grid,A4622263,N,Y,27.3061802,-82.3935305
MLS Listing,,Single Family Residential,4450 Golden Lake Dr,Sarasota,FL,34233,650000,3,2.0,MCINTOSH LAKE,1995,10000,1996,9,326,29,Active,,,https://www.redfin.com/FL/Sarasota/4450-Golden-Lake-Dr-34233/home/47649966,Stellar MLS as Distributed by MLS Grid,O6239606,N,Y,27.2886724,-82.4844712
MLS Listing,,Single Family Residential,809 Pennsylvania Way,Sarasota,FL,34243,750000,5,3.5,WHITFIELD COUNTRY CLUB ADD,3360,16492,1979,9,223,,Active,,,https://www.redfin.com/FL/Sarasota/809-Pennsylvania-Way-34243/home/46018763,Stellar MLS as Distributed by MLS Grid,TB8300682,N,Y,27.4195357,-82.5561647
MLS Listing,,Single Family Residential,2537 Riverbluff Pkwy Unit V183,Sarasota,FL,34231,269000,2,2.0,STRATHMORE RIVERSIDE II,1120,,1971,9,240,622,Active,,,https://www.redfin.com/FL/Sarasota/2537-Riverbluff-Pkwy-34231/unit-V183/home/47658732,Stellar MLS as Distributed by MLS Grid,A4622322,N,Y,27.2740052,-82.5199945
MLS Listing,,Condo/Co-op,3253 Beneva Rd #101,Sarasota,FL,34232,166000,1,1.0,VILLAGE BROOKE SEC 1,697,,1975,10,238,421,Active,,,https://www.redfin.com/FL/Sarasota/3253-Beneva-Rd-34232/unit-101/home/47641185,Stellar MLS as Distributed by MLS Grid,A4622026,N,Y,27.3034788,-82.4971577
MLS Listing,,Single Family Residential,1477 S School Ave,Sarasota,FL,34239,549900,3,1.0,LOMA LINDA PARK,1297,8050,1955,10,424,,Active,,,https://www.redfin.com/FL/Sarasota/1477-S-School-Ave-34239/home/47831590,Stellar MLS as Distributed by MLS Grid,A4622744,N,Y,27.3194876,-82.5246053
MLS Listing,,Single Family Residential,2826 Marlette St,Sarasota,FL,34231,695000,3,3.0,SARASOTA-VENICE CO SUB,1476,15000,1950,10,471,,Active,,,https://www.redfin.com/FL/Sarasota/2826-Marlette-St-34231/home/47651291,Stellar MLS as Distributed by MLS Grid,A4622747,N,Y,27.2926773,-82.513192
MLS Listing,,Single Family Residential,410 Meadow Lark Dr,Sarasota,FL,34236,3895000,4,2.5,BIRD KEY SUB,3257,15000,1973,10,1196,81,Active,,,https://www.redfin.com/FL/Sarasota/410-Meadow-Lark-Dr-34236/home/47819126,Stellar MLS as Distributed by MLS Grid,A4622669,N,Y,27.3216053,-82.5574548
MLS Listing,,Condo/Co-op,757 Beach Rd #308,Sarasota,FL,34242,765000,1,1.0,CRESCENT ROYALE,816,,1970,10,938,1365,Active,,,https://www.redfin.com/FL/Sarasota/757-Beach-Rd-34242/unit-308/home/47672203,Stellar MLS as Distributed by MLS Grid,TB8301430,N,Y,27.2677082,-82.554277
MLS Listing,,Single Family Residential,12509 Night View Dr Night View Dr,Sarasota,FL,34238,589900,3,2.0,PROMENADE ESTATES,1778,9786,2020,10,332,218,Active,,,https://www.redfin.com/FL/Sarasota/12509-Night-View-Dr-34238/home/169921129,Stellar MLS as Distributed by MLS Grid,A4620606,N,Y,27.204448,-82.4514524
MLS Listing,,Single Family Residential,3772 Desoto Rd,Sarasota,FL,34235,399990,3,1.0,DE SOTO LAKES,1414,10200,1962,10,283,,Active,,,https://www.redfin.com/FL/Sarasota/3772-Desoto-Rd-34235/home/47619339,Stellar MLS as Distributed by MLS Grid,A4622502,N,Y,27.3807104,-82.4940318
MLS Listing,,Single Family Residential,7127 Queen Palm Cir,Sarasota,FL,34243,495000,3,2.0,SARABAY WOODS,1672,7623,1993,11,296,48,Active,,,https://www.redfin.com/FL/Sarasota/7127-Queen-Palm-Cir-34243/home/46019236,Stellar MLS as Distributed by MLS Grid,A4622594,N,Y,27.4138216,-82.5530651
MLS Listing,,Single Family Residential,3005 Desoto Rd,Sarasota,FL,34234,1600000,4,3.5,DESOTO ACRES,4342,85228,2002,11,368,,Active,,,https://www.redfin.com/FL/Sarasota/3005-Desoto-Rd-34234/home/47619910,Stellar MLS as Distributed by MLS Grid,A4622725,N,Y,27.3820568,-82.5091976
MLS Listing,,Single Family Residential,2824 Esmeralda Dr,Sarasota,FL,34243,769900,4,3.0,SOLEIL WEST PH II,3234,6656,2016,11,238,79,Active,September-21-2024 01:00 PM,September-21-2024 03:00 PM,https://www.redfin.com/FL/Sarasota/2824-Esmeralda-Dr-34243/home/103829185,Stellar MLS as Distributed by MLS Grid,A4622724,N,Y,27.3954358,-82.529102
MLS Listing,,Single Family Residential,8232 Barton Farms Blvd,Sarasota,FL,34240,799000,4,2.0,BARTON FARMS,2420,12436,2003,11,330,175,Active,September-22-2024 01:00 PM,September-22-2024 04:00 PM,https://www.redfin.com/FL/Sarasota/8232-Barton-Farms-Blvd-34240/home/47590829,Stellar MLS as Distributed by MLS Grid,A4622139,N,Y,27.311314,-82.3988968
MLS Listing,,Single Family Residential,7641 Quinto Dr,Sarasota,FL,34238,485000,2,2.0,VILLAGEWALK,1693,5278,2003,11,286,440,Active,,,https://www.redfin.com/FL/Sarasota/7641-Quinto-Dr-34238/home/47593863,Stellar MLS as Distributed by MLS Grid,A4622480,N,Y,27.2436595,-82.46065
MLS Listing,,Townhouse,226 Amherst Ave #103,Sarasota,FL,34232,179000,4,2.5,FAIRWAY OAKS,1368,,1972,11,131,499,Active,,,https://www.redfin.com/FL/Sarasota/226-Amherst-Ave-34232/unit-103/home/47829535,Stellar MLS as Distributed by MLS Grid,A4622608,N,Y,27.338424,-82.494797
MLS Listing,,Single Family Residential,6384 Draw Ln #38,Sarasota,FL,34238,349000,2,2.0,SUNRISE GOLF CLUB PH I,1482,,1974,11,235,298,Active,,,https://www.redfin.com/FL/Sarasota/6384-Draw-Ln-34238/unit-38/home/47663198,Stellar MLS as Distributed by MLS Grid,A4622222,N,Y,27.260461,-82.453019
MLS Listing,,Single Family Residential,5417 Lampiasi St,Sarasota,FL,34238,739000,3,2.0,ESPLANADE/PALMER RANCH PH 4B,1682,6516,2020,11,439,510,Active,,,https://www.redfin.com/FL/Sarasota/5417-Lampiasi-St-34238/home/174438161,Stellar MLS as Distributed by MLS Grid,A4622583,N,Y,27.1999049,-82.4628518
MLS Listing,,Single Family Residential,4988 Fallcrest Cir,Sarasota,FL,34233,825000,4,3.0,AMBERLEA,2967,16592,1988,11,278,100,Active,,,https://www.redfin.com/FL/Sarasota/4988-Fallcrest-Cir-34233/home/47661663,Stellar MLS as Distributed by MLS Grid,A4622184,N,Y,27.2835664,-82.4785566
MLS Listing,,Condo/Co-op,435 S Gulfstream Ave #605,Sarasota,FL,34236,590000,2,2.0,REGENCY HOUSE,1537,,1972,11,384,1293,Active,,,https://www.redfin.com/FL/Sarasota/435-S-Gulfstream-Ave-34236/unit-605/home/47826040,Stellar MLS as Distributed by MLS Grid,A4622461,N,Y,27.3318123,-82.541132
MLS Listing,,Single Family Residential,1671 Mellon Way,Sarasota,FL,34232,649900,4,2.5,NORTH PH 1 SUMMERWOOD 2,2127,5664,2003,11,306,17,Active,,,https://www.redfin.com/FL/Sarasota/1671-Mellon-Way-34232/home/47586990,Stellar MLS as Distributed by MLS Grid,A4622006,N,Y,27.3199535,-82.453675
MLS Listing,,Single Family Residential,5222 Myrtle #9,Sarasota,FL,34235,325000,2,2.0,SOMERSET,1176,,1981,11,276,571,Active,,,https://www.redfin.com/FL/Sarasota/5222-Myrtle-Wood-34235/unit-9/home/47624026,Stellar MLS as Distributed by MLS Grid,A4622327,N,Y,27.3689853,-82.4650485
MLS Listing,,Condo/Co-op,5134 Northridge Rd #303,Sarasota,FL,34238,260000,2,2.0,SERENADE ON PALMER RANCH,1164,,1999,11,223,446,Active,,,https://www.redfin.com/FL/Sarasota/5134-Northridge-Rd-34238/unit-303/home/47599186,Stellar MLS as Distributed by MLS Grid,A4622336,N,Y,27.2640697,-82.4660483
MLS Listing,,Condo/Co-op,5551 Bentgrass Dr Unit 11-110,Sarasota,FL,34235,225000,1,1.0,LAS PALMAS OF SARASOTA,957,,2002,11,235,354,Active,,,https://www.redfin.com/FL/Sarasota/5551-Bentgrass-Dr-34235/unit-11-110/home/47598404,Stellar MLS as Distributed by MLS Grid,A4622645,N,Y,27.3752594,-82.4583113
MLS Listing,,Single Family Residential,1047 Deer Hollow Way,Sarasota,FL,34232,447600,2,2.0,DEER HOLLOW,1250,6580,1986,11,358,41,Active,,,https://www.redfin.com/FL/Sarasota/1047-Deer-Hollow-Way-34232/home/47627851,Stellar MLS as Distributed by MLS Grid,A4622641,N,Y,27.3459152,-82.4544367
MLS Listing,,Single Family Residential,3660 Torrey Pines Blvd,Sarasota,FL,34238,739900,3,3.0,COUNTRY CLUB OF SARASOTA THE,2637,14148,1978,11,281,125,Active,,,https://www.redfin.com/FL/Sarasota/3660-Torrey-Pines-Blvd-34238/home/47676938,Stellar MLS as Distributed by MLS Grid,A4622675,N,Y,27.2417705,-82.4939956
MLS Listing,,Single Family Residential,3215 Woodberry Ln,Sarasota,FL,34231,470000,2,2.0,ASHLEY OAKS,1570,5880,1999,11,299,290,Active,,,https://www.redfin.com/FL/Sarasota/3215-Woodberry-Ln-34231/home/47660372,Stellar MLS as Distributed by MLS Grid,A4622262,N,Y,27.2746833,-82.5051798
MLS Listing,,Single Family Residential,1217 Blue Shell Loop,Sarasota,FL,34240,2400000,4,4.0,WILD BLUE AT WATERSIDE PHASE 1,3754,13887,2024,11,639,654,Active,,,https://www.redfin.com/FL/Sarasota/1217-Blue-Shell-Loop-34240/home/192389860,Stellar MLS as Distributed by MLS Grid,A4622188,N,Y,27.3802793,-82.3937623
MLS Listing,,Condo/Co-op,475 Benjamin Franklin Dr #107,Sarasota,FL,34236,550000,1,1.0,LIDO DORSET,593,,1963,11,927,1051,Active,,,https://www.redfin.com/FL/Sarasota/475-Benjamin-Franklin-Dr-34236/unit-107/home/47820040,Stellar MLS as Distributed by MLS Grid,A4622562,N,Y,27.31239,-82.5756666
MLS Listing,,Single Family Residential,5808 Lakeside Woods Cir,Sarasota,FL,34243,625000,2,2.5,LAKESIDE WOODS,2218,8886,1990,11,282,210,Active,,,https://www.redfin.com/FL/Sarasota/5808-Lakeside-Woods-Cir-34243/home/45967123,Stellar MLS as Distributed by MLS Grid,A4622643,N,Y,27.3955881,-82.4867894
MLS Listing,,Single Family Residential,4724 Seville Dr,Sarasota,FL,34235,500000,3,2.0,DE SOTO LAKES,1431,8800,1982,11,349,,Active,,,https://www.redfin.com/FL/Sarasota/4724-Seville-Dr-34235/home/47619712,Stellar MLS as Distributed by MLS Grid,A4622650,N,Y,27.3748305,-82.4857553
MLS Listing,,Single Family Residential,3974 Lancaster Dr,Sarasota,FL,34241,425000,4,2.0,LAKE SARASOTA,1648,10079,1970,11,258,,Active,,,https://www.redfin.com/FL/Sarasota/3974-Lancaster-Dr-34241/home/47696998,Stellar MLS as Distributed by MLS Grid,A4622273,N,Y,27.2961038,-82.4314566
MLS Listing,,Single Family Residential,2732 Tangelo Dr,Sarasota,FL,34239,464000,3,2.0,SOUTH GATE,1259,9000,1957,11,369,,Active,,,https://www.redfin.com/FL/Sarasota/2732-Tangelo-Dr-34239/home/47637104,Stellar MLS as Distributed by MLS Grid,A4622588,N,Y,27.3088615,-82.5149757
MLS Listing,,Single Family Residential,5835 Benevento Dr,Sarasota,FL,34238,649900,3,2.5,ISLES OF SARASOTA,2008,7168,2006,11,324,393,Active,,,https://www.redfin.com/FL/Sarasota/5835-Benevento-Dr-34238/home/47605494,Stellar MLS as Distributed by MLS Grid,A4622548,N,Y,27.2107195,-82.4538019
MLS Listing,,Single Family Residential,5545 Pamplona Way,Sarasota,FL,34233,650000,3,2.5,ASHTON POINTE,2019,9354,2014,11,322,252,Active,,,https://www.redfin.com/FL/Sarasota/5545-Pamplona-Way-34233/home/63068345,Stellar MLS as Distributed by MLS Grid,A4621127,N,Y,27.2740786,-82.4590268
MLS Listing,,Single Family Residential,5417 83rd Ter E,Sarasota,FL,34243,459900,3,2.0,ROSEWOOD AT THE GARDENS,1648,6011,1992,11,279,72,Active,,,https://www.redfin.com/FL/Sarasota/5417-83rd-Ter-E-34243/home/45967140,Stellar MLS as Distributed by MLS Grid,T3552852,N,Y,27.3923189,-82.4921686
MLS Listing,,Single Family Residential,5572 Chanteclaire #9,Sarasota,FL,34235,550000,3,2.0,CHANTECLAIRE,1600,,1985,11,344,716,Active,,,https://www.redfin.com/FL/Sarasota/5572-Chanteclaire-34235/unit-9/home/47626343,Stellar MLS as Distributed by MLS Grid,A4622330,N,Y,27.3664667,-82.4580614
MLS Listing,,Single Family Residential,312 Londonderry Dr,Sarasota,FL,34240,579000,3,2.0,TATUM RIDGE,1922,8887,2002,11,301,310,Active,,,https://www.redfin.com/FL/Sarasota/312-Londonderry-Dr-34240/home/47837095,Stellar MLS as Distributed by MLS Grid,A4622226,N,Y,27.3442948,-82.4091859
MLS Listing,,Single Family Residential,2186 Sunnyside Pl,Sarasota,FL,34239,698000,4,2.0,HIBISCUS PARK 2,1989,9681,1955,11,351,,Active,,,https://www.redfin.com/FL/Sarasota/2186-Sunnyside-Pl-34239/home/47637028,Stellar MLS as Distributed by MLS Grid,A4621477,N,Y,27.3103551,-82.5263626
MLS Listing,,Townhouse,3772 Parkridge Cir Unit 23-102,Sarasota,FL,34243,350000,3,2.5,PARKRIDGE PH 33 & 19,1776,,2004,11,197,386,Active,,,https://www.redfin.com/FL/Sarasota/3772-Parkridge-Cir-34243/unit-23-102/home/47592059,Stellar MLS as Distributed by MLS Grid,A4622181,N,Y,27.3866,-82.49946
MLS Listing,,Condo/Co-op,2467 Twin Dr #22,Sarasota,FL,34234,165000,1,1.0,ROLLING GREEN SOUTH,846,,1981,11,195,445,Active,,,https://www.redfin.com/FL/Sarasota/2467-Twin-Dr-34234/unit-22/home/47622238,Stellar MLS as Distributed by MLS Grid,U8255906,N,Y,27.366009,-82.520477
MLS Listing,,Single Family Residential,8424 Coash Rd,Sarasota,FL,34241,998410,4,3.5,SECLUDED OAKS,3503,19012,2002,11,285,58,Active,,,https://www.redfin.com/FL/Sarasota/8424-Coash-Rd-34241/home/47588876,Stellar MLS as Distributed by MLS Grid,A4622500,N,Y,27.2817937,-82.4099108
MLS Listing,,Single Family Residential,1620 N Lodge Dr,Sarasota,FL,34239,5490000,5,4.0,CHEROKEE LODGE,4660,20215,1972,11,1178,,Active,,,https://www.redfin.com/FL/Sarasota/1620-N-Lodge-Dr-34239/home/47834432,Stellar MLS as Distributed by MLS Grid,A4622195,N,Y,27.3078964,-82.5375507
MLS Listing,,Single Family Residential,3003 Bay St,Sarasota,FL,34237,599990,5,4.5,BELLEVUE TERRACE,2220,9315,1959,12,270,,Active,,,https://www.redfin.com/FL/Sarasota/3003-Bay-St-34237/home/47634778,Stellar MLS as Distributed by MLS Grid,A4622385,N,Y,27.3280472,-82.5096745
MLS Listing,,Single Family Residential,3925 Bell Ave,Sarasota,FL,34231,1100000,4,2.0,MORNING GLORY RIDGE,2500,14350,2023,12,440,,Active,,,https://www.redfin.com/FL/Sarasota/3925-Bell-Ave-34231/home/47650574,Stellar MLS as Distributed by MLS Grid,A4622584,N,Y,27.2979495,-82.500877
MLS Listing,,Single Family Residential,2120 Arden Dr,Sarasota,FL,34232,439500,3,2.0,SARASOTA SPGS,1330,7560,1988,12,330,,Active,,,https://www.redfin.com/FL/Sarasota/2120-Arden-Dr-34232/home/47640222,Stellar MLS as Distributed by MLS Grid,A4622357,N,Y,27.3140585,-82.4886855
MLS Listing,,Single Family Residential,3756 Wake Ave W,Sarasota,FL,34240,450000,3,2.0,GOLF CLUB ESTATES,1530,7700,1997,12,294,,Active,,,https://www.redfin.com/FL/Sarasota/3756-Wake-Ave-34240/home/47695500,Stellar MLS as Distributed by MLS Grid,A4622571,N,Y,27.3005206,-82.424404
MLS Listing,,Single Family Residential,2005 Leon Ave,Sarasota,FL,34234,339900,3,2.0,IRVINGTON HEIGHTS,1338,5762,1960,12,254,,Active,,,https://www.redfin.com/FL/Sarasota/2005-Leon-Ave-34234/home/47824534,Stellar MLS as Distributed by MLS Grid,A4622598,N,Y,27.355075,-82.5403916
MLS Listing,,Single Family Residential,5445 Champagne #72,Sarasota,FL,34235,599000,3,2.0,CHAMBERY,1856,,1981,12,323,500,Active,,,https://www.redfin.com/FL/Sarasota/5445-Champagne-34235/unit-72/home/47626181,Stellar MLS as Distributed by MLS Grid,TB8300261,N,Y,27.3656784,-82.4612921
MLS Listing,,Condo/Co-op,5955 Midnight Pass Rd Unit 12E,Sarasota,FL,34242,595000,1,1.0,CONTNTLS SEA CLUB 2 P1,522,82311,1978,12,1140,982,Active,,,https://www.redfin.com/FL/Sarasota/5955-Midnight-Pass-Rd-34242/unit-12E/home/47668966,Stellar MLS as Distributed by MLS Grid,A4622573,N,Y,27.2642952,-82.5401641
MLS Listing,,Single Family Residential,,Sarasota,FL,34234,1075000,4,3.5,,2861,6941,1925,12,376,,Active,,,https://www.redfin.com/FL/Sarasota/Undisclosed-address-34234/home/47817494,Stellar MLS as Distributed by MLS Grid,A4622362,N,Y,27.3600624,-82.5534252
MLS Listing,,Single Family Residential,8172 Grande Shores Dr,Sarasota,FL,34240,2250000,4,4.0,LAKEHOUSE COVE/WATERSIDE PH 1,3565,9800,2020,12,631,355,Active,,,https://www.redfin.com/FL/Sarasota/8172-Grande-Shores-Dr-34240/home/148585208,Stellar MLS as Distributed by MLS Grid,A4622498,N,Y,27.364395,-82.398726
MLS Listing,,Condo/Co-op,3700 S Osprey Ave #209,Sarasota,FL,34239,235000,2,1.0,PLAZA GARDENS,991,1,1979,12,237,689,Active,,,https://www.redfin.com/FL/Sarasota/3700-S-Osprey-Ave-34239/unit-209/home/47834635,Stellar MLS as Distributed by MLS Grid,A4622574,N,Y,27.300804,-82.5340378
MLS Listing,,Single Family Residential,9230 Mcdaniel Ln,Sarasota,FL,34240,2695000,3,4.0,FOUNDERS CLUB,3560,18796,2018,12,757,443,Active,,,https://www.redfin.com/FL/Sarasota/9230-McDaniel-Ln-34240/home/47593981,Stellar MLS as Distributed by MLS Grid,A4621863,N,Y,27.3299142,-82.3894422
MLS Listing,,Single Family Residential,2138 Floyd St,Sarasota,FL,34239,1999000,4,2.5,LOMA LINDA PARK RESUB,2545,7455,2023,12,785,,Active,,,https://www.redfin.com/FL/Sarasota/2138-Floyd-St-34239/home/47831805,Stellar MLS as Distributed by MLS Grid,A4622556,N,Y,27.3204548,-82.5266798
MLS Listing,,Condo/Co-op,4025 Crockers Lake Blvd #11,Sarasota,FL,34238,209900,2,2.0,VINTAGE GRAND,1119,,1989,12,188,448,Active,,,https://www.redfin.com/FL/Sarasota/4025-Crockers-Lake-Blvd-34238/unit-11/home/47600912,Stellar MLS as Distributed by MLS Grid,A4622438,N,Y,27.2329775,-82.4874083
MLS Listing,,Single Family Residential,1966 Rolling Green Cir,Sarasota,FL,34240,425000,2,2.0,SARASOTA GOLF CLUB COLONY,1247,17136,1973,12,341,,Active,,,https://www.redfin.com/FL/Sarasota/1966-Rolling-Green-Cir-34240/home/47695069,Stellar MLS as Distributed by MLS Grid,A4622264,N,Y,27.3130025,-82.4213777
MLS Listing,,Condo/Co-op,2839 Swifton Dr #20,Sarasota,FL,34231,259000,2,2.0,SWIFTON VILLAS SEC B,1008,,1971,12,257,413,Active,,,https://www.redfin.com/FL/Sarasota/2839-Swifton-Dr-34231/unit-20/home/47660936,Stellar MLS as Distributed by MLS Grid,A4622118,N,Y,27.272483,-82.512987
MLS Listing,,Single Family Residential,3877 Surrey Ct,Sarasota,FL,34235,699999,3,2.0,THE MEADOWS,2176,14259,1988,12,322,240,Active,,,https://www.redfin.com/FL/Sarasota/3877-Surrey-Ct-34235/home/47626259,Stellar MLS as Distributed by MLS Grid,A4622442,N,Y,27.3678792,-82.4557177
MLS Listing,,Single Family Residential,1522 Grand Blvd #104,Sarasota,FL,34232,250000,2,2.0,FOREST PINES 01,1423,,1972,12,176,453,Active,,,https://www.redfin.com/FL/Sarasota/1522-Grand-Blvd-34232/unit-104/home/47633760,Stellar MLS as Distributed by MLS Grid,A4622290,N,Y,27.3193303,-82.4948855
MLS Listing,,Condo/Co-op,290 Cocoanut Ave Unit 9A,Sarasota,FL,34236,4414500,3,3.5,THE EDGE SARASOTA,3270,24133,2025,12,1350,3368,Active,,,https://www.redfin.com/FL/Sarasota/290-Cocoanut-Ave-34236/unit-9A/home/184713530,Stellar MLS as Distributed by MLS Grid,A4622551,N,Y,27.3386976,-82.5445703
MLS Listing,,Single Family Residential,1318 Loma Linda Ct,Sarasota,FL,34239,680000,3,2.0,LOMA LINDA PARK,1004,6700,1952,12,677,,Active,,,https://www.redfin.com/FL/Sarasota/1318-Loma-Linda-Ct-34239/home/47830989,Stellar MLS as Distributed by MLS Grid,A4622538,N,Y,27.3218234,-82.5236528
MLS Listing,,Condo/Co-op,1520 Glen Oaks Dr E #149,Sarasota,FL,34232,195000,2,2.0,GLEN OAKS GARDEN APTS 1,906,,1975,12,215,520,Active,,,https://www.redfin.com/FL/Sarasota/1520-Glen-Oaks-Dr-E-34232/unit-149/home/47822752,Stellar MLS as Distributed by MLS Grid,A4622395,N,Y,27.350765,-82.488784
MLS Listing,,Townhouse,994 N Beneva Rd Unit T2,Sarasota,FL,34232,174600,2,2.0,GLEN THE,1340,,1983,12,130,600,Active,,,https://www.redfin.com/FL/Sarasota/994-N-Beneva-Rd-34232/unit-T2/home/47829757,Stellar MLS as Distributed by MLS Grid,A4622369,N,Y,27.3445873,-82.4963458
MLS Listing,,Townhouse,1778 10th St,Sarasota,FL,34236,558550,2,2.5,SCHINDLER SUB,1320,1816,2022,12,423,517,Active,,,https://www.redfin.com/FL/Sarasota/1778-10th-St-34236/home/47825071,Stellar MLS as Distributed by MLS Grid,A4622453,N,Y,27.3442982,-82.5348907
MLS Listing,,Single Family Residential,2509 Lena Ln,Sarasota,FL,34240,1350000,4,2.0,NOT AVAILABLE,2281,216493,1988,12,592,,Active,,,https://www.redfin.com/FL/Sarasota/2509-Lena-Ln-34240/home/47741261,Stellar MLS as Distributed by MLS Grid,A4622522,N,Y,27.3082442,-82.2763388
MLS Listing,,Single Family Residential,3850 Flores Ave,Sarasota,FL,34239,1220000,3,2.0,GRANADA,2001,10533,1935,12,610,,Active,,,https://www.redfin.com/FL/Sarasota/3850-Flores-Ave-34239/home/47834386,Stellar MLS as Distributed by MLS Grid,A4622407,N,Y,27.2991288,-82.5384833
MLS Listing,,Condo/Co-op,1520 Pelican Point Dr #251,Sarasota,FL,34231,525000,1,1.0,PELICAN COVE,937,,1976,12,560,536,Active,,,https://www.redfin.com/FL/Sarasota/1520-Pelican-Point-Dr-34231/unit-251/home/47679918,Stellar MLS as Distributed by MLS Grid,A4622260,N,Y,27.227993,-82.503182
MLS Listing,,Condo/Co-op,6470 Hollywood Blvd #110,Sarasota,FL,34231,375000,2,2.0,ALMERIA ON THE BAY,910,,1978,12,412,498,Active,,,https://www.redfin.com/FL/Sarasota/6470-Hollywood-Blvd-34231/unit-110/home/47667666,Stellar MLS as Distributed by MLS Grid,T3553286,N,Y,27.255082,-82.5310399
MLS Listing,,Single Family Residential,7817 Geneva Ln,Sarasota,FL,34243,385000,2,2.0,TREETOPS AT NORTH 40 - ST CHARLES,1195,5314,1991,12,322,178,Active,,,https://www.redfin.com/FL/Sarasota/7817-Geneva-Ln-34243/home/45965533,Stellar MLS as Distributed by MLS Grid,W7868117,N,Y,27.4002954,-82.5097037
MLS Listing,,Condo/Co-op,"915 Seaside Dr Unit 613, Weeks 28-29",Sarasota,FL,34242,94900,4,3.0,SIESTA KEY BEACH RESIDENCES,2460,,2009,12,39,,Active,,,https://www.redfin.com/FL/Sarasota/915-Seaside-Dr-34242/home/47610992,Stellar MLS as Distributed by MLS Grid,A4622499,N,Y,27.248493,-82.5351714
MLS Listing,,Condo/Co-op,2304 Ringling Blvd #107,Sarasota,FL,34237,197500,1,1.0,GARDEN APTS,552,,1965,12,358,315,Active,,,https://www.redfin.com/FL/Sarasota/2304-Ringling-Blvd-34237/unit-107/home/47827812,Stellar MLS as Distributed by MLS Grid,A4622469,N,Y,27.3352204,-82.5226786
MLS Listing,,Single Family Residential,5766 Maypop Cir,Sarasota,FL,34238,575000,3,2.0,ARBOR LAKES ON PALMER RANCH,2056,8887,2014,12,280,182,Active,,,https://www.redfin.com/FL/Sarasota/5766-Maypop-Cir-34238/home/105428591,Stellar MLS as Distributed by MLS Grid,A4622410,N,Y,27.2535806,-82.4502047
MLS Listing,,Condo/Co-op,1050 Villagio Cir #206,Sarasota,FL,34237,299900,2,2.0,VILLAGIO,1058,,2002,12,283,375,Active,,,https://www.redfin.com/FL/Sarasota/1050-Villagio-Cir-34237/unit-206/home/47591685,Stellar MLS as Distributed by MLS Grid,A4621887,N,Y,27.3477038,-82.510992
MLS Listing,,Single Family Residential,4884 Wood Pointe Way,Sarasota,FL,34233,649900,3,2.0,GROVE POINTE,2112,11875,1992,12,308,37,Active,,,https://www.redfin.com/FL/Sarasota/4884-Wood-Pointe-Way-34233/home/47661985,Stellar MLS as Distributed by MLS Grid,A4621875,N,Y,27.2803858,-82.4540206
MLS Listing,,Single Family Residential,7637 Quinto Dr,Sarasota,FL,34238,435000,2,2.0,VILLAGEWALK,1693,5189,2003,12,257,440,Active,,,https://www.redfin.com/FL/Sarasota/7637-Quinto-Dr-34238/home/47593856,Stellar MLS as Distributed by MLS Grid,A4621243,N,Y,27.2437317,-82.4605981
MLS Listing,,Single Family Residential,1837 Worrington St,Sarasota,FL,34231,634000,2,2.0,SOUTH HIGHLAND AMD OF,1008,7500,1952,12,629,,Active,,,https://www.redfin.com/FL/Sarasota/1837-Worrington-St-34231/home/47653443,Stellar MLS as Distributed by MLS Grid,T3552907,N,Y,27.2921302,-82.5322361
MLS Listing,,Condo/Co-op,1350 Main St #1309,Sarasota,FL,34236,575000,1,1.0,1350 MAIN RESIDENTIAL,895,,2007,12,642,853,Active,,,https://www.redfin.com/FL/Sarasota/1350-Main-St-34236/unit-1309/home/47610016,Stellar MLS as Distributed by MLS Grid,A4620932,N,Y,27.335587,-82.543166
MLS Listing,,Single Family Residential,4601 Summerwind Dr #1,Sarasota,FL,34234,225000,2,2.0,SUMMER WIND,852,,1983,12,264,575,Active,,,https://www.redfin.com/FL/Sarasota/4601-Summerwind-Dr-34234/unit-1/home/47817018,Stellar MLS as Distributed by MLS Grid,A4622447,N,Y,27.3739335,-82.547298
MLS Listing,,Single Family Residential,9478 Tequila Sunrise Dr,Sarasota,FL,34241,999950,5,4.5,SKYE RANCH,3835,8832,2024,12,261,416,Active,,,https://www.redfin.com/FL/Sarasota/9478-Tequila-Sunrise-Dr-34241/home/188777807,Stellar MLS as Distributed by MLS Grid,A4621502,N,Y,27.24525,-82.396195
MLS Listing,,Condo/Co-op,750 N Tamiami Trl #403,Sarasota,FL,34236,645000,2,2.0,RENAISSANCE 1,1030,,2001,12,626,1000,Active,,,https://www.redfin.com/FL/Sarasota/750-N-Tamiami-Trl-34236/unit-403/home/47590163,Stellar MLS as Distributed by MLS Grid,A4622397,N,Y,27.3419917,-82.5459853
MLS Listing,,Single Family Residential,5344 Howard Creek Rd,Sarasota,FL,34241,1500000,5,3.5,MYAKKA VALLEY RANCHES,3604,288149,1988,13,416,,Active,September-22-2024 11:00 AM,September-22-2024 02:00 PM,https://www.redfin.com/FL/Sarasota/5344-Howard-Creek-Rd-34241/home/47741406,Stellar MLS as Distributed by MLS Grid,A4620389,N,Y,27.2755449,-82.3287203
MLS Listing,,Condo/Co-op,968 N Beneva Rd Unit V15,Sarasota,FL,34232,250000,2,2.0,GLEN THE,1135,221850,1983,13,220,1010,Active,,,https://www.redfin.com/FL/Sarasota/968-N-Beneva-Rd-34232/unit-V15/home/47829738,Stellar MLS as Distributed by MLS Grid,A4622481,N,Y,27.344184,-82.4955326
MLS Listing,,Single Family Residential,1392 46th St,Sarasota,FL,34234,295000,2,2.0,SAINT LOUIS TERRACE,686,7112,1920,13,430,,Active,,,https://www.redfin.com/FL/Sarasota/1392-46th-St-34234/home/145392835,Stellar MLS as Distributed by MLS Grid,A4622463,N,Y,27.3738781,-82.5430993
MLS Listing,,Single Family Residential,3408 Shingle Oak Ter,Sarasota,FL,34237,136667,2,1.0,OAKWOOD MANOR,755,3809,1972,13,181,180,Active,,,https://www.redfin.com/FL/Sarasota/3408-Shingle-Oak-Ter-34237/home/47829198,Stellar MLS as Distributed by MLS Grid,A4620740,N,Y,27.3321688,-82.4997353
MLS Listing,,Condo/Co-op,6470 Hollywood Blvd #303,Sarasota,FL,34231,530000,2,2.0,ALMERIA ON THE BAY,910,,1978,13,582,498,Active,,,https://www.redfin.com/FL/Sarasota/6470-Hollywood-Blvd-34231/unit-303/home/47667688,Stellar MLS as Distributed by MLS Grid,A4622417,N,Y,27.255082,-82.5310399
MLS Listing,,Single Family Residential,3813 San Luis Dr,Sarasota,FL,34235,485000,4,2.0,DE SOTO LAKES,1976,9900,1973,13,245,,Active,,,https://www.redfin.com/FL/Sarasota/3813-San-Luis-Dr-34235/home/47619142,Stellar MLS as Distributed by MLS Grid,A4622382,N,Y,27.3790687,-82.4925768
MLS Listing,,Single Family Residential,5364 Winewood Dr,Sarasota,FL,34232,465000,3,2.0,RIDGEWOOD ESTATES 19TH ADD,1661,8625,1978,13,280,,Active,,,https://www.redfin.com/FL/Sarasota/5364-Winewood-Dr-34232/home/47645576,Stellar MLS as Distributed by MLS Grid,A4618473,N,Y,27.3074738,-82.4626038
MLS Listing,,Single Family Residential,745 Tailwind Pl,Sarasota,FL,34240,1795000,5,3.0,LAKEHOUSE COVE/WATERSIDE PH 3,3138,9994,2022,13,572,355,Active,,,https://www.redfin.com/FL/Sarasota/745-Tailwind-Pl-34240/home/174438755,Stellar MLS as Distributed by MLS Grid,U8255937,N,Y,27.3687138,-82.395044
MLS Listing,,Single Family Residential,1535 Bay Hill Cir,Sarasota,FL,34232,525000,3,2.0,DEER HOLLOW,2043,8140,1988,13,257,41,Active,,,https://www.redfin.com/FL/Sarasota/1535-Bay-Hill-Cir-34232/home/47627380,Stellar MLS as Distributed by MLS Grid,A4619119,N,Y,27.3505237,-82.4542772
MLS Listing,,Condo/Co-op,8387 Enclave Way #103,Sarasota,FL,34243,386000,2,2.0,SOLEIL,1397,,2018,13,276,84,Active,,,https://www.redfin.com/FL/Sarasota/8387-Enclave-Way-34243/unit-103/home/192357563,Stellar MLS as Distributed by MLS Grid,TB8300211,N,Y,27.3931102,-82.5246212
MLS Listing,,Single Family Residential,15662 Fruitville Rd,Sarasota,FL,34240,675000,4,2.0,SARASOTA,2956,296208,1982,13,228,,Active,September-22-2024 11:00 AM,September-22-2024 02:00 PM,https://www.redfin.com/FL/Sarasota/15662-Fruitville-Rd-34240/home/47740573,Stellar MLS as Distributed by MLS Grid,A4620828,N,Y,27.334324,-82.2733666
MLS Listing,,Single Family Residential,6301 S Gator Creek Blvd,Sarasota,FL,34241,2500000,5,4.0,GATOR CREEK ESTATES,4531,221241,1977,13,552,83,Active,,,https://www.redfin.com/FL/Sarasota/6301-S-Gator-Creek-Blvd-34241/home/47700144,Stellar MLS as Distributed by MLS Grid,N6134368,N,Y,27.267473,-82.3983169
MLS Listing,,Condo/Co-op,20 Whispering Sands Dr #501,Sarasota,FL,34242,1250000,2,2.0,WHISPERING SANDS SEC 6,1282,,1973,13,975,1266,Active,,,https://www.redfin.com/FL/Sarasota/20-Whispering-Sands-Dr-34242/unit-501/home/47654904,Stellar MLS as Distributed by MLS Grid,A4620251,N,Y,27.2768976,-82.5683311
MLS Listing,,Single Family Residential,1500 Blind Brook Dr,Sarasota,FL,34234,65000,2,1.0,TRI-PAR ESTATES,706,4138,1963,13,92,132,Active,,,https://www.redfin.com/FL/Sarasota/1500-Blind-Brook-Dr-34234/home/47621392,Stellar MLS as Distributed by MLS Grid,A4621716,N,Y,27.3753482,-82.5395407
MLS Listing,,Single Family Residential,1253 43rd St,Sarasota,FL,34234,269900,2,1.0,SUNNYBROOK,625,3825,1915,13,432,,Active,,,https://www.redfin.com/FL/Sarasota/1253-43rd-St-34234/home/47621479,Stellar MLS as Distributed by MLS Grid,A4621047,N,Y,27.3716895,-82.5455419
MLS Listing,,Condo/Co-op,4244 Central Sarasota Pkwy #721,Sarasota,FL,34238,290000,2,2.0,PLAZA DE FLORES,1147,,1999,13,253,511,Active,,,https://www.redfin.com/FL/Sarasota/4244-Central-Sarasota-Pkwy-34238/unit-721/home/47836951,Stellar MLS as Distributed by MLS Grid,A4622361,N,Y,27.2234498,-82.4827874
MLS Listing,,Condo/Co-op,1155 N Gulfstream Ave #208,Sarasota,FL,34236,1690000,1,1.5,VUE SARASOTA BAY,1421,,2017,13,1189,1595,Active,,,https://www.redfin.com/FL/Sarasota/1155-N-Gulfstream-Ave-34236/unit-208/home/148502144,Stellar MLS as Distributed by MLS Grid,A4621940,N,Y,27.3362744,-82.5478219
MLS Listing,,Single Family Residential,4142 Iola Dr,Sarasota,FL,34231,380000,2,2.0,GOLF ESTATES,1302,6092,1980,13,292,,Active,,,https://www.redfin.com/FL/Sarasota/4142-Iola-Dr-34231/home/47651297,Stellar MLS as Distributed by MLS Grid,A4620443,N,Y,27.2946116,-82.5030478
MLS Listing,,Single Family Residential,900 Alameda Ln,Sarasota,FL,34234,14200000,5,6.0,WHITAKERS W H PROP,4799,76884,1973,14,2959,,Active,,,https://www.redfin.com/FL/Sarasota/900-Alameda-Ln-34234/home/47818246,Stellar MLS as Distributed by MLS Grid,T3551430,N,Y,27.3579081,-82.5535328
MLS Listing,,Single Family Residential,1110 Cocoanut Ave,Sarasota,FL,34236,998000,3,2.0,BOULEVARD ADD TO SARASOTA,1533,6225,2024,14,651,,Active,,,https://www.redfin.com/FL/Sarasota/1110-Cocoanut-Ave-34236/home/54748486,Stellar MLS as Distributed by MLS Grid,A4621511,N,Y,27.3471059,-82.5444679
MLS Listing,,Single Family Residential,1106 Cocoanut Ave,Sarasota,FL,34236,879000,3,2.0,BOULEVARD ADD TO SARASOTA,1190,6225,2024,14,739,,Active,,,https://www.redfin.com/FL/Sarasota/1106-Cocoanut-Ave-34236/home/47825287,Stellar MLS as Distributed by MLS Grid,A4621508,N,Y,27.3470102,-82.5444752
MLS Listing,,Condo/Co-op,2763 Woodgate Ln #211,Sarasota,FL,34231,225000,2,2.0,PINEWOOD VILLAGE II,874,,1979,14,257,495,Active,,,https://www.redfin.com/FL/Sarasota/2763-Woodgate-Ln-34231/unit-211/home/47653161,Stellar MLS as Distributed by MLS Grid,A4622253,N,Y,27.2851614,-82.5145322
MLS Listing,,Single Family Residential,515 N Osprey Ave,Sarasota,FL,34236,749000,3,2.0,CENTRAL PARK SUB,1463,5005,1950,14,512,,Active,September-21-2024 11:00 AM,September-21-2024 03:00 PM,https://www.redfin.com/FL/Sarasota/515-N-Osprey-Ave-34236/home/47825847,Stellar MLS as Distributed by MLS Grid,A4622227,N,Y,27.3409595,-82.5345847
MLS Listing,,Multi-Family (2-4 Unit),2500 Chilk Ave,Sarasota,FL,34234,449000,5,2.0,BOOKER PARK 2ND ADD,1883,6750,1974,14,238,,Active,,,https://www.redfin.com/FL/Sarasota/2500-Chilk-Ave-34234/home/47630030,Stellar MLS as Distributed by MLS Grid,A4622320,N,Y,27.3588417,-82.5206633
MLS Listing,,Townhouse,1510 Grantham Dr,Sarasota,FL,34234,335550,3,2.5,BRADFORD MANOR TWNHMS,1681,1740,2010,14,200,285,Active,,,https://www.redfin.com/FL/Sarasota/1510-Grantham-Dr-34234/home/47606169,Stellar MLS as Distributed by MLS Grid,A4622187,N,Y,27.3661057,-82.5217372
MLS Listing,,Condo/Co-op,3225 Ramblewood Dr,Sarasota,FL,34237,250000,3,2.5,RAMBLEWOOD ACRES,1343,,1974,14,186,702,Active,,,https://www.redfin.com/FL/Sarasota/3225-Ramblewood-Dr-34237/home/47824255,Stellar MLS as Distributed by MLS Grid,A4622220,N,Y,27.345393,-82.503596
MLS Listing,,Condo/Co-op,1201 E Peppertree Dr #234,Sarasota,FL,34242,859000,3,2.5,PEPPERTREE BAY I,1686,,1972,14,509,1201,Active,,,https://www.redfin.com/FL/Sarasota/1201-E-Peppertree-Dr-34242/unit-234/home/47670843,Stellar MLS as Distributed by MLS Grid,A4622300,N,Y,27.2606846,-82.5394792
MLS Listing,,Single Family Residential,2803 Butterfly Jasmine Trl,Sarasota,FL,34240,695000,4,2.5,WINDWARD/LAKEWOOD RANCH PH 1,2428,5921,2022,14,286,274,Active,,,https://www.redfin.com/FL/Sarasota/2803-Butterfly-Jasmine-Trl-34240/home/178023183,Stellar MLS as Distributed by MLS Grid,A4622174,N,Y,27.3454633,-82.3859296
MLS Listing,,Townhouse,7300 Portlight Ln,Sarasota,FL,34240,539999,3,2.5,NAUTIQUE AT WATERSIDE,1850,5650,2024,14,292,201,Active,,,https://www.redfin.com/FL/Sarasota/7300-Portlight-Ln-34240/home/188776866,Stellar MLS as Distributed by MLS Grid,R4908284,N,Y,27.358372,-82.422074
MLS Listing,,Condo/Co-op,1020 Sun N Sea Dr #102,Sarasota,FL,34242,625000,1,1.0,BEACH CLUB AT SIESTA KEY,524,62310,2009,14,1193,616,Active,,,https://www.redfin.com/FL/Unknown/1020-34242/unit-102/home/192344561,Stellar MLS as Distributed by MLS Grid,A4621834,N,Y,27.248735,-82.534346
MLS Listing,,Single Family Residential,7801 Grande Shores Dr,Sarasota,FL,34240,1300000,3,3.0,SHOREVIEW/LAKEWOOD RANCH WATER,2486,9405,2018,14,523,430,Active,,,https://www.redfin.com/FL/Sarasota/7801-Grande-Shores-Dr-34240/home/144955169,Stellar MLS as Distributed by MLS Grid,N6134361,N,Y,27.3727169,-82.4157555
MLS Listing,,Single Family Residential,5585 Long Shore Loop,Sarasota,FL,34238,1100000,3,3.0,SUNRISE PRESERVE,2489,7513,2020,14,442,376,Active,,,https://www.redfin.com/FL/Sarasota/5585-Long-Shore-Loop-34238/home/170097572,Stellar MLS as Distributed by MLS Grid,A4622266,N,Y,27.2577558,-82.4584712
MLS Listing,,Single Family Residential,3386 Oakwood Blvd N,Sarasota,FL,34237,281000,2,2.0,OAKWOOD MANOR,1494,3631,2005,14,188,180,Active,,,https://www.redfin.com/FL/Sarasota/3386-Oakwood-Blvd-N-34237/home/47829057,Stellar MLS as Distributed by MLS Grid,A4622246,N,Y,27.3333406,-82.501014
MLS Listing,,Single Family Residential,1129 Danny Dr,Sarasota,FL,34243,474900,3,2.0,WHITFIELD COUNTRY CLUB HEIGHTS UN 5,2164,10454,1963,14,219,,Active,,,https://www.redfin.com/FL/Sarasota/1129-Danny-Dr-34243/home/46018884,Stellar MLS as Distributed by MLS Grid,T3544868,N,Y,27.4214857,-82.551757
MLS Listing,,Single Family Residential,8760 Rain Song Rd,Sarasota,FL,34238,545900,2,2.0,SUNRISE PRESERVE,1698,4600,2023,14,321,471,Active,,,https://www.redfin.com/FL/Sarasota/8760-Rain-Song-Rd-34238/home/174437919,Stellar MLS as Distributed by MLS Grid,A4622141,N,Y,27.252713,-82.462823
MLS Listing,,Single Family Residential,1840 Springwood Dr,Sarasota,FL,34232,440000,2,2.0,TAMARON,1243,8283,1979,14,354,12,Active,,,https://www.redfin.com/FL/Sarasota/1840-Springwood-Dr-34232/home/47633937,Stellar MLS as Distributed by MLS Grid,O6237994,N,Y,27.3157016,-82.4895235
MLS Listing,,Condo/Co-op,2701 Hidden Lake Dr N Unit C,Sarasota,FL,34237,119000,1,1.0,HIDDEN LAKE VILLAGE,601,685323,1974,14,198,510,Active,,,https://www.redfin.com/FL/Sarasota/2701-Hidden-Lake-Dr-N-34237/unit-C/home/47827273,Stellar MLS as Distributed by MLS Grid,T3541243,N,Y,27.342017,-82.515098
MLS Listing,,Single Family Residential,7424 Ridge Rd,Sarasota,FL,34238,625000,3,2.0,STONEBRIDGE,1707,8520,1997,14,366,135,Active,,,https://www.redfin.com/FL/Sarasota/7424-Ridge-Rd-34238/home/47677063,Stellar MLS as Distributed by MLS Grid,A4621143,N,Y,27.2467288,-82.4740867
MLS Listing,,Condo/Co-op,3473 Parkridge Cir Unit 17-101,Sarasota,FL,34243,297900,3,2.0,PARKRIDGE PH 33 & 19,1210,,2005,14,246,386,Active,,,https://www.redfin.com/FL/Sarasota/3473-Parkridge-Cir-34243/unit-17-101/home/47599006,Stellar MLS as Distributed by MLS Grid,A4621782,N,Y,27.3866,-82.49946
MLS Listing,,Single Family Residential,5520 Hampstead Heath #4,Sarasota,FL,34235,439000,2,2.0,HAMPSTEAD HEATH,1348,,1988,14,326,660,Active,,,https://www.redfin.com/FL/Sarasota/5520-Hampstead-Heath-34235/unit-4/home/47626586,Stellar MLS as Distributed by MLS Grid,A4620369,N,Y,27.3624351,-82.4599118
MLS Listing,,Single Family Residential,1310 S Lake Shore Dr,Sarasota,FL,34231,28350000,4,5.0,OYSTER BAY ESTATES,9225,52942,1992,14,3073,,Active,,,https://www.redfin.com/FL/Sarasota/1310-S-Lake-Shore-Dr-34231/home/47653571,Stellar MLS as Distributed by MLS Grid,A4620550,N,Y,27.2884288,-82.5400308
MLS Listing,,Condo/Co-op,1558 4th St #210,Sarasota,FL,34236,939000,2,2.5,ZAHRADA 2,1006,975,2024,14,933,355,Active,,,https://www.redfin.com/FL/Sarasota/1558-4th-St-34236/unit-210/home/177025809,Stellar MLS as Distributed by MLS Grid,A4614324,N,Y,27.3394379,-82.5390854
MLS Listing,,Condo/Co-op,1315 Westport Ln #1412,Sarasota,FL,34232,399900,2,2.0,VILLAGE GREEN FOREST LAKE 14,1861,,1972,14,215,600,Active,,,https://www.redfin.com/FL/Sarasota/1315-Westport-Ln-34232/unit-1412/home/47633765,Stellar MLS as Distributed by MLS Grid,A4622193,N,Y,27.3212316,-82.4964679
MLS Listing,,Single Family Residential,2562 25th St,Sarasota,FL,34234,360000,2,1.0,BOOKER PARK,1009,6160,1999,15,357,,Active,,,https://www.redfin.com/FL/Sarasota/2562-25th-St-34234/home/47836327,Stellar MLS as Distributed by MLS Grid,A4622148,N,Y,27.3586323,-82.5182307
MLS Listing,,Condo/Co-op,4877 Village Gardens Dr #193,Sarasota,FL,34234,259000,2,2.0,VILLAGE GARDENS PH 3,1197,,1982,15,216,580,Active,,,https://www.redfin.com/FL/Sarasota/4877-Village-Gardens-Dr-34234/unit-193/home/47621015,Stellar MLS as Distributed by MLS Grid,A4621958,N,Y,27.3750551,-82.5435684
MLS Listing,,Single Family Residential,5749 Bay Pine Way,Sarasota,FL,34238,749000,3,2.0,HAMMOCK PRESERVE PH 2A & 2B,2008,6786,2019,15,373,420,Active,,,https://www.redfin.com/FL/Sarasota/5749-Bay-Pine-Way-34238/home/170101681,Stellar MLS as Distributed by MLS Grid,A4622163,N,Y,27.2055573,-82.4461117
MLS Listing,,Single Family Residential,4015 Asbury Pl,Sarasota,FL,34233,409900,3,2.0,SPRING LAKE SUB ADD 1,1232,10113,1957,15,333,,Active,,,https://www.redfin.com/FL/Sarasota/4015-Asbury-Pl-34233/home/47648913,Stellar MLS as Distributed by MLS Grid,A4622191,N,Y,27.2980143,-82.4855903
MLS Listing,,Single Family Residential,1918 Dudley Pl,Sarasota,FL,34235,299900,2,1.0,KENSINGTON PARK,939,8723,1957,15,319,2,Active,,,https://www.redfin.com/FL/Sarasota/1918-Dudley-Pl-34235/home/47630121,Stellar MLS as Distributed by MLS Grid,A4618461,N,Y,27.3543663,-82.4991154
MLS Listing,,Condo/Co-op,800 N Tamiami Trl #402,Sarasota,FL,34236,640000,2,2.0,ALINARI,1323,,2007,15,484,1285,Active,,,https://www.redfin.com/FL/Sarasota/800-N-Tamiami-Trl-34236/unit-402/home/47609771,Stellar MLS as Distributed by MLS Grid,A4621494,N,Y,27.343468,-82.5456585
MLS Listing,,Single Family Residential,4521 Kingsmere #6,Sarasota,FL,34235,385000,2,2.0,KINGSMERE,1188,345065,1986,15,324,725,Active,,,https://www.redfin.com/FL/Sarasota/4521-Kingsmere-34235/unit-6/home/47625482,Stellar MLS as Distributed by MLS Grid,A4622100,N,Y,27.3720228,-82.45955
MLS Listing,,Single Family Residential,2942 Trustee Ave,Sarasota,FL,34243,565000,2,2.0,UNIVERSITY VILLAGE,1629,4478,2017,15,347,317,Active,,,https://www.redfin.com/FL/Sarasota/2942-Trustee-Ave-34243/home/112494863,Stellar MLS as Distributed by MLS Grid,A4622162,N,Y,27.4063933,-82.5259933
MLS Listing,,Single Family Residential,7019 44th Ct E,Sarasota,FL,34243,429000,3,2.0,SARAPALMS,1236,8538,1996,15,347,41,Active,,,https://www.redfin.com/FL/Sarasota/7019-44th-Ct-E-34243/home/45964414,Stellar MLS as Distributed by MLS Grid,A4620414,N,Y,27.4159504,-82.5056512
MLS Listing,,Condo/Co-op,4737 Village Gardens Dr #79,Sarasota,FL,34234,245900,2,2.0,VILLAGE GARDENS PH 2,1176,,1981,15,209,580,Active,,,https://www.redfin.com/FL/Sarasota/4737-Village-Gardens-Dr-34234/unit-79/home/47621030,Stellar MLS as Distributed by MLS Grid,A4622051,N,Y,27.3784747,-82.5436427
MLS Listing,,Condo/Co-op,4068 Wilshire Cir E #145,Sarasota,FL,34238,349000,2,2.0,LAKESHORE VILLAGE,1720,,1988,15,203,687,Active,,,https://www.redfin.com/FL/Sarasota/4068-Wilshire-Cir-E-34238/unit-145/home/47663827,Stellar MLS as Distributed by MLS Grid,A4621179,N,Y,27.2664043,-82.4914716
MLS Listing,,Single Family Residential,302 Mendez Dr,Sarasota,FL,34243,485000,2,2.0,WHITFIELD ESTATES ON SARASOTA BAY I,1934,12602,1971,15,251,2,Active,,,https://www.redfin.com/FL/Sarasota/302-Mendez-Dr-34243/home/46020469,Stellar MLS as Distributed by MLS Grid,A4621910,N,Y,27.4150948,-82.5706104
MLS Listing,,Single Family Residential,2174 Mcclellan Pkwy,Sarasota,FL,34239,3950000,5,4.5,MCCLELLAN PARK RESUB,3478,12946,2022,15,1136,,Active,,,https://www.redfin.com/FL/Sarasota/2174-McClellan-Pkwy-34239/home/47833795,Stellar MLS as Distributed by MLS Grid,A4622124,N,Y,27.3136461,-82.5367827
MLS Listing,,Single Family Residential,5529 Lucia Pl,Sarasota,FL,34238,740000,3,2.0,VILLAGEWALK,2008,7074,2003,16,369,466,Active,,,https://www.redfin.com/FL/Sarasota/5529-Lucia-Pl-34238/home/47590825,Stellar MLS as Distributed by MLS Grid,A4622019,N,Y,27.2383613,-82.4600649
MLS Listing,,Single Family Residential,891 Faulkwood Ct,Sarasota,FL,34232,685000,3,2.5,WOODLAND PARK,2184,8899,1987,16,314,63,Active,,,https://www.redfin.com/FL/Sarasota/891-Faulkwood-Ct-34232/home/47632937,Stellar MLS as Distributed by MLS Grid,A4622017,N,Y,27.327232,-82.4890893
MLS Listing,,Condo/Co-op,2155 Wood St Unit B25,Sarasota,FL,34237,185000,1,1.0,PARK LANE,784,85524,1959,16,236,766,Active,,,https://www.redfin.com/FL/Sarasota/2155-Wood-St-34237/unit-B25/home/47831308,Stellar MLS as Distributed by MLS Grid,D6137986,N,Y,27.3287431,-82.5278327
MLS Listing,,Single Family Residential,8214 46th Ct E,Sarasota,FL,34243,450000,3,2.0,WHISPERING OAKS,1452,7448,2001,16,310,41,Active,,,https://www.redfin.com/FL/Sarasota/8214-46th-Ct-E-34243/home/46044307,Stellar MLS as Distributed by MLS Grid,A4621783,N,Y,27.3935976,-82.5043974
MLS Listing,,Single Family Residential,2637 Nancy St,Sarasota,FL,34237,549000,3,2.0,PAVER PARK ESTATES 2ND ADD,1938,7200,1955,16,283,,Active,,,https://www.redfin.com/FL/Sarasota/2637-Nancy-St-34237/home/47828109,Stellar MLS as Distributed by MLS Grid,A4622103,N,Y,27.3310253,-82.5169682
MLS Listing,,Condo/Co-op,1087 W Peppertree Dr W Unit 221D,Sarasota,FL,34242,775000,2,2.0,PEPPERTREE BAY IV,1310,,1974,16,592,1067,Active,,,https://www.redfin.com/FL/Sarasota/1087-W-Peppertree-Dr-34242/unit-221D/home/47670911,Stellar MLS as Distributed by MLS Grid,A4621967,N,Y,27.259465,-82.542064
MLS Listing,,Single Family Residential,2773 Harvest Dr,Sarasota,FL,34240,799000,4,3.0,BARTON FARMS,3022,12155,2001,17,264,175,Active,,,https://www.redfin.com/FL/Sarasota/2773-Harvest-Dr-34240/home/47695971,Stellar MLS as Distributed by MLS Grid,A4622043,N,Y,27.3083038,-82.3959976
MLS Listing,,Single Family Residential,1254 15th St,Sarasota,FL,34236,799000,6,4.5,VALENCIA TERRACE REV,3281,9270,1925,17,244,,Active,,,https://www.redfin.com/FL/Sarasota/1254-15th-St-34236/home/179732223,Stellar MLS as Distributed by MLS Grid,A4614641,N,Y,27.3506766,-82.5456163
MLS Listing,,Multi-Family (2-4 Unit),850 S School Ave,Sarasota,FL,34237,609000,3,2.0,CLARKS SUB,1632,8609,1957,17,373,,Active,,,https://www.redfin.com/FL/Sarasota/850-S-School-Ave-34237/home/47831306,Stellar MLS as Distributed by MLS Grid,A4622091,N,Y,27.3274088,-82.5260602
MLS Listing,,Condo/Co-op,3716 Colby St #15,Sarasota,FL,34232,199000,3,2.5,FAIRWAY OAKS,1250,575521,1972,17,159,500,Active,,,https://www.redfin.com/FL/Sarasota/3716-Colby-St-34232/unit-15/home/47829626,Stellar MLS as Distributed by MLS Grid,A4622094,N,Y,27.3387087,-82.4945687
MLS Listing,,Condo/Co-op,7741 Fairway Woods Dr #1001,Sarasota,FL,34238,475000,3,2.0,FAIRWAY WOODS,1956,,1985,17,243,726,Active,,,https://www.redfin.com/FL/Sarasota/7741-Fairway-Woods-Dr-34238/unit-1001/home/47676733,Stellar MLS as Distributed by MLS Grid,A4621128,N,Y,27.2412664,-82.49575
MLS Listing,,Condo/Co-op,5134 Northridge Rd #309,Sarasota,FL,34238,283000,2,2.0,SERENADE ON PALMER RANCH,1164,,1999,17,243,446,Active,,,https://www.redfin.com/FL/Sarasota/5134-Northridge-Rd-34238/unit-309/home/47599192,Stellar MLS as Distributed by MLS Grid,T3552639,N,Y,27.2640697,-82.4660483
MLS Listing,,Single Family Residential,6333 Beechwood Ave,Sarasota,FL,34231,569000,2,2.0,PINE SHORES ESTATE 3RD ADD,1466,15753,1958,17,388,,Active,,,https://www.redfin.com/FL/Sarasota/6333-Beechwood-Ave-34231/home/47666951,Stellar MLS as Distributed by MLS Grid,C7497336,N,Y,27.2589917,-82.5292369
MLS Listing,,Single Family Residential,1926 Crampton Ave,Sarasota,FL,34235,390000,3,2.0,KENSINGTON PARK,1778,9800,1957,17,219,,Active,,,https://www.redfin.com/FL/Sarasota/1926-Crampton-Ave-34235/home/47629745,Stellar MLS as Distributed by MLS Grid,A4622093,N,Y,27.3546267,-82.5000839
MLS Listing,,Single Family Residential,3761 Countryside Rd,Sarasota,FL,34233,675000,3,2.5,COUNTRY PLACE,2399,14107,1981,17,281,41,Active,,,https://www.redfin.com/FL/Sarasota/3761-Countryside-Rd-34233/home/47661194,Stellar MLS as Distributed by MLS Grid,A4622084,N,Y,27.2795644,-82.4896886
MLS Listing,,Single Family Residential,12259 Myrtle Bay Ct,Sarasota,FL,34238,520000,2,2.0,HAMMOCK PRESERVE PH 1A-4 1B & 1C,1548,4837,2020,17,336,382,Active,,,https://www.redfin.com/FL/Sarasota/12259-Myrtle-Bay-Ct-34238/home/148585591,Stellar MLS as Distributed by MLS Grid,A4621096,N,Y,27.2072442,-82.4485346
MLS Listing,,Condo/Co-op,4210 Breezeway Blvd #422,Sarasota,FL,34238,379000,3,2.0,PINESTONE AT PALMER RANCH,1604,,1998,17,236,431,Active,,,https://www.redfin.com/FL/Sarasota/4210-Breezeway-Blvd-34238/unit-422/home/47678649,Stellar MLS as Distributed by MLS Grid,A4621969,N,Y,27.2305543,-82.484724
MLS Listing,,Single Family Residential,1824 Springwood Dr,Sarasota,FL,34232,445000,3,2.0,TAMARON,1615,8286,1979,17,276,12,Active,,,https://www.redfin.com/FL/Sarasota/1824-Springwood-Dr-34232/home/47633941,Stellar MLS as Distributed by MLS Grid,A4622049,N,Y,27.3157058,-82.490462
MLS Listing,,Single Family Residential,5537 Bountiful Dr,Sarasota,FL,34233,359000,2,2.0,CENTER GATE VILLAGE 5,1601,,1980,17,224,420,Active,,,https://www.redfin.com/FL/Sarasota/5537-Bountiful-Dr-34233/home/192311623,Stellar MLS as Distributed by MLS Grid,A4622031,N,Y,27.292548,-82.458765
MLS Listing,,Single Family Residential,8937 Olde Hickory Ave,Sarasota,FL,34238,647000,2,2.0,STONEYBROOK GOLF & COUNTRY CLUB,1620,7591,1995,17,399,637,Active,,,https://www.redfin.com/FL/Sarasota/8937-Olde-Hickory-Ave-34238/home/47682456,Stellar MLS as Distributed by MLS Grid,A4618781,N,Y,27.2192455,-82.4723062
MLS Listing,,Townhouse,4980 Baraldi Cir Unit 17-205,Sarasota,FL,34235,270000,2,2.0,LAS PALMAS OF SARASOTA,1246,,2002,17,217,587,Active,,,https://www.redfin.com/FL/Sarasota/4980-Baraldi-Cir-34235/unit-17-205/home/47597890,Stellar MLS as Distributed by MLS Grid,N6134388,N,Y,27.3771156,-82.4569467
MLS Listing,,Single Family Residential,1107 Blue Shell Loop,Sarasota,FL,34240,2551893,3,3.5,WILD BLUE AT WATERSIDE,3222,12889,2025,17,792,812,Active,,,https://www.redfin.com/FL/Sarasota/1107-Blue-Shell-Loop-34240/home/192311159,Stellar MLS as Distributed by MLS Grid,A4621735,N,Y,27.379206,-82.3970949
MLS Listing,,Single Family Residential,5310 N Tuttle Ave,Sarasota,FL,34234,1190000,3,2.5,DESOTO ACRES,2408,97054,1956,17,494,,Active,,,https://www.redfin.com/FL/Sarasota/5310-N-Tuttle-Ave-34234/home/47619625,Stellar MLS as Distributed by MLS Grid,A4622063,N,Y,27.3802952,-82.51347
MLS Listing,,Single Family Residential,2850 Desoto Rd,Sarasota,FL,34234,2290000,3,3.0,DESOTO ACRES,2927,96982,1976,17,782,,Active,,,https://www.redfin.com/FL/Sarasota/2850-Desoto-Rd-34234/home/47619636,Stellar MLS as Distributed by MLS Grid,A4620866,N,Y,27.3811442,-82.5133632
MLS Listing,,Condo/Co-op,3271 Beneva Rd #204,Sarasota,FL,34232,168000,1,1.0,VILLAGE BROOKE SEC 3,714,,1979,18,235,421,Active,,,https://www.redfin.com/FL/Sarasota/3271-Beneva-Rd-34232/unit-204/home/47642046,Stellar MLS as Distributed by MLS Grid,A4621907,N,Y,27.302398,-82.495106
MLS Listing,,Condo/Co-op,5707 N Honore Ave #621,Sarasota,FL,34243,699000,3,2.0,8609 - MONTSERRAT AT UTC,2213,,2023,18,316,490,Active,,,https://www.redfin.com/FL/Sarasota/5707-N-Honore-Ave-34243/unit-621/home/192306248,Stellar MLS as Distributed by MLS Grid,A4621799,N,Y,27.383862,-82.462872
MLS Listing,,Single Family Residential,8360 Palm Lakes Ct,Sarasota,FL,34243,569900,3,2.0,2052900 PALM WEST,2331,11064,1991,18,244,41,Active,,,https://www.redfin.com/FL/Sarasota/8360-Palm-Lakes-Ct-34243/home/45967292,Stellar MLS as Distributed by MLS Grid,T3552884,N,Y,27.3908246,-82.493947
MLS Listing,,Single Family Residential,8031 36th Street Cir E,Sarasota,FL,34243,695000,4,3.0,RESIDENCES AT UNIVERSITY GROVES,2851,14275,2010,18,244,158,Active,,,https://www.redfin.com/FL/Sarasota/8031-36th-Street-Cir-E-34243/home/45921225,Stellar MLS as Distributed by MLS Grid,A4620616,N,Y,27.3978042,-82.5181546
MLS Listing,,Single Family Residential,3464 Camino Real,Sarasota,FL,34239,2447000,4,5.0,BAYVIEW,2847,5500,2024,18,860,,Active,,,https://www.redfin.com/FL/Sarasota/3464-Camino-Real-34239/home/188781204,Stellar MLS as Distributed by MLS Grid,A4621946,N,Y,27.3030263,-82.5366523
MLS Listing,,Single Family Residential,4220 Via Piedra Cir Unit 4-101,Sarasota,FL,34233,324995,3,2.0,STONERIDGE PH 1 2 3 7 8 9,1210,,2006,18,269,394,Active,,,https://www.redfin.com/FL/Sarasota/4220-Via-Piedra-Cir-34233/unit-4-101/home/47606685,Stellar MLS as Distributed by MLS Grid,A4621922,N,Y,27.2933016,-82.4655912
MLS Listing,,Condo/Co-op,4642 Longwater Chase #96,Sarasota,FL,34235,300000,2,2.0,LONGWATER CHASE,1108,,1979,18,271,334,Active,,,https://www.redfin.com/FL/Sarasota/4642-Longwater-Chase-34235/unit-96/home/47624944,Stellar MLS as Distributed by MLS Grid,A4622025,N,Y,27.3620803,-82.4734596
MLS Listing,,Townhouse,1730 Alderman St,Sarasota,FL,34236,1990000,3,4.0,HUDSON BAYOU RESUB,2480,28534,2024,18,802,1200,Active,,,https://www.redfin.com/FL/Sarasota/1730-Alderman-St-34236/home/175332630,Stellar MLS as Distributed by MLS Grid,A4621917,N,Y,27.3301615,-82.5362423
MLS Listing,,Single Family Residential,3935 Middlesex Pl,Sarasota,FL,34241,374999,3,2.0,LAKE SARASOTA,1198,7560,1986,18,313,,Active,,,https://www.redfin.com/FL/Sarasota/3935-Middlesex-Pl-34241/home/47697344,Stellar MLS as Distributed by MLS Grid,T3552732,N,Y,27.2976576,-82.4264456
MLS Listing,,Single Family Residential,61 S Washington Dr,Sarasota,FL,34236,6995000,7,9.5,SAINT ARMANDS DIV JOHN RINGLING ESTATES,8691,28770,1956,18,805,,Active,,,https://www.redfin.com/FL/Sarasota/61-S-Washington-Dr-34236/home/47819760,Stellar MLS as Distributed by MLS Grid,A4621954,N,Y,27.318531,-82.5731937
MLS Listing,,Single Family Residential,3617 Yellow Pine Ct #144,Sarasota,FL,34238,365000,2,2.0,VILLAGE DES PINS II,1353,1806,1984,18,270,879,Active,,,https://www.redfin.com/FL/Sarasota/3617-Yellow-Pine-Ct-34238/unit-144/home/47678814,Stellar MLS as Distributed by MLS Grid,O6237493,N,Y,27.2384775,-82.4957912
MLS Listing,,Single Family Residential,3165 Maiden Ln,Sarasota,FL,34231,439750,3,2.0,FLORA VILLA,1546,8800,1984,18,284,,Active,,,https://www.redfin.com/FL/Sarasota/3165-Maiden-Ln-34231/home/47650754,Stellar MLS as Distributed by MLS Grid,O6237537,N,Y,27.2953955,-82.5065344
MLS Listing,,Single Family Residential,3791 Surrey Ln,Sarasota,FL,34235,749000,3,2.0,MEADOWS THE,2021,11219,1989,18,371,115,Active,,,https://www.redfin.com/FL/Sarasota/3791-Surrey-Ln-34235/home/47626018,Stellar MLS as Distributed by MLS Grid,A4621965,N,Y,27.3666912,-82.4558433
MLS Listing,,Condo/Co-op,2110 Benjamin Franklin Dr #105,Sarasota,FL,34236,759000,1,2.0,LIDO HARBOUR SOUTH,1009,,1968,18,752,913,Active,,,https://www.redfin.com/FL/Sarasota/2110-Benjamin-Franklin-Dr-34236/unit-105/home/47821139,Stellar MLS as Distributed by MLS Grid,A4621773,N,Y,27.2999035,-82.5686677
MLS Listing,,Condo/Co-op,5431 Soapstone Pl Unit 22-203,Sarasota,FL,34233,315000,2,2.0,"STONEHAVEN PH 4, 5, 6, 7 & 25",1036,,2012,18,304,290,Active,,,https://www.redfin.com/FL/Sarasota/5431-Soapstone-Pl-34233/unit-22-203/home/52885498,Stellar MLS as Distributed by MLS Grid,A4621899,N,Y,27.2723417,-82.4619106
MLS Listing,,Townhouse,6002 Madrano Dr,Sarasota,FL,34232,369500,3,2.5,SAN PALERMO,1652,1739,2006,18,224,222,Active,,,https://www.redfin.com/FL/Sarasota/6002-Madrano-Dr-34232/home/47600563,Stellar MLS as Distributed by MLS Grid,A4621663,N,Y,27.350436,-82.4485756
MLS Listing,,Townhouse,8665 Palmer Park Cir,Sarasota,FL,34238,399900,3,2.5,PROMENADE/PALMER RANCH PH I,1819,2756,2020,18,220,632,Active,,,https://www.redfin.com/FL/Sarasota/8665-Palmer-Park-Cir-34238/home/148584859,Stellar MLS as Distributed by MLS Grid,A4621731,N,Y,27.2571452,-82.4791004
MLS Listing,,Vacant Land,421 Cleveland Dr,Sarasota,FL,34236,3195000,,,DERRINGERS RESUB,,14962,,18,,,Active,,,https://www.redfin.com/FL/Sarasota/421-Cleveland-Dr-34236/home/47820476,Stellar MLS as Distributed by MLS Grid,A4621948,N,Y,27.3116343,-82.5718251
MLS Listing,,Condo/Co-op,9499 Millbank Dr #2714,Sarasota,FL,34238,449000,3,2.0,STONEYBROOK VERANDA GREENS NORTH 02,1414,,1997,18,318,984,Active,,,https://www.redfin.com/FL/Sarasota/9499-Millbank-Dr-34238/unit-2714/home/47682645,Stellar MLS as Distributed by MLS Grid,A4621767,N,Y,27.215928,-82.4763102
MLS Listing,,Single Family Residential,9300 Tequila Sunrise Dr,Sarasota,FL,34241,807000,4,3.0,CASSIA AT SKYE RANCH,2391,10907,2023,18,338,208,Active,,,https://www.redfin.com/FL/Sarasota/9300-Tequila-Sunrise-Dr-34241/home/178975819,Stellar MLS as Distributed by MLS Grid,N6134348,N,Y,27.2474098,-82.3938094
MLS Listing,,Single Family Residential,4518 N Lake Dr,Sarasota,FL,34232,479900,3,2.0,SHERWOOD ESTATES 3,1753,17897,1963,18,274,5,Active,,,https://www.redfin.com/FL/Sarasota/4518-N-Lake-Dr-34232/home/47631339,Stellar MLS as Distributed by MLS Grid,A4620777,N,Y,27.3331749,-82.4762699
MLS Listing,,Single Family Residential,3800 Davis Blvd,Sarasota,FL,34232,569900,3,2.0,EASTWOOD OAKS,1424,8659,2021,18,400,,Active,,,https://www.redfin.com/FL/Sarasota/3800-Davis-Blvd-34232/home/47830762,Stellar MLS as Distributed by MLS Grid,A4620750,N,Y,27.3333162,-82.4929401
MLS Listing,,Single Family Residential,2412 Wells Ave,Sarasota,FL,34232,390700,3,2.0,SARASOTA SPGS,1204,7560,1980,18,325,,Active,,,https://www.redfin.com/FL/Sarasota/2412-Wells-Ave-34232/home/47640813,Stellar MLS as Distributed by MLS Grid,T3552621,N,Y,27.3110437,-82.4816626
MLS Listing,,Single Family Residential,4928 Bell Meade Dr,Sarasota,FL,34232,360000,2,1.0,RIDGEWOOD ESTATES ADD 03 RESUB 01,850,7560,1965,18,424,,Active,,,https://www.redfin.com/FL/Sarasota/4928-Bell-Meade-Dr-34232/home/47644048,Stellar MLS as Distributed by MLS Grid,A4620202,N,Y,27.3031224,-82.4703614
MLS Listing,,Single Family Residential,8600 Rain Song Rd,Sarasota,FL,34238,519900,2,2.0,SUNRISE PRESERVE,1540,4625,2018,18,338,471,Active,,,https://www.redfin.com/FL/Sarasota/8600-Rain-Song-Rd-34238/home/145511168,Stellar MLS as Distributed by MLS Grid,A4621117,N,Y,27.2568649,-82.464373
