SALE TYPE,SOLD DATE,PROPERTY TYPE,ADDRESS,CITY,STATE OR PROVINCE,ZIP OR POSTAL CODE,PRICE,BEDS,BATHS,LOCATION,SQUARE FEET,LOT SIZE,YEAR BUILT,DAYS ON MARKET,$/SQUARE FEET,HOA/MONTH,STATUS,NEXT OPEN HOUSE START TIME,NEXT OPEN HOUSE END TIME,URL (SEE https://www.redfin.com/buy-a-home/comparative-market-analysis FOR INFO ON PRICING),SOURCE,MLS#,FAVORITE,INTERESTED,LATITUDE,LONGITUDE
MLS Listing,,Single Family Residential,8212 Ravenna Ave NE,Seattle,WA,98115,799900,3,1.0,Wedgwood,1130,6572,1952,1,708,,Active,September-21-2024 11:00 AM,September-21-2024 01:00 PM,https://www.redfin.com/WA/Seattle/8212-Ravenna-Ave-NE-98115/home/317370,NWMLS as Distributed by MLS Grid,2291230,N,Y,47.6888856,-122.3013466
MLS Listing,,Condo/Co-op,3022 63rd Ave SW #101,Seattle,WA,98116,524990,2,2.0,Alki,886,,1991,3,593,300,Active,September-21-2024 02:00 PM,September-21-2024 04:00 PM,https://www.redfin.com/WA/Seattle/3022-63rd-Ave-SW-98116/unit-101/home/23504,NWMLS as Distributed by MLS Grid,2288581,N,Y,47.5776351,-122.4129719
MLS Listing,,Townhouse,212 24th Ave E,Seattle,WA,98112,725000,2,2.5,Madison Valley,1267,,2000,3,572,1091,Active,September-21-2024 11:00 AM,September-21-2024 01:00 PM,https://www.redfin.com/WA/Seattle/212-24th-Ave-E-98112/home/51167,NWMLS as Distributed by MLS Grid,2290650,N,Y,47.6206871,-122.3010008
MLS Listing,,Single Family Residential,6555 Seward Park Ave S,Seattle,WA,98118,1377500,4,3.0,Seward Park,3040,8172,2008,3,453,,Active,,,https://www.redfin.com/WA/Seattle/6555-Seward-Park-Ave-S-98118/home/18665727,NWMLS as Distributed by MLS Grid,2290809,N,Y,47.5426839,-122.2648204
MLS Listing,,Condo/Co-op,588 Bell St Unit 307S,Seattle,WA,98121,639500,1,1.0,Belltown,963,,2015,3,664,1072,Active,,,https://www.redfin.com/WA/Seattle/588-Bell-St-98121/unit-307S/home/106724176,NWMLS as Distributed by MLS Grid,2288592,N,Y,47.6166206,-122.342861
MLS Listing,,Townhouse,114 20th Ave Unit A,Seattle,WA,98211,775950,3,2.0,Central Area,1514,1076,2015,3,513,46,Active,September-21-2024 02:30 PM,September-21-2024 04:30 PM,https://www.redfin.com/WA/Seattle/114-20th-Ave-98122/unit-A/home/103466919,NWMLS as Distributed by MLS Grid,2290171,N,Y,47.602202,-122.3059644
MLS Listing,,Single Family Residential,5649 37th Ave SW,Seattle,WA,98126,785000,4,1.0,West Seattle,2080,5080,1960,3,377,,Active,,,https://www.redfin.com/WA/Seattle/5649-37th-Ave-SW-98126/home/470589,NWMLS as Distributed by MLS Grid,2287870,N,Y,47.550553,-122.3793049
MLS Listing,,Single Family Residential,4128 14th Ave S,Seattle,WA,98108,850000,3,3.0,Beacon Hill,1980,4106,1941,4,429,,Active,September-21-2024 02:00 PM,September-21-2024 04:00 PM,https://www.redfin.com/WA/Seattle/4128-14th-Ave-S-98108/home/170227,NWMLS as Distributed by MLS Grid,2289756,N,Y,47.5663279,-122.3144517
MLS Listing,,Townhouse,1222 N 88th St,Seattle,WA,98103,639000,3,2.0,Northgate,1220,1362,2004,4,524,,Active,,,https://www.redfin.com/WA/Seattle/1222-N-88th-St-98103/home/2064314,NWMLS as Distributed by MLS Grid,2288318,N,Y,47.6924925,-122.3415721
MLS Listing,,Townhouse,3410 23rd Ave W Unit B,Seattle,WA,98199,815000,2,2.0,Magnolia,1395,797,2022,4,584,,Active,,,https://www.redfin.com/WA/Seattle/3410-23rd-Ave-W-98199/unit-B/home/179594638,NWMLS as Distributed by MLS Grid,2287584,N,Y,47.6507636,-122.3856057
MLS Listing,,Single Family Residential,5406 30th Ave SW,Seattle,WA,98126,599000,3,1.0,High Point,950,5750,1971,4,631,,Active,,,https://www.redfin.com/WA/Seattle/5406-30th-Ave-SW-98126/home/159306,NWMLS as Distributed by MLS Grid,2288636,N,Y,47.5534734,-122.3705547
MLS Listing,,Townhouse,1208 S Massachusetts St Unit A,Seattle,WA,98144,819000,3,3.5,N Beacon Hill,1500,1050,2007,4,546,,Active,,,https://www.redfin.com/WA/Seattle/1208-S-Massachusetts-St-98144/unit-A/home/18658635,NWMLS as Distributed by MLS Grid,2288409,N,Y,47.588593,-122.3167348
MLS Listing,,Townhouse,1561 Cherrylane Ave S,Seattle,WA,98144,570000,2,2.5,Seattle,1088,1,1997,9,524,580,Active,,,https://www.redfin.com/WA/Seattle/1561-Cherrylane-Ave-S-98144/home/179724261,NWMLS as Distributed by MLS Grid,2288044,N,Y,47.589297,-122.312734
MLS Listing,,Condo/Co-op,4343 Roosevelt Way NE #405,Seattle,WA,98105,595000,2,2.0,University District,1215,,1996,10,490,743,Active,September-21-2024 02:00 PM,September-21-2024 04:00 PM,https://www.redfin.com/WA/Seattle/4343-Roosevelt-Way-NE-98105/unit-405/home/8764,NWMLS as Distributed by MLS Grid,2287206,N,Y,47.6606289,-122.3180337
MLS Listing,,Condo/Co-op,812 5th Ave N #305,Seattle,WA,98109,549000,2,2.0,Queen Anne,812,,2002,10,676,572,Active,,,https://www.redfin.com/WA/Seattle/812-5th-Ave-N-98109/unit-305/home/22685402,NWMLS as Distributed by MLS Grid,2285970,N,Y,47.6268605,-122.3472478
MLS Listing,,Single Family Residential,2820 W Dravus St,Seattle,WA,98199,2495000,5,3.5,Magnolia,4370,6000,2008,10,571,,Active,,,https://www.redfin.com/WA/Seattle/2820-W-Dravus-St-98199/home/128816,NWMLS as Distributed by MLS Grid,2285037,N,Y,47.6488561,-122.3938594
MLS Listing,,Condo/Co-op,711 Belmont Pl E #303,Seattle,WA,98102,389000,1,1.0,Capitol Hill,711,,1928,11,547,606,Active,September-21-2024 11:00 AM,September-21-2024 01:00 PM,https://www.redfin.com/WA/Seattle/711-Belmont-Pl-E-98102/unit-303/home/12424768,NWMLS as Distributed by MLS Grid,2287054,N,Y,47.6262376,-122.3246022
MLS Listing,,Condo/Co-op,235 13th Ave E #102,Seattle,WA,98102,560000,2,1.0,Broadway,864,,1986,11,648,451,Active,,,https://www.redfin.com/WA/Seattle/235-13th-Ave-E-98102/unit-102/home/1806,NWMLS as Distributed by MLS Grid,2285622,N,Y,47.6209365,-122.3160025
MLS Listing,,Condo/Co-op,5440 Leary Ave NW #512,Seattle,WA,98107,539000,1,1.0,Ballard,870,,2007,11,620,515,Active,,,https://www.redfin.com/WA/Seattle/5440-Leary-Ave-NW-98107/unit-512/home/191487826,NWMLS as Distributed by MLS Grid,2285934,N,Y,47.6676476,-122.3828727
MLS Listing,,Single Family Residential,2539 56th Ave SW,Seattle,WA,98116,1424000,5,3.5,Alki,2850,2813,2014,11,500,,Active,,,https://www.redfin.com/WA/Seattle/2539-56th-Ave-SW-98116/home/150360,NWMLS as Distributed by MLS Grid,2287228,N,Y,47.5805354,-122.4042706
MLS Listing,,Single Family Residential,6610 Corson Ave S,Seattle,WA,98108,899000,3,2.5,Georgetown,2070,1639,2018,11,434,,Active,,,https://www.redfin.com/WA/Seattle/6610-Corson-Ave-S-98108/home/161030233,NWMLS as Distributed by MLS Grid,2286699,N,Y,47.5440092,-122.3222936
MLS Listing,,Single Family Residential,307 W Highland Dr,Seattle,WA,98119,2985000,4,2.5,Queen Anne,4120,4881,1928,11,725,,Active,,,https://www.redfin.com/WA/Seattle/307-W-Highland-Dr-98119/home/133569,NWMLS as Distributed by MLS Grid,2282628,N,Y,47.6293551,-122.3609763
MLS Listing,,Single Family Residential,12730 3rd Ave NW,Seattle,WA,98177,1349950,4,3.0,Broadview,3220,8160,1949,12,419,,Active,,,https://www.redfin.com/WA/Seattle/12730-3rd-Ave-NW-98177/home/96818,NWMLS as Distributed by MLS Grid,2286048,N,Y,47.7222529,-122.360636
MLS Listing,,Single Family Residential,7740 10th Ave NW,Seattle,WA,98117,837000,2,1.0,Seattle,930,4480,1939,12,900,,Active,,,https://www.redfin.com/WA/Seattle/7740-10th-Ave-NW-98117/home/497295,NWMLS as Distributed by MLS Grid,2283258,N,Y,47.6863236,-122.3690827
MLS Listing,,Single Family Residential,9816 Linden Ave N,Seattle,WA,98103,785000,3,2.0,Greenwood,1060,7150,1949,15,741,,Active,,,https://www.redfin.com/WA/Seattle/9816-Linden-Ave-N-98103/home/99664,NWMLS as Distributed by MLS Grid,2257502,N,Y,47.701087,-122.3470616
MLS Listing,,Condo/Co-op,2504 Western Ave #221,Seattle,WA,98121,299000,0,1.0,Belltown,525,,1998,17,570,408,Active,,,https://www.redfin.com/WA/Seattle/2504-Western-Ave-98121/unit-221/home/104019267,NWMLS as Distributed by MLS Grid,2282192,N,Y,47.6142816,-122.3497861
MLS Listing,,Condo/Co-op,4444 44th Ave SW #101,Seattle,WA,98116,490000,2,2.0,West Seattle,1129,,1975,19,434,669,Active,,,https://www.redfin.com/WA/Seattle/4444-44th-Ave-SW-98116/unit-101/home/42231,NWMLS as Distributed by MLS Grid,2277728,N,Y,47.5632801,-122.387755
MLS Listing,,Condo/Co-op,108 5th Ave S #512,Seattle,WA,98104,328500,0,1.0,International District,512,,2001,20,642,440,Active,,,https://www.redfin.com/WA/Seattle/108-5th-Ave-S-98104/unit-512/home/12090927,NWMLS as Distributed by MLS Grid,2282805,N,Y,47.6013297,-122.3272284
MLS Listing,,Condo/Co-op,4026 Stone Way N #403,Seattle,WA,98103,585000,2,2.0,Fremont,814,,2001,24,719,593,Active,,,https://www.redfin.com/WA/Seattle/4026-Stone-Way-N-98103/unit-403/home/49001,NWMLS as Distributed by MLS Grid,2278733,N,Y,47.6562218,-122.3420838
MLS Listing,,Single Family Residential,2251 14th Ave W Unit A,Seattle,WA,98119,875000,3,2.5,Queen Anne,1700,1227,2015,24,515,305,Active,,,https://www.redfin.com/WA/Seattle/2251-14th-Ave-W-98119/unit-A/home/101611546,NWMLS as Distributed by MLS Grid,2280740,N,Y,47.6401374,-122.3753533
MLS Listing,,Single Family Residential,6905 39th Ave SW,Seattle,WA,98136,799500,4,2.5,Gatewood,3010,3823,1929,25,266,,Active,,,https://www.redfin.com/WA/Seattle/6905-39th-Ave-SW-98136/home/469418,NWMLS as Distributed by MLS Grid,2271268,N,Y,47.5409753,-122.3822
MLS Listing,,Condo/Co-op,1408 12th Ave #405,Seattle,WA,98122,574900,1,1.0,Capitol Hill,795,,2007,25,723,700,Active,,,https://www.redfin.com/WA/Seattle/1408-12th-Ave-98122/unit-405/home/12538535,NWMLS as Distributed by MLS Grid,2280906,N,Y,47.6130989,-122.3165619
MLS Listing,,Condo/Co-op,5650 24th Ave NW #210,Seattle,WA,98107,500000,1,1.0,Ballard,744,,2007,25,672,600,Active,,,https://www.redfin.com/WA/Seattle/5650-24th-Ave-NW-98107/unit-210/home/12448304,NWMLS as Distributed by MLS Grid,2280099,N,Y,47.6698021,-122.3871937
MLS Listing,,Townhouse,1074 SW 97th St,Seattle,WA,98106,759950,4,3.5,White Center,2420,2447,2019,26,314,292,Active,,,https://www.redfin.com/WA/Seattle/1074-SW-97th-St-98106/home/163848576,NWMLS as Distributed by MLS Grid,2280359,N,Y,47.5163465,-122.34891
MLS Listing,,Single Family Residential,303 29th Ave,Seattle,WA,98122,1599950,5,4.5,Leschi,5370,5220,1913,27,298,,Active,,,https://www.redfin.com/WA/Seattle/303-29th-Ave-98122/home/149048,NWMLS as Distributed by MLS Grid,2279908,N,Y,47.6043533,-122.2952785
MLS Listing,,Single Family Residential,830 16th Ave Unit A,Seattle,WA,98122,1275000,3,3.5,Central Area,1760,1881,2017,31,724,,Active,,,https://www.redfin.com/WA/Seattle/830-16th-Ave-98122/unit-A/home/143336,NWMLS as Distributed by MLS Grid,2278634,N,Y,47.6101223,-122.3113683
MLS Listing,,Single Family Residential,8221 S 118th Ct,Seattle,WA,98178,1075000,4,3.5,Seattle,2750,3397,2018,32,391,71,Active,September-21-2024 11:00 AM,September-21-2024 01:00 PM,https://www.redfin.com/WA/Seattle/8221-S-118th-Ct-98178/home/113996305,NWMLS as Distributed by MLS Grid,2276843,N,Y,47.4965012,-122.2296969
MLS Listing,,Condo/Co-op,700 Crockett St #303,Seattle,WA,98109,785000,2,2.0,Queen Anne,1211,,1984,33,648,650,Active,,,https://www.redfin.com/WA/Seattle/700-Crockett-St-98109/unit-303/home/191480680,NWMLS as Distributed by MLS Grid,2277413,N,Y,47.6377999,-122.3443015
MLS Listing,,Single Family Residential,2204 12th Ave W Unit B,Seattle,WA,98119,1350000,3,3.5,Queen Anne,2180,1623,2019,34,619,270,Active,,,https://www.redfin.com/WA/Seattle/2204-12th-Ave-W-98119/unit-B/home/171917024,NWMLS as Distributed by MLS Grid,2275186,N,Y,47.6388569,-122.3722765
MLS Listing,,Single Family Residential,626 N 143rd St,Seattle,WA,98133,699000,3,2.0,Seattle,2400,7700,1956,35,291,,Active,,,https://www.redfin.com/WA/Seattle/626-N-143rd-St-98133/home/102397,NWMLS as Distributed by MLS Grid,2275392,N,Y,47.7324819,-122.3506393
MLS Listing,,Condo/Co-op,530 Broadway E #121,Seattle,WA,98102,649950,1,1.5,Broadway,913,,2007,37,712,727,Active,,,https://www.redfin.com/WA/Seattle/530-Broadway-E-98102/unit-121/home/21616765,NWMLS as Distributed by MLS Grid,2276005,N,Y,47.623758,-122.3207688
MLS Listing,,Single Family Residential,8009 S Lakeridge Dr,Seattle,WA,98178,874999,4,2.0,Seattle,2420,7021,1953,38,362,,Active,,,https://www.redfin.com/WA/Seattle/8009-S-Lakeridge-Dr-98178/home/199211,NWMLS as Distributed by MLS Grid,2273416,N,Y,47.5033362,-122.2322988
MLS Listing,,Single Family Residential,5919 A 24th Ave S,Seattle,WA,98108,1189000,5,3.5,Columbia City,2840,7223,2014,38,419,,Active,,,https://www.redfin.com/WA/Seattle/5919-A-24th-Ave-S-98108/home/144420722,NWMLS as Distributed by MLS Grid,2276104,N,Y,47.5494261,-122.3024088
MLS Listing,,Condo/Co-op,2801 1st Ave #508,Seattle,WA,98121,455000,1,1.0,Belltown,702,,2001,38,648,593,Active,,,https://www.redfin.com/WA/Seattle/2801-1st-Ave-98121/unit-508/home/16639,NWMLS as Distributed by MLS Grid,2275376,N,Y,47.6163521,-122.3521048
MLS Listing,,Single Family Residential,6502 34th Ave NW,Seattle,WA,98117,1849000,3,2.0,Sunset Hill,2879,5050,1927,39,642,,Active,,,https://www.redfin.com/WA/Seattle/6502-34th-Ave-NW-98117/home/290395,NWMLS as Distributed by MLS Grid,2275735,N,Y,47.6759528,-122.4007353
MLS Listing,,Townhouse,3604 S Charlestown St,Seattle,WA,98144,675000,3,2.0,Columbia City,1410,1202,2015,39,479,,Active,,,https://www.redfin.com/WA/Seattle/3604-S-Charlestown-St-98144/home/69357068,NWMLS as Distributed by MLS Grid,2275375,N,Y,47.5699253,-122.2879397
MLS Listing,,Condo/Co-op,1306 Queen Anne Ave N #12,Seattle,WA,98109,425000,1,1.0,Queen Anne,750,,1912,39,567,851,Active,,,https://www.redfin.com/WA/Seattle/1306-Queen-Anne-Ave-N-98109/unit-12/home/145590690,NWMLS as Distributed by MLS Grid,2275286,N,Y,47.630699,-122.356386
MLS Listing,,Condo/Co-op,555 Prospect St #5,Seattle,WA,98109,575000,2,2.0,Queen Anne,1237,,1979,40,465,340,Active,,,https://www.redfin.com/WA/Seattle/555-Prospect-St-98109/unit-5/home/17327,NWMLS as Distributed by MLS Grid,2271222,N,Y,47.6287794,-122.3459043
MLS Listing,,Condo/Co-op,1504 Aurora Ave N #502,Seattle,WA,98109,449000,1,1.0,Westlake,622,,1991,45,722,601,Active,,,https://www.redfin.com/WA/Seattle/1504-Aurora-Ave-N-98109/unit-502/home/190499187,NWMLS as Distributed by MLS Grid,2271436,N,Y,47.6328135,-122.3430818
MLS Listing,,Condo/Co-op,2721 1st Ave #205,Seattle,WA,98121,539950,2,1.0,Belltown,893,,2005,46,605,834,Active,,,https://www.redfin.com/WA/Seattle/2721-1st-Ave-98121/unit-205/home/2086048,NWMLS as Distributed by MLS Grid,2267058,N,Y,47.6162016,-122.3515525
MLS Listing,,Single Family Residential,9214 22nd Ave SW,Seattle,WA,98106,629000,2,2.0,West Seattle,1000,5680,1942,46,629,,Active,,,https://www.redfin.com/WA/Seattle/9214-22nd-Ave-SW-98106/home/473051,NWMLS as Distributed by MLS Grid,2271894,N,Y,47.5205431,-122.3613156
MLS Listing,,Single Family Residential,11418 60th Ave S,Seattle,WA,98178,725000,3,3.0,Campbell Hill,2460,6001,1966,47,295,,Active,,,https://www.redfin.com/WA/Seattle/11418-60th-Ave-S-98178/home/195375,NWMLS as Distributed by MLS Grid,2267643,N,Y,47.5002863,-122.2579739
MLS Listing,,Condo/Co-op,903 N 130th St #116,Seattle,WA,98133,315000,1,1.0,Bitter Lake,619,,1989,50,509,353,Active,,,https://www.redfin.com/WA/Seattle/903-N-130th-St-98133/unit-116/home/31085,NWMLS as Distributed by MLS Grid,2268948,N,Y,47.722935866,-122.3478416
MLS Listing,,Condo/Co-op,212 Aloha St #101,Seattle,WA,98109,340000,1,1.0,Queen Anne,780,,1947,52,436,358,Active,,,https://www.redfin.com/WA/Seattle/212-Aloha-St-98109/unit-101/home/191541075,NWMLS as Distributed by MLS Grid,2270635,N,Y,47.6272876,-122.352059
MLS Listing,,Single Family Residential,9009 20th Ave NE,Seattle,WA,98115,999900,4,2.0,Northgate,2000,6500,1946,53,500,,Active,,,https://www.redfin.com/WA/Seattle/9009-20th-Ave-NE-98115/home/106785,NWMLS as Distributed by MLS Grid,2268618,N,Y,47.6942759,-122.3070855
MLS Listing,,Single Family Residential,7550 Ravenna Ave NE,Seattle,WA,98115,1069000,3,2.0,Ravenna,1830,6120,1940,53,584,,Active,,,https://www.redfin.com/WA/Seattle/7550-Ravenna-Ave-NE-98115/home/310880,NWMLS as Distributed by MLS Grid,2267656,N,Y,47.6845465,-122.3037921
MLS Listing,,Townhouse,10714 Glen Acres Dr S,Seattle,WA,98168,630000,4,4.0,Boulevard Park,2492,,1970,53,253,1287,Active,,,https://www.redfin.com/WA/Seattle/10714-Glen-Acres-Dr-S-98168/home/103958846,NWMLS as Distributed by MLS Grid,2268217,N,Y,47.5084734,-122.3203247
MLS Listing,,Condo/Co-op,425 23rd Ave S Unit A109,Seattle,WA,98144,340000,1,1.0,Seattle,596,,2005,53,570,383,Active,,,https://www.redfin.com/WA/Seattle/425-23rd-Ave-S-98144/unit-A109/home/2091148,NWMLS as Distributed by MLS Grid,2268753,N,Y,47.5982517,-122.302551
MLS Listing,,Single Family Residential,3233 17th Ave S Unit A,Seattle,WA,98144,593000,2,2.5,N Beacon Hill,840,,2022,53,706,312,Active,,,https://www.redfin.com/WA/Seattle/3233-17th-Ave-S-98144/unit-A/home/181370539,NWMLS as Distributed by MLS Grid,2267191,N,Y,47.5741635,-122.3115348
MLS Listing,,Condo/Co-op,3816 11th Ave W #111,Seattle,WA,98119,435000,2,1.0,Queen Anne,977,,1965,54,445,534,Active,,,https://www.redfin.com/WA/Seattle/3816-11th-Ave-W-98119/unit-111/home/57271,NWMLS as Distributed by MLS Grid,2266913,N,Y,47.6538391,-122.370569
MLS Listing,,Single Family Residential,6455 S 118th St,Seattle,WA,98178,685000,3,2.5,Campbell Hill,1540,6632,1959,56,445,,Active,,,https://www.redfin.com/WA/Seattle/6455-S-118th-St-98178/home/196590,NWMLS as Distributed by MLS Grid,2267271,N,Y,47.4972671,-122.2520096
MLS Listing,,Townhouse,6706 Corson Ave S Unit B,Seattle,WA,98108,585000,2,2.0,Georgetown,1090,1974,2008,59,537,,Active,,,https://www.redfin.com/WA/Seattle/6706-Corson-Ave-S-98108/unit-B/home/18658061,NWMLS as Distributed by MLS Grid,2266658,N,Y,47.5424424,-122.3228565
MLS Listing,,Single Family Residential,3410 61st Ave SW,Seattle,WA,98116,1270000,3,3.0,Alki,2480,4800,1911,60,512,,Active,,,https://www.redfin.com/WA/Seattle/3410-61st-Ave-SW-98116/home/151636,NWMLS as Distributed by MLS Grid,2265300,N,Y,47.5737565,-122.4105048
MLS Listing,,Condo/Co-op,12 Ward St Unit A301,Seattle,WA,98109,624900,2,1.0,Queen Anne,774,,1990,60,807,565,Active,,,https://www.redfin.com/WA/Seattle/12-Ward-St-98109/unit-A301/home/10613,NWMLS as Distributed by MLS Grid,2262021,N,Y,47.6282969,-122.3558759
MLS Listing,,Single Family Residential,4311 NE 55th St,Seattle,WA,98105,799900,2,1.0,Bryant,830,3942,1946,62,964,,Active,September-21-2024 11:00 AM,September-21-2024 01:00 PM,https://www.redfin.com/WA/Seattle/4311-NE-55th-St-98105/home/313481,NWMLS as Distributed by MLS Grid,2262258,N,Y,47.6684581,-122.2815206
MLS Listing,,Single Family Residential,8620 Wabash Ave S,Seattle,WA,98118,465000,2,1.0,Rainier Beach,950,3000,1906,62,489,,Active,,,https://www.redfin.com/WA/Seattle/8620-Wabash-Ave-S-98118/home/174759,NWMLS as Distributed by MLS Grid,2265703,N,Y,47.5265336,-122.2656351
MLS Listing,,Condo/Co-op,2721 1st Ave #1007,Seattle,WA,98121,810000,2,2.0,Belltown,1117,,2005,63,725,1156,Active,,,https://www.redfin.com/WA/Seattle/2721-1st-Ave-98121/unit-1007/home/2072343,NWMLS as Distributed by MLS Grid,2265404,N,Y,47.6162016,-122.3515525
MLS Listing,,Condo/Co-op,3717 Beach Dr SW #319,Seattle,WA,98116,650000,2,1.5,Alki,1080,,1968,63,602,1221,Active,,,https://www.redfin.com/WA/Seattle/3717-Beach-Dr-SW-98116/unit-319/home/52655,NWMLS as Distributed by MLS Grid,2265110,N,Y,47.5705734,-122.411627
MLS Listing,,Condo/Co-op,626 4th Ave W #104,Seattle,WA,98119,336000,1,1.0,Queen Anne,553,,1996,63,608,582,Active,,,https://www.redfin.com/WA/Seattle/626-4th-Ave-W-98119/unit-104/home/12091096,NWMLS as Distributed by MLS Grid,2265097,N,Y,47.6254273,-122.3616011
MLS Listing,,Condo/Co-op,1808 Minor Ave #500,Seattle,WA,98101,360000,1,1.0,Denny Triangle,310,,2020,66,1161,352,Active,,,https://www.redfin.com/WA/Seattle/1808-Minor-Ave-98101/unit-500/home/171367036,NWMLS as Distributed by MLS Grid,2264412,N,Y,47.61699,-122.3305817
MLS Listing,,Townhouse,5915 California Ave SW Unit B,Seattle,WA,98136,700000,3,2.0,Seaview,1209,570,2020,66,579,,Active,,,https://www.redfin.com/WA/Seattle/5915-California-Ave-SW-98136/unit-B/home/175632480,NWMLS as Distributed by MLS Grid,2262465,N,Y,47.5496618,-122.3875652
MLS Listing,,Single Family Residential,2822 4th Ave W,Seattle,WA,98119,1299000,4,3.5,Queen Anne,2400,4762,1986,66,541,,Active,,,https://www.redfin.com/WA/Seattle/2822-4th-Ave-W-98119/home/131083,NWMLS as Distributed by MLS Grid,2258598,N,Y,47.6456559,-122.3619827
MLS Listing,,Condo/Co-op,3104 Western Ave #622,Seattle,WA,98121,390000,1,1.0,Belltown,506,,2008,67,771,449,Active,,,https://www.redfin.com/WA/Seattle/3104-Western-Ave-98121/unit-622/home/17381452,NWMLS as Distributed by MLS Grid,2256895,N,Y,47.6181716,-122.3562088
MLS Listing,,Condo/Co-op,2125 1st Ave #2203,Seattle,WA,98121,2754000,3,3.0,Belltown,2295,,1981,67,1200,3075,Active,,,https://www.redfin.com/WA/Seattle/2125-1st-Ave-98121/unit-2203/home/11538,NWMLS as Distributed by MLS Grid,2263965,N,Y,47.6121916,-122.3451946
MLS Listing,,Condo/Co-op,10455 Des Moines Memorial Dr S #304,Seattle,WA,98168,270000,2,2.0,Riverton,999,,1969,69,270,599,Active,,,https://www.redfin.com/WA/Seattle/10455-Des-Moines-Memorial-Dr-S-98168/unit-304/home/108280163,NWMLS as Distributed by MLS Grid,2261043,N,Y,47.5085472,-122.3057541
MLS Listing,,Single Family Residential,2732 S Andover St,Seattle,WA,98108,595000,2,1.5,Columbia City,1240,1145,2018,69,480,,Active,,,https://www.redfin.com/WA/Seattle/2732-S-Andover-St-98108/home/308909,NWMLS as Distributed by MLS Grid,2262490,N,Y,47.5686199,-122.2974152
MLS Listing,,Condo/Co-op,500 Elliott Ave W #205,Seattle,WA,98119,304900,0,1.0,Queen Anne,422,,2000,75,723,291,Active,,,https://www.redfin.com/WA/Seattle/500-Elliott-Ave-W-98119/unit-205/home/2117010,NWMLS as Distributed by MLS Grid,2259889,N,Y,47.6238088,-122.3641588
MLS Listing,,Condo/Co-op,150 Melrose Ave E #101,Seattle,WA,98102,515000,2,1.5,Capitol Hill,1058,,1978,77,487,393,Active,,,https://www.redfin.com/WA/Seattle/150-Melrose-Ave-E-98102/unit-101/home/190268808,NWMLS as Distributed by MLS Grid,2255502,N,Y,47.619913,-122.3275375
MLS Listing,,Single Family Residential,12337 Sand Point Way NE,Seattle,WA,98125,860000,3,3.0,Cedar Park,2150,3962,1949,79,400,,Active,,,https://www.redfin.com/WA/Seattle/12337-Sand-Point-Way-NE-98125/home/110778,NWMLS as Distributed by MLS Grid,2259072,N,Y,47.7183367,-122.2847772
MLS Listing,,Single Family Residential,1940 8th Ave W,Seattle,WA,98119,1649000,4,3.0,Queen Anne,3170,3600,1906,80,520,,Active,,,https://www.redfin.com/WA/Seattle/1940-8th-Ave-W-98119/home/132953,NWMLS as Distributed by MLS Grid,2250243,N,Y,47.6371253,-122.3673346
MLS Listing,,Condo/Co-op,1000 Aurora Ave N #311,Seattle,WA,98109,399950,1,1.0,Seattle,762,,1999,80,525,656,Active,,,https://www.redfin.com/WA/Seattle/1000-Aurora-Ave-N-98109/unit-311/home/190499379,NWMLS as Distributed by MLS Grid,2251823,N,Y,47.6282339,-122.3431942
MLS Listing,,Condo/Co-op,107 20th Ave #307,Seattle,WA,98122,378900,1,1.0,Central Area,609,,2003,80,622,314,Active,,,https://www.redfin.com/WA/Seattle/107-20th-Ave-98122/unit-307/home/51764,NWMLS as Distributed by MLS Grid,2256889,N,Y,47.601841,-122.3068434
MLS Listing,,Condo/Co-op,756 Broadway E #405,Seattle,WA,98102,284000,0,1.0,Capitol Hill,380,,1929,80,747,371,Active,,,https://www.redfin.com/WA/Seattle/756-Broadway-E-98102/unit-405/home/57374378,NWMLS as Distributed by MLS Grid,2258046,N,Y,47.6266931,-122.3209124
MLS Listing,,Condo/Co-op,2621 2nd Ave #307,Seattle,WA,98121,279900,0,1.0,Belltown,550,,1980,83,509,388,Active,,,https://www.redfin.com/WA/Seattle/2621-2nd-Ave-98121/unit-307/home/43434,NWMLS as Distributed by MLS Grid,2253800,N,Y,47.616199,-122.3496287
MLS Listing,,Single Family Residential,11451 71st Pl S,Seattle,WA,98178,612000,2,1.0,Seattle,1620,6600,1945,84,378,,Active,,,https://www.redfin.com/WA/Seattle/11451-71st-Pl-S-98178/home/175660,NWMLS as Distributed by MLS Grid,2255496,N,Y,47.5003097,-122.2460514
MLS Listing,,Condo/Co-op,124 Warren Ave N #111,Seattle,WA,98109,445000,1,1.0,Queen Anne,748,,1930,88,595,781,Active,,,https://www.redfin.com/WA/Seattle/124-Warren-Ave-N-98109/unit-111/home/12092096,NWMLS as Distributed by MLS Grid,2249928,N,Y,47.6193452,-122.353793
MLS Listing,,Townhouse,10506 Whitman Ave N Unit A,Seattle,WA,98133,579900,3,2.5,Seattle,1358,1163,2007,88,427,,Active,,,https://www.redfin.com/WA/Seattle/10506-Whitman-Ave-N-98133/unit-A/home/22696941,NWMLS as Distributed by MLS Grid,2254722,N,Y,47.7052927,-122.3455919
MLS Listing,,Condo/Co-op,819 Virginia St #1010,Seattle,WA,98101,749888,2,2.0,Belltown,1315,,2007,90,570,1363,Active,,,https://www.redfin.com/WA/Seattle/819-Virginia-St-98101/unit-1010/home/12307055,NWMLS as Distributed by MLS Grid,2250048,N,Y,47.6160389,-122.3357053
MLS Listing,,Townhouse,8817 Midvale Ave N Unit D,Seattle,WA,98103,725000,3,2.0,Licton Springs,1558,1315,2019,94,465,,Active,,,https://www.redfin.com/WA/Seattle/8817-Midvale-Ave-N-98103/unit-D/home/171862933,NWMLS as Distributed by MLS Grid,2250133,N,Y,47.6929907,-122.3427417
MLS Listing,,Condo/Co-op,1105 Spring St #810,Seattle,WA,98104,349000,1,1.0,First Hill,630,,1950,95,554,753,Active,,,https://www.redfin.com/WA/Seattle/1105-Spring-St-98104/unit-810/home/190504088,NWMLS as Distributed by MLS Grid,2240743,N,Y,47.6099647,-122.3252977
MLS Listing,,Single Family Residential,6234 Flora Ave S,Seattle,WA,98108,1325000,4,2.5,Georgetown,2712,4000,2019,101,489,,Active,,,https://www.redfin.com/WA/Seattle/6234-Flora-Ave-S-98108/home/145709055,NWMLS as Distributed by MLS Grid,2247278,N,Y,47.5465606,-122.3189299
MLS Listing,,Condo/Co-op,2929 1st Ave #719,Seattle,WA,98121,720000,2,2.0,Belltown,1114,,2000,102,646,1389,Active,,,https://www.redfin.com/WA/Seattle/2929-1st-Ave-98121/unit-719/home/64625,NWMLS as Distributed by MLS Grid,2248417,N,Y,47.617337,-122.3535943
MLS Listing,,Townhouse,1133 A N 92nd St,Seattle,WA,98103,574900,2,1.5,Northgate,1000,1026,2003,104,575,,Active,,,https://www.redfin.com/WA/Seattle/1133-N-92nd-St-98103/unit-A/home/104906,NWMLS as Distributed by MLS Grid,2244355,N,Y,47.6954717,-122.3431076
MLS Listing,,Condo/Co-op,506 E Howell St Unit E212,Seattle,WA,98122,495000,2,1.0,Capitol Hill,795,,1992,108,623,637,Active,,,https://www.redfin.com/WA/Seattle/506-E-Howell-St-98122/unit-E212/home/25834,NWMLS as Distributed by MLS Grid,2243622,N,Y,47.6180456,-122.3249889
MLS Listing,,Single Family Residential,3932 S Lucile St,Seattle,WA,98118,875000,4,2.5,Columbia City,1760,3028,2005,109,497,,Active,,,https://www.redfin.com/WA/Seattle/3932-S-Lucile-St-98118/home/2079685,NWMLS as Distributed by MLS Grid,2243013,N,Y,47.5529059,-122.28209
MLS Listing,,Condo/Co-op,9500 Rainier Ave S #603,Seattle,WA,98118,399000,2,1.0,Rainier Beach,904,,1967,109,441,742,Active,,,https://www.redfin.com/WA/Seattle/9500-Rainier-Ave-S-98118/unit-603/home/51919,NWMLS as Distributed by MLS Grid,2240521,N,Y,47.5212944,-122.2612784
MLS Listing,,Condo/Co-op,3104 Western Ave #419,Seattle,WA,98121,680000,2,2.0,Belltown,1012,,2008,115,672,838,Active,,,https://www.redfin.com/WA/Seattle/3104-Western-Ave-98121/unit-419/home/17382846,NWMLS as Distributed by MLS Grid,2242208,N,Y,47.6181716,-122.3562088
MLS Listing,,Townhouse,6018 Sand Point Way NE,Seattle,WA,98115,769000,3,2.0,Windermere,1598,729,2020,118,481,,Active,,,https://www.redfin.com/WA/Seattle/6018-Sand-Point-Way-NE-98115/home/173923953,NWMLS as Distributed by MLS Grid,2231715,N,Y,47.6725572,-122.2671768
MLS Listing,,Condo/Co-op,308 E Republican St #406,Seattle,WA,98102,355000,1,1.0,Capitol Hill,664,,1961,127,535,756,Active,,,https://www.redfin.com/WA/Seattle/308-E-Republican-St-98102/unit-406/home/52598086,NWMLS as Distributed by MLS Grid,2217266,N,Y,47.6233529,-122.3275755
MLS Listing,,Single Family Residential,5019 57th Ave S,Seattle,WA,98118,1620000,4,3.0,Seward Park,3260,9360,1956,130,497,,Active,,,https://www.redfin.com/WA/Seattle/5019-57th-Ave-S-98118/home/490398,NWMLS as Distributed by MLS Grid,2234266,N,Y,47.5564463,-122.264003
MLS Listing,,Condo/Co-op,6110 24th Ave NW #302,Seattle,WA,98107,549000,2,2.0,Ballard,836,,1968,131,657,492,Active,,,https://www.redfin.com/WA/Seattle/6110-24th-Ave-NW-98107/unit-302/home/9447,NWMLS as Distributed by MLS Grid,2233756,N,Y,47.6736113,-122.3871943
MLS Listing,,Condo/Co-op,5907 40th Ave SW Unit A,Seattle,WA,98136,639000,2,2.5,West Seattle,1556,4400,2005,143,411,464,Active,,,https://www.redfin.com/WA/Seattle/5907-40th-Ave-SW-98136/unit-A/home/2060313,NWMLS as Distributed by MLS Grid,2227407,N,Y,47.5500099,-122.3835176
MLS Listing,,Condo/Co-op,6200 24th Ave NW #204,Seattle,WA,98107,375000,1,1.0,Ballard,687,,1977,151,546,351,Active,,,https://www.redfin.com/WA/Seattle/6200-24th-Ave-NW-98107/unit-204/home/34767,NWMLS as Distributed by MLS Grid,2224243,N,Y,47.674065,-122.387273
MLS Listing,,Townhouse,3829 23rd Ave W Unit B,Seattle,WA,98199,875000,3,2.5,Magnolia,1620,1575,2017,157,540,,Active,,,https://www.redfin.com/WA/Seattle/3829-23rd-Ave-W-98199/unit-B/home/106725810,NWMLS as Distributed by MLS Grid,2219670,N,Y,47.6548234,-122.3865083
MLS Listing,,Condo/Co-op,3710 25th Pl W #302,Seattle,WA,98199,299000,1,1.0,Magnolia,794,,1977,161,377,337,Active,,,https://www.redfin.com/WA/Seattle/3710-25th-Pl-W-98199/unit-302/home/42288,NWMLS as Distributed by MLS Grid,2204791,N,Y,47.6539394,-122.3888379
MLS Listing,,Condo/Co-op,583 Battery St Unit 707N,Seattle,WA,98121,895000,2,2.0,Denny Triangle,1231,,2016,178,727,1379,Active,,,https://www.redfin.com/WA/Seattle/583-Battery-St-98121/unit-707N/home/109003367,NWMLS as Distributed by MLS Grid,2213530,N,Y,47.6171642,-122.3437077
MLS Listing,,Condo/Co-op,76 Cedar St #809,Seattle,WA,98121,398000,1,1.0,Belltown,588,,2008,193,677,515,Active,,,https://www.redfin.com/WA/Seattle/76-Cedar-St-98121/unit-809/home/17383362,NWMLS as Distributed by MLS Grid,2202245,N,Y,47.6154974,-122.3515229
MLS Listing,,Single Family Residential,645 NW 137th St,Seattle,WA,98177,5420000,5,5.0,Broadview,5820,109335,1914,258,931,,Active,,,https://www.redfin.com/WA/Seattle/645-NW-137th-St-98177/home/291052,NWMLS as Distributed by MLS Grid,2182403,N,Y,47.7282634,-122.3656806
MLS Listing,,Condo/Co-op,800 Columbia St #1610,Seattle,WA,98104,420000,1,1.0,First Hill,514,,2023,1,817,541,Active,,,https://www.redfin.com/WA/Seattle/800-Columbia-St-98104/unit-1610/home/192582213,NWMLS as Distributed by MLS Grid,2291621,N,Y,47.6066658,-122.3271698
MLS Listing,,Condo/Co-op,1708 Melrose Ave #401,Seattle,WA,98122,498750,1,1.0,Broadway,818,,1994,1,610,816,Active,,,https://www.redfin.com/WA/Seattle/1708-Melrose-Ave-98122/unit-401/home/55446,NWMLS as Distributed by MLS Grid,2291241,N,Y,47.6173746,-122.3276148
MLS Listing,,Townhouse,1137 25th Ave,Seattle,WA,98122,1050000,3,2.5,Central Area,2280,1069,2008,1,461,125,Active,,,https://www.redfin.com/WA/Seattle/1137-25th-Ave-98122/home/2070466,NWMLS as Distributed by MLS Grid,2291209,N,Y,47.6126683,-122.3003869
MLS Listing,,Condo/Co-op,800 Columbia St #1603,Seattle,WA,98104,450000,1,1.0,First Hill,538,,2023,1,836,566,Active,,,https://www.redfin.com/WA/Seattle/800-Columbia-St-98104/unit-1603/home/192582119,NWMLS as Distributed by MLS Grid,2291611,N,Y,47.6066658,-122.3271698
MLS Listing,,Single Family Residential,6756 23rd Ave NW,Seattle,WA,98117,850000,3,1.0,Ballard,1250,3825,1900,1,680,,Active,September-20-2024 04:00 PM,September-20-2024 06:00 PM,https://www.redfin.com/WA/Seattle/6756-23rd-Ave-NW-98117/home/165163,NWMLS as Distributed by MLS Grid,2283320,N,Y,47.6793772,-122.3851269
MLS Listing,,Condo/Co-op,2960 Eastlake Ave E #110,Seattle,WA,98102,525000,1,1.0,Eastlake,801,,2008,1,655,367,Active,,,https://www.redfin.com/WA/Seattle/2960-Eastlake-Ave-E-98102/unit-110/home/21882944,NWMLS as Distributed by MLS Grid,2291593,N,Y,47.648332548,-122.3232847
MLS Listing,,Condo/Co-op,2030 Western Ave #601,Seattle,WA,98121,435000,1,1.0,Downtown,657,,1989,1,662,665,Active,,,https://www.redfin.com/WA/Seattle/2030-Western-Ave-98121/unit-601/home/19194,NWMLS as Distributed by MLS Grid,2289624,N,Y,47.6112139,-122.3442471
MLS Listing,,Condo/Co-op,1601 N 45th St #210,Seattle,WA,98103,439800,1,1.0,Wallingford,584,,2018,1,753,273,Active,,,https://www.redfin.com/WA/Seattle/1601-N-45th-St-98103/unit-210/home/191514542,NWMLS as Distributed by MLS Grid,2291128,N,Y,47.6612464,-122.338408
MLS Listing,,Condo/Co-op,909 5th Ave #1504,Seattle,WA,98164,739000,1,1.5,Downtown,1208,9525,2008,1,612,1511,Active,,,https://www.redfin.com/WA/Seattle/909-5th-Ave-98164/unit-1504/home/17381968,NWMLS as Distributed by MLS Grid,2290927,N,Y,47.6062753,-122.332007
MLS Listing,,Condo/Co-op,110 SW 116th St Unit A13,Seattle,WA,98146,219997,1,1.0,Burien,672,,1982,1,327,540,Active,,,https://www.redfin.com/WA/Seattle/110-SW-116th-St-98146/unit-A13/home/37402,NWMLS as Distributed by MLS Grid,2291239,N,Y,47.4999543,-122.3340828
MLS Listing,,Single Family Residential,7011 42nd Ave NE,Seattle,WA,98115,1150000,4,2.0,View Ridge,1990,5618,1953,1,578,,Active,,,https://www.redfin.com/WA/Seattle/7011-42nd-Ave-NE-98115/home/315219,NWMLS as Distributed by MLS Grid,2290275,N,Y,47.6798626,-122.2842611
MLS Listing,,Single Family Residential,4425 NE 65th St,Seattle,WA,98115,979950,3,2.0,Hawthorne Hills,1600,6023,1947,1,612,,Active,,,https://www.redfin.com/WA/Seattle/4425-NE-65th-St-98115/home/314271,NWMLS as Distributed by MLS Grid,2286908,N,Y,47.6755894,-122.2798161
MLS Listing,,Condo/Co-op,1120 Spring St #1301,Seattle,WA,98104,725000,2,2.0,First Hill,1065,,1982,1,681,804,Active,,,https://www.redfin.com/WA/Seattle/1120-Spring-St-98122/unit-1301/home/190504169,NWMLS as Distributed by MLS Grid,2290599,N,Y,47.6106035,-122.325229
MLS Listing,,Single Family Residential,7737 13th Ave SW,Seattle,WA,98106,750000,3,2.5,Highland Park,1460,6000,1999,2,514,,Active,,,https://www.redfin.com/WA/Seattle/7737-13th-Ave-SW-98106/home/474888,NWMLS as Distributed by MLS Grid,2288921,N,Y,47.5331737,-122.3520469
MLS Listing,,Townhouse,9933 14th Ave S Unit B-4,Seattle,WA,98108,759888,3,3.5,Seattle,2222,18676,2024,2,342,100,Active,,,https://www.redfin.com/WA/Seattle/9933-14th-Ave-S-98108/unit-B-4/home/192547008,NWMLS as Distributed by MLS Grid,2291033,N,Y,47.5148324,-122.3182578
MLS Listing,,Condo/Co-op,1321 Seneca St #602,Seattle,WA,98101,525000,1,1.0,First Hill,691,,2016,2,760,712,Active,,,https://www.redfin.com/WA/Seattle/1321-Seneca-St-98101/unit-602/home/113995734,NWMLS as Distributed by MLS Grid,2288576,N,Y,47.6118236,-122.3233045
MLS Listing,,Townhouse,3039 Beacon Ave S Unit A,Seattle,WA,98144,745000,3,2.0,N Beacon Hill,1330,1250,2006,2,560,,Active,,,https://www.redfin.com/WA/Seattle/3039-Beacon-Ave-S-98144/unit-A/home/18659793,NWMLS as Distributed by MLS Grid,2277753,N,Y,47.5758564,-122.3099429
MLS Listing,,Single Family Residential,216 SW 104th St,Seattle,WA,98146,1200000,5,4.0,Top Hat,3940,7963,1931,2,305,,Active,,,https://www.redfin.com/WA/Seattle/216-SW-104th-St-98146/home/182496,NWMLS as Distributed by MLS Grid,2290993,N,Y,47.5104928,-122.3374717
MLS Listing,,Condo/Co-op,701 17th Ave #303,Seattle,WA,98122,588000,2,2.0,Seattle,1070,18007,1981,2,550,712,Active,,,https://www.redfin.com/WA/Seattle/701-17th-Ave-98122/unit-303/home/55739,NWMLS as Distributed by MLS Grid,2290998,N,Y,47.6083277,-122.3106322
MLS Listing,,Townhouse,1621 15th Ave Unit C,Seattle,WA,98122,850000,2,2.5,Capitol Hill,1490,1328,2006,2,570,,Active,,,https://www.redfin.com/WA/Seattle/1621-15th-Ave-98122/unit-C/home/191161831,NWMLS as Distributed by MLS Grid,2290996,N,Y,47.6159596,-122.3130532
MLS Listing,,Condo/Co-op,11525 Greenwood Ave N #202,Seattle,WA,98133,419000,2,2.0,Greenwood,975,,1965,2,430,335,Active,September-20-2024 04:00 PM,September-20-2024 05:00 PM,https://www.redfin.com/WA/Seattle/11525-Greenwood-Ave-N-98133/unit-202/home/12318435,NWMLS as Distributed by MLS Grid,2285238,N,Y,47.7131283,-122.3559959
MLS Listing,,Townhouse,858 NE 92nd St,Seattle,WA,98115,575000,4,1.5,Maple Leaf,1078,1136,2007,2,533,,Active,,,https://www.redfin.com/WA/Seattle/858-NE-92nd-St-98115/home/12449183,NWMLS as Distributed by MLS Grid,2289340,N,Y,47.6959438,-122.3178575
MLS Listing,,Condo/Co-op,1550 Eastlake Ave E #504,Seattle,WA,98102,595000,2,2.0,Eastlake,1116,,1997,2,533,802,Active,,,https://www.redfin.com/WA/Seattle/1550-Eastlake-Ave-E-98102/unit-504/home/2074848,NWMLS as Distributed by MLS Grid,2289524,N,Y,47.6336416,-122.325335
MLS Listing,,Single Family Residential,5519 NE Windermere Rd,Seattle,WA,98105,2488000,3,3.0,Windermere,3550,16050,1955,3,701,,Active,,,https://www.redfin.com/WA/Seattle/5519-NE-Windermere-Rd-98105/home/121340,NWMLS as Distributed by MLS Grid,2288526,N,Y,47.6677055,-122.2682205
MLS Listing,,Single Family Residential,7713 25th Ave NE,Seattle,WA,98115,779000,2,2.5,Wedgwood,1016,1159,2024,3,767,0,Active,,,https://www.redfin.com/WA/Seattle/7713-25th-Ave-NE-98115/home/192548627,NWMLS as Distributed by MLS Grid,2290494,N,Y,47.6852808,-122.3007979
MLS Listing,,Single Family Residential,7715 25th Ave NE,Seattle,WA,98115,2050000,4,3.5,Wedgwood,2940,2548,2024,3,697,0,Active,,,https://www.redfin.com/WA/Seattle/7715-25th-Ave-NE-98115/home/309614,NWMLS as Distributed by MLS Grid,2290492,N,Y,47.6853343,-122.3011682
MLS Listing,,Single Family Residential,3602 30th Ave W,Seattle,WA,98199,1595000,4,3.0,Magnolia,2496,6000,1945,3,639,,Active,,,https://www.redfin.com/WA/Seattle/3602-30th-Ave-W-98199/home/128625,NWMLS as Distributed by MLS Grid,2288087,N,Y,47.6524414,-122.395215
MLS Listing,,Townhouse,9520 Interlake Ave N,Seattle,WA,98103,725000,2,2.0,Licton Springs,1370,1641,2024,3,529,,Active,,,https://www.redfin.com/WA/Unknown/9520-Interlake-Ave-N-Unknown/home/191422286,NWMLS as Distributed by MLS Grid,2290680,N,Y,47.698479,-122.340491
MLS Listing,,Multi-Family (2-4 Unit),2337 N 59th St,Seattle,WA,98103,1250000,4,2.0,Green Lake,2400,4600,1929,3,521,,Active,,,https://www.redfin.com/WA/Seattle/2337-N-59th-St-98103/home/305790,NWMLS as Distributed by MLS Grid,2289210,N,Y,47.6713405,-122.3292927
MLS Listing,,Condo/Co-op,214 Summit Ave E #303,Seattle,WA,98102,305000,1,1.0,Capitol Hill,550,,1917,3,555,618,Active,,,https://www.redfin.com/WA/Seattle/214-Summit-Ave-E-98102/unit-303/home/175097029,NWMLS as Distributed by MLS Grid,2290774,N,Y,47.6201717,-122.3249739
MLS Listing,,Single Family Residential,6102 32nd Ave NW,Seattle,WA,98107,2695000,6,4.5,Sunset Hill,3803,5000,2024,3,709,,Active,,,https://www.redfin.com/WA/Seattle/6102-32nd-Ave-NW-98107/home/162621,NWMLS as Distributed by MLS Grid,2290088,N,Y,47.6731401,-122.3981053
MLS Listing,,Condo/Co-op,737 Olive Way #2807,Seattle,WA,98101,675000,1,1.5,Downtown,834,,2009,3,809,827,Active,,,https://www.redfin.com/WA/Seattle/737-Olive-Way-98101/unit-2807/home/21882363,NWMLS as Distributed by MLS Grid,2289640,N,Y,47.6138021,-122.3344075
MLS Listing,,Townhouse,7503 25th Ave NE,Seattle,WA,98115,850000,2,2.5,Ravenna,1563,698,2018,3,544,25,Active,September-18-2024 11:00 AM,September-18-2024 01:00 PM,https://www.redfin.com/WA/Seattle/7503-25th-Ave-NE-98115/home/145282194,NWMLS as Distributed by MLS Grid,2283050,N,Y,47.6832248,-122.3009779
MLS Listing,,Single Family Residential,6655 Beveridge Pl SW,Seattle,WA,98136,1150000,4,3.0,Seaview,2560,9250,1968,3,449,,Active,,,https://www.redfin.com/WA/Seattle/6655-Beveridge-Pl-SW-98136/home/154653,NWMLS as Distributed by MLS Grid,2290459,N,Y,47.5442954,-122.3917874
MLS Listing,,Townhouse,10306 D Midvale Ave N,Seattle,WA,98133,689900,2,2.0,Northgate,1312,861,2024,3,526,,Active,September-22-2024 11:00 AM,September-22-2024 02:00 PM,https://www.redfin.com/WA/Seattle/10306-E-Midvale-Ave-N-98133/home/191416268,NWMLS as Distributed by MLS Grid,2215494,N,Y,47.7034972,-122.343006
MLS Listing,,Townhouse,3928 14th Ave S Unit B,Seattle,WA,98108,589000,3,2.0,Beacon Hill,1420,1016,2014,3,415,,Active,,,https://www.redfin.com/WA/Seattle/3928-14th-Ave-S-98108/unit-B/home/44657063,NWMLS as Distributed by MLS Grid,2288203,N,Y,47.5682005,-122.3143255
MLS Listing,,Single Family Residential,2606 40th Ave W,Seattle,WA,98199,1600000,3,2.0,Magnolia,2960,7801,1940,3,541,,Active,,,https://www.redfin.com/WA/Seattle/2606-40th-Ave-W-98199/home/126190,NWMLS as Distributed by MLS Grid,2274908,N,Y,47.6435132,-122.4080545
MLS Listing,,Single Family Residential,130 28th Ave Unit B,Seattle,WA,98122,775000,2,1.5,Leschi,1011,2185,2023,3,767,,Active,,,https://www.redfin.com/WA/Seattle/130-28th-Ave-98122/unit-B/home/192527138,NWMLS as Distributed by MLS Grid,2290764,N,Y,47.6026005,-122.2957245
MLS Listing,,Condo/Co-op,424 N 85th St #205,Seattle,WA,98103,259000,0,1.0,Greenwood,446,,2006,3,581,327,Active,,,https://www.redfin.com/WA/Seattle/424-N-85th-St-98103/unit-205/home/190380132,NWMLS as Distributed by MLS Grid,2290763,N,Y,47.6910854,-122.352891
MLS Listing,,Condo/Co-op,1017 Minor Ave #903,Seattle,WA,98104,725000,2,1.0,First Hill,1187,,1930,3,611,,Active,September-20-2024 01:00 PM,September-20-2024 03:00 PM,https://www.redfin.com/WA/Seattle/1017-Minor-Ave-98104/unit-903/home/66461,NWMLS as Distributed by MLS Grid,2287473,N,Y,47.6102164,-122.3247887
MLS Listing,,Single Family Residential,12033 Renton Ave S,Seattle,WA,98178,715000,4,2.0,Bryn Mawr,1580,6600,1944,3,453,,Active,,,https://www.redfin.com/WA/Seattle/12033-Renton-Ave-S-98178/home/195913,NWMLS as Distributed by MLS Grid,2290421,N,Y,47.4946445,-122.2411198
MLS Listing,,Single Family Residential,1012 A NE 105th St,Seattle,WA,98125,994600,4,3.0,Maple Leaf,1930,7206,1983,3,515,,Active,,,https://www.redfin.com/WA/Seattle/1012A-NE-105th-St-98125/home/144412697,NWMLS as Distributed by MLS Grid,2290643,N,Y,47.7052863,-122.3169429
MLS Listing,,Single Family Residential,2527 10th Ave W,Seattle,WA,98119,1500000,3,2.0,Queen Anne,2520,4800,1909,3,595,,Active,,,https://www.redfin.com/WA/Seattle/2527-10th-Ave-W-98119/home/131415,NWMLS as Distributed by MLS Grid,2290628,N,Y,47.6415104,-122.370381
MLS Listing,,Condo/Co-op,2423 8th Ave N #301,Seattle,WA,98109,799000,2,2.0,Queen Anne,1352,,1977,3,591,525,Active,,,https://www.redfin.com/WA/Seattle/2423-8th-Ave-N-98109/unit-301/home/12093582,NWMLS as Distributed by MLS Grid,2290724,N,Y,47.640256,-122.3433052
MLS Listing,,Townhouse,3936 B 14th Ave S,Seattle,WA,98108,620000,3,2.0,Jefferson Park,1450,1058,2013,3,428,,Active,,,https://www.redfin.com/WA/Seattle/3936-14th-Ave-S-98108/unit-B/home/44657662,NWMLS as Distributed by MLS Grid,2289725,N,Y,47.5680344,-122.3142735
MLS Listing,,Condo/Co-op,405 Prospect St #201,Seattle,WA,98109,865000,2,2.0,Queen Anne,1139,,1930,3,759,916,Active,September-17-2024 11:30 AM,September-17-2024 01:00 PM,https://www.redfin.com/WA/Seattle/405-Prospect-St-98109/unit-201/home/2092823,NWMLS as Distributed by MLS Grid,2290388,N,Y,47.6287294,-122.3485755
MLS Listing,,Single Family Residential,6759 16th Ave SW,Seattle,WA,98106,655000,3,1.0,West Seattle,1200,6763,1940,3,546,,Active,,,https://www.redfin.com/WA/Seattle/6759-16th-Ave-SW-98106/home/161691,NWMLS as Distributed by MLS Grid,2288293,N,Y,47.541102,-122.3552687
MLS Listing,,Condo/Co-op,745 Bellevue Ave E #401,Seattle,WA,98102,1650000,2,2.0,Capitol Hill,1626,,2006,3,1015,890,Active,,,https://www.redfin.com/WA/Seattle/745-Bellevue-Ave-E-98102/unit-401/home/12304555,NWMLS as Distributed by MLS Grid,2289867,N,Y,47.6264333,-122.327029
MLS Listing,,Single Family Residential,3105 E Spring St,Seattle,WA,98122,1399000,3,2.0,Madrona,2160,4400,1903,3,648,,Active,,,https://www.redfin.com/WA/Seattle/3105-E-Spring-St-98122/home/147055,NWMLS as Distributed by MLS Grid,2290679,N,Y,47.6114906,-122.2922972
MLS Listing,,Townhouse,112 27th Ave E Unit B,Seattle,WA,98112,1025000,3,2.0,Madison Valley,1660,1040,2017,3,617,,Active,,,https://www.redfin.com/WA/Seattle/112-27th-Ave-E-98112/unit-B/home/109972337,NWMLS as Distributed by MLS Grid,2290687,N,Y,47.619398,-122.29699
MLS Listing,,Townhouse,8328 16th Ave NW Unit C,Seattle,WA,98117,745000,2,2.0,Loyal Heights,1311,860,2024,3,568,,Active,,,https://www.redfin.com/WA/Seattle/8328-16th-Ave-NW-98117/unit-C/home/192544098,NWMLS as Distributed by MLS Grid,2290681,N,Y,47.6895694,-122.3772852
MLS Listing,,Condo/Co-op,2000 3rd Ave #1804,Seattle,WA,98121,1209000,2,2.0,Seattle,686,,2024,3,1762,655,Active,,,https://www.redfin.com/WA/Seattle/2000-3rd-Ave-98121/unit-1804/home/192544097,NWMLS as Distributed by MLS Grid,2287824,N,Y,47.6125423,-122.3408974
MLS Listing,,Condo/Co-op,1511 14th Ave S #103,Seattle,WA,98144,499500,2,1.5,Beacon Hill,841,7253,1995,3,594,469,Active,,,https://www.redfin.com/WA/Seattle/1511-14th-Ave-S-98144/unit-103/home/38640,NWMLS as Distributed by MLS Grid,2289341,N,Y,47.5895515,-122.3151963
MLS Listing,,Single Family Residential,10714 Linden Ave N,Seattle,WA,98133,1599888,5,3.0,Bitter Lake,3028,7442,2024,3,528,,Active,,,https://www.redfin.com/WA/Seattle/10714-Linden-Ave-N-98133/home/98889,NWMLS as Distributed by MLS Grid,2290524,N,Y,47.7069573,-122.3471151
MLS Listing,,Single Family Residential,944 N 102nd St,Seattle,WA,98133,699950,2,1.0,Greenwood,880,3844,1946,3,795,,Active,,,https://www.redfin.com/WA/Seattle/944-N-102nd-St-98133/home/98894,NWMLS as Distributed by MLS Grid,2290074,N,Y,47.7030732,-122.3455638
MLS Listing,,Single Family Residential,3239 61st Ave SW Unit C,Seattle,WA,98116,850000,3,2.0,Alki,1101,1302,2023,3,772,25,Active,,,https://www.redfin.com/WA/Seattle/3239-61st-Ave-SW-98116/unit-C/home/185969218,NWMLS as Distributed by MLS Grid,2290695,N,Y,47.5747182,-122.4110415
MLS Listing,,Condo/Co-op,1414 12th Ave #204,Seattle,WA,98122,320000,0,1.0,Capitol Hill,488,,2007,3,656,625,Active,,,https://www.redfin.com/WA/Seattle/1414-12th-Ave-98122/unit-204/home/17382890,NWMLS as Distributed by MLS Grid,2290337,N,Y,47.6135951,-122.3163913
MLS Listing,,Single Family Residential,6854 42nd Ave NE,Seattle,WA,98115,1050000,2,2.0,View Ridge,1331,5415,1953,3,789,,Active,,,https://www.redfin.com/WA/Seattle/6854-42nd-Ave-NE-98115/home/318670,NWMLS as Distributed by MLS Grid,2280411,N,Y,47.6791932,-122.2834974
MLS Listing,,Condo/Co-op,2510 W Manor Pl #211,Seattle,WA,98199,379500,1,1.0,Magnolia,845,,1974,3,449,553,Active,September-17-2024 11:00 AM,September-17-2024 01:00 PM,https://www.redfin.com/WA/Seattle/2510-W-Manor-Pl-98199/unit-211/home/5945,NWMLS as Distributed by MLS Grid,2287944,N,Y,47.6536751,-122.389771
MLS Listing,,Townhouse,9480 Olson Pl SW Unit E,Seattle,WA,98106,399950,2,1.5,White Center,1470,8912,1998,3,272,277,Active,,,https://www.redfin.com/WA/Seattle/9480-Olson-PARK-SW-98106/unit-E/home/191441460,NWMLS as Distributed by MLS Grid,2290678,N,Y,47.517638,-122.339499
MLS Listing,,Single Family Residential,4243 NE 107th St,Seattle,WA,98125,1115000,5,3.0,Matthews Beach,1900,7200,1950,3,587,,Active,,,https://www.redfin.com/WA/Seattle/4243-NE-107th-St-98125/home/113073,NWMLS as Distributed by MLS Grid,2290565,N,Y,47.7067043,-122.2798807
MLS Listing,,Townhouse,6716 14th Ave NW Unit B,Seattle,WA,98117,899000,3,3.5,Ballard,1551,1375,2003,3,580,,Active,,,https://www.redfin.com/WA/Seattle/6716-14th-Ave-NW-98117/unit-B/home/2068783,NWMLS as Distributed by MLS Grid,2290452,N,Y,47.6783704,-122.3738388
MLS Listing,,Townhouse,1750 12th Ave S,Seattle,WA,98144,629000,3,2.5,N Beacon Hill,1024,667,2004,3,614,,Active,,,https://www.redfin.com/WA/Seattle/1750-12th-Ave-S-98144/home/2072010,NWMLS as Distributed by MLS Grid,2290633,N,Y,47.5871004,-122.3171652
MLS Listing,,Single Family Residential,2714 44th Ave SW,Seattle,WA,98116,1350000,4,3.0,Admiral,2370,5650,1920,3,570,,Active,,,https://www.redfin.com/WA/Seattle/2714-44th-Ave-SW-98116/home/330905,NWMLS as Distributed by MLS Grid,2289969,N,Y,47.5788328,-122.3876348
MLS Listing,,Single Family Residential,3206 NE 60th St,Seattle,WA,98115,749000,1,1.0,Bryant,1000,3000,1918,3,749,,Active,,,https://www.redfin.com/WA/Seattle/3206-NE-60th-St-98115/home/312218,NWMLS as Distributed by MLS Grid,2289846,N,Y,47.6723574,-122.2928357
MLS Listing,,Condo/Co-op,600 N 85th St #406,Seattle,WA,98103,275000,0,1.0,Greenwood,406,,1999,3,677,391,Active,,,https://www.redfin.com/WA/Seattle/600-N-85th-St-98103/unit-406/home/10671,NWMLS as Distributed by MLS Grid,2290293,N,Y,47.6907801,-122.3508792
MLS Listing,,Single Family Residential,9308 26th Pl NW,Seattle,WA,98117,1075000,3,1.5,North Beach,1970,6600,1947,3,546,,Active,,,https://www.redfin.com/WA/Seattle/9308-26th-Pl-NW-98117/home/289195,NWMLS as Distributed by MLS Grid,2289420,N,Y,47.697363,-122.3904504
MLS Listing,,Townhouse,931 N 98th St Unit C,Seattle,WA,98103,549950,2,1.5,Greenwood,958,843,2008,3,574,,Active,,,https://www.redfin.com/WA/Seattle/931-N-98th-St-98103/unit-C/home/22417392,NWMLS as Distributed by MLS Grid,2290525,N,Y,47.7004026,-122.3458454
MLS Listing,,Townhouse,920 NW 57th St Unit B,Seattle,WA,98107,919000,3,2.5,Ballard,1353,1437,2024,3,679,0,Active,,,https://www.redfin.com/WA/Seattle/920-NW-57th-St-98107/unit-B/home/192541642,NWMLS as Distributed by MLS Grid,2290305,N,Y,47.6703725,-122.3696617
MLS Listing,,Single Family Residential,4017 49th Ave S,Seattle,WA,98118,2185000,4,3.0,Seward Park,2430,12000,1971,3,899,,Active,,,https://www.redfin.com/WA/Seattle/4017-49th-Ave-S-98118/home/488098,NWMLS as Distributed by MLS Grid,2290610,N,Y,47.5670988,-122.272346
MLS Listing,,Single Family Residential,1415 E Denny Way,Seattle,WA,98122,1399950,5,3.0,Capitol Hill,3490,4050,1900,3,401,,Active,,,https://www.redfin.com/WA/Seattle/1415-E-Denny-Way-98122/home/143986,NWMLS as Distributed by MLS Grid,2290606,N,Y,47.6183817,-122.313573
MLS Listing,,Single Family Residential,1722 26th Ave S,Seattle,WA,98144,925000,3,1.5,Mt Baker,1310,2997,1998,3,706,35,Active,,,https://www.redfin.com/WA/Seattle/1722-26th-Ave-S-98144/home/170985,NWMLS as Distributed by MLS Grid,2289148,N,Y,47.5876048,-122.2988854
MLS Listing,,Other,2000 Westlake Ave N Unit E1,Seattle,WA,98109,99000,0,1.0,Lake Union,120,200,2008,3,825,,Active,,,https://www.redfin.com/WA/Seattle/2000-Westlake-Ave-N-98109/unit-E1/home/146074850,NWMLS as Distributed by MLS Grid,2290133,N,Y,47.6368221,-122.3398706
MLS Listing,,Single Family Residential,10641 34th Ave SW,Seattle,WA,98146,799900,5,2.5,Arbor Heights,2570,7303,1963,3,311,,Active,,,https://www.redfin.com/WA/Seattle/10641-34th-Ave-SW-98146/home/158621,NWMLS as Distributed by MLS Grid,2287423,N,Y,47.5070015,-122.3750208
MLS Listing,,Single Family Residential,216 Newton St,Seattle,WA,98109,2395000,4,3.5,Queen Anne,2600,3000,2013,3,921,,Active,September-17-2024 10:30 AM,September-17-2024 12:30 PM,https://www.redfin.com/WA/Seattle/216-Newton-St-98109/home/132359,NWMLS as Distributed by MLS Grid,2290116,N,Y,47.6367239,-122.3524687
MLS Listing,,Condo/Co-op,2349 Harbor Ave SW #705,Seattle,WA,98126,900000,2,2.0,Alki,1487,,1990,3,605,877,Active,,,https://www.redfin.com/WA/Seattle/2349-Harbor-Ave-SW-98126/unit-705/home/1606,NWMLS as Distributed by MLS Grid,2264518,N,Y,47.5809407,-122.3744126
MLS Listing,,Condo/Co-op,2550 Thorndyke Ave W #104,Seattle,WA,98199,550000,3,2.0,Magnolia,1221,,1969,3,450,679,Active,,,https://www.redfin.com/WA/Seattle/2550-Thorndyke-Ave-W-98199/unit-104/home/65325,NWMLS as Distributed by MLS Grid,2288336,N,Y,47.6423988,-122.384382
MLS Listing,,Single Family Residential,8217 S 123rd Pl,Seattle,WA,98178,939900,4,2.0,Bryn Mawr,2140,8000,1964,3,439,,Active,,,https://www.redfin.com/WA/Seattle/8217-S-123rd-Pl-98178/home/199493,NWMLS as Distributed by MLS Grid,2289988,N,Y,47.4923797,-122.2293775
MLS Listing,,Townhouse,6827 Weedin Pl NE,Seattle,WA,98115,895000,3,3.0,Green Lake,1655,1131,2006,3,541,,Active,,,https://www.redfin.com/WA/Seattle/6827-Weedin-Pl-NE-98115/home/8189558,NWMLS as Distributed by MLS Grid,2290151,N,Y,47.6786887,-122.3222417
MLS Listing,,Single Family Residential,510 Prospect St Unit A,Seattle,WA,98109,1645000,3,2.5,Queen Anne,2121,1502,2017,3,776,,Active,,,https://www.redfin.com/WA/Seattle/510-Prospect-St-98109/unit-A/home/132133,NWMLS as Distributed by MLS Grid,2288064,N,Y,47.6292759,-122.347045
MLS Listing,,Single Family Residential,7549 Mary Ave NW,Seattle,WA,98117,985000,3,2.0,Whittier,1930,5192,1940,3,510,,Active,September-18-2024 11:00 AM,September-18-2024 01:00 PM,https://www.redfin.com/WA/Seattle/7549-Mary-Ave-NW-98117/home/497457,NWMLS as Distributed by MLS Grid,2289776,N,Y,47.6846941,-122.3757598
MLS Listing,,Single Family Residential,8649 Renton Ave S,Seattle,WA,98118,550000,3,1.0,Rainier Beach,1000,4750,1963,3,550,,Active,,,https://www.redfin.com/WA/Seattle/8649-Renton-Ave-S-98118/home/174538,NWMLS as Distributed by MLS Grid,2289566,N,Y,47.5246675,-122.2769716
MLS Listing,,Single Family Residential,5209 21 St NE,Seattle,WA,98105,1335000,4,3.5,Ravenna,3150,5100,1913,3,424,,Active,,,https://www.redfin.com/WA/Seattle/5209-21st-Ave-NE-98105/home/308363,NWMLS as Distributed by MLS Grid,2288545,N,Y,47.6667586,-122.3059489
MLS Listing,,Condo/Co-op,4839 A 42nd Ave SW,Seattle,WA,98116,865000,3,2.5,Alaska Junction,1420,1036,2024,3,609,50,Active,,,https://www.redfin.com/WA/Seattle/4839-42nd-Ave-SW-98116/home/192540457,NWMLS as Distributed by MLS Grid,2290185,N,Y,47.5581843,-122.385916
MLS Listing,,Townhouse,4326 C SW Mills St,Seattle,WA,98136,999900,3,3.5,Gatewood,1597,1639,2024,3,626,,Active,September-21-2024 11:00 AM,September-21-2024 02:00 PM,https://www.redfin.com/WA/Seattle/4326-SW-Mills-St-98136/unit-C/home/190258654,NWMLS as Distributed by MLS Grid,2237016,N,Y,47.5417122,-122.3886445
MLS Listing,,Single Family Residential,6548 24th Ave NW,Seattle,WA,98117,1040000,3,2.5,Ballard,1900,1950,2016,3,547,,Active,,,https://www.redfin.com/WA/Seattle/6548-24th-Ave-NW-98117/home/108546601,NWMLS as Distributed by MLS Grid,2288642,N,Y,47.6772872,-122.3871772
MLS Listing,,Single Family Residential,906 N 87th St,Seattle,WA,98103,749950,3,2.0,Greenwood,2160,5100,1926,3,347,,Active,,,https://www.redfin.com/WA/Seattle/906-N-87th-St-98103/home/98724,NWMLS as Distributed by MLS Grid,2290023,N,Y,47.6922098,-122.346822
MLS Listing,,Condo/Co-op,11401 Roosevelt Way NE #7,Seattle,WA,98125,409488,2,2.0,Roosevelt,952,,1979,3,430,365,Active,,,https://www.redfin.com/WA/Seattle/11401-Roosevelt-Way-NE-98125/unit-7/home/26173,NWMLS as Distributed by MLS Grid,2290431,N,Y,47.7117404,-122.3182125
MLS Listing,,Single Family Residential,2615 NE 140th St,Seattle,WA,98125,659000,2,1.0,Olympic Hills,1090,8799,1950,3,605,,Active,,,https://www.redfin.com/WA/Seattle/2615-NE-140th-St-98125/home/114523,NWMLS as Distributed by MLS Grid,2285994,N,Y,47.7299895,-122.3004233
MLS Listing,,Single Family Residential,3656 42nd Ave NE,Seattle,WA,98105,1385000,3,2.0,Laurelhurst,2363,6542,1936,3,586,,Active,,,https://www.redfin.com/WA/Seattle/3656-42nd-Ave-NE-98105/home/122142,NWMLS as Distributed by MLS Grid,2289256,N,Y,47.6554834,-122.2823668
MLS Listing,,Townhouse,1144 N 93rd St Unit A,Seattle,WA,98103,675000,3,2.5,Northgate,1250,1194,2006,3,540,,Active,,,https://www.redfin.com/WA/Seattle/1144-N-93rd-St-98103/unit-A/home/22685395,NWMLS as Distributed by MLS Grid,2289403,N,Y,47.6965267,-122.3425192
MLS Listing,,Single Family Residential,319 NW 113th Pl,Seattle,WA,98177,1389000,4,3.0,Broadview,2750,9615,1986,3,505,3,Active,,,https://www.redfin.com/WA/Seattle/319-NW-113th-Pl-98177/home/291335,NWMLS as Distributed by MLS Grid,2286790,N,Y,47.7113567,-122.3617888
MLS Listing,,Single Family Residential,2833 NW 94th St,Seattle,WA,98117,1395000,3,2.5,North Beach,2380,5100,1940,3,586,,Active,,,https://www.redfin.com/WA/Seattle/2833-NW-94th-St-98117/home/289513,NWMLS as Distributed by MLS Grid,2288819,N,Y,47.6973207,-122.3945365
MLS Listing,,Single Family Residential,6734 21st Ave SW,Seattle,WA,98106,1250000,4,3.5,Puget Ridge,2382,4784,2024,3,525,,Active,,,https://www.redfin.com/WA/Seattle/6734-21st-Ave-SW-98106/home/161210,NWMLS as Distributed by MLS Grid,2289994,N,Y,47.541928,-122.3593086
MLS Listing,,Condo/Co-op,300 10th Ave Unit A203,Seattle,WA,98122,284500,1,1.0,First Hill,444,26512,1990,3,641,422,Active,,,https://www.redfin.com/WA/Seattle/300-10th-Ave-98122/unit-A203/home/2088049,NWMLS as Distributed by MLS Grid,2290486,N,Y,47.604847,-122.3188723
MLS Listing,,Single Family Residential,3621 38th Ave S,Seattle,WA,98144,1449000,5,3.5,Mt Baker,2627,3880,1921,3,552,,Active,,,https://www.redfin.com/WA/Seattle/3621-38th-Ave-S-98144/home/171654,NWMLS as Distributed by MLS Grid,2273574,N,Y,47.5709149,-122.2853554
MLS Listing,,Single Family Residential,1220 2nd Ave N,Seattle,WA,98109,4250000,3,2.5,Queen Anne,4530,6464,1996,4,938,,Active,,,https://www.redfin.com/WA/Seattle/1220-2nd-Ave-N-98109/home/133216,NWMLS as Distributed by MLS Grid,2290478,N,Y,47.6304595,-122.3523656
MLS Listing,,Townhouse,6115 17 Ave NW,Seattle,WA,98107,699000,2,2.0,Ballard,1068,675,2020,4,654,,Active,,,https://www.redfin.com/WA/Seattle/6115-17th-Ave-NW-98107/home/171943329,NWMLS as Distributed by MLS Grid,2290490,N,Y,47.673601,-122.3790704
MLS Listing,,Condo/Co-op,2021 1st Ave Unit A4,Seattle,WA,98121,1099000,2,2.0,Downtown,1341,,1982,4,820,1605,Active,,,https://www.redfin.com/WA/Seattle/2021-1st-Ave-98121/unit-A4/home/5832,NWMLS as Distributed by MLS Grid,2290424,N,Y,47.6112368,-122.3431769
MLS Listing,,Single Family Residential,1712 Martin Luther King Jr Way S,Seattle,WA,98144,598764,2,1.0,Mt Baker,1000,2065,1998,4,599,,Active,,,https://www.redfin.com/WA/Seattle/1712-Martin-Luther-King-Jr-Way-S-98144/home/171007,NWMLS as Distributed by MLS Grid,2290441,N,Y,47.5878666,-122.2978317
MLS Listing,,Single Family Residential,6322 45th Ave SW,Seattle,WA,98136,650000,2,1.0,Seaview,2020,4800,1918,4,322,,Active,,,https://www.redfin.com/WA/Seattle/6322-45th-Ave-SW-98136/home/154354,NWMLS as Distributed by MLS Grid,2287334,N,Y,47.5459784,-122.3897134
MLS Listing,,Single Family Residential,8138 8th Ave SW,Seattle,WA,98106,858000,4,3.5,Highland Park,2090,7620,1988,4,411,,Active,,,https://www.redfin.com/WA/Seattle/8138-8th-Ave-SW-98106/home/474865,NWMLS as Distributed by MLS Grid,2290473,N,Y,47.5289608,-122.3452322
MLS Listing,,Single Family Residential,4530 45TH Ave NE,Seattle,WA,98105,1600000,4,3.0,Laurelhurst,2930,5000,1928,4,546,,Active,,,https://www.redfin.com/WA/Seattle/4530-45th-Ave-NE-98105/home/121902,NWMLS as Distributed by MLS Grid,2289169,N,Y,47.6622656,-122.2791189
MLS Listing,,Single Family Residential,7541 45th Ave NE,Seattle,WA,98115,1450000,4,2.0,View Ridge,3004,8000,1939,4,483,,Active,,,https://www.redfin.com/WA/Seattle/7541-45th-Ave-NE-98115/home/316717,NWMLS as Distributed by MLS Grid,2290462,N,Y,47.6841425,-122.2801757
MLS Listing,,Single Family Residential,13512 15th Pl NE,Seattle,WA,98125,1295000,4,3.0,Olympic Hills,2640,7200,1953,4,491,,Active,September-20-2024 05:00 PM,September-20-2024 07:00 PM,https://www.redfin.com/WA/Seattle/13512-15th-Pl-NE-98125/home/115213,NWMLS as Distributed by MLS Grid,2289741,N,Y,47.7270252,-122.3117248
MLS Listing,,Single Family Residential,8322 28th Ave NW,Seattle,WA,98117,725000,3,2.0,Loyal Heights,1440,2271,1924,4,503,5,Active,,,https://www.redfin.com/WA/Seattle/8322-28th-Ave-NW-98117/home/189782360,NWMLS as Distributed by MLS Grid,2290460,N,Y,47.6897277,-122.3927534
MLS Listing,,Single Family Residential,4259 S Mead St,Seattle,WA,98118,825000,4,2.0,Hillman City,2880,6715,1921,4,286,,Active,,,https://www.redfin.com/WA/Seattle/4259-S-Mead-St-98118/home/173239,NWMLS as Distributed by MLS Grid,2290053,N,Y,47.550249,-122.2783436
MLS Listing,,Other,1213 E Shelby St #7,Seattle,WA,98102,1750000,2,1.0,Portage Bay,980,1148,1997,4,1786,656,Active,,,https://www.redfin.com/WA/Seattle/1213-E-Shelby-St-98102/unit-7/home/104379150,NWMLS as Distributed by MLS Grid,2289211,N,Y,47.646645773,-122.3157852
MLS Listing,,Condo/Co-op,535 Summit Ave E #204,Seattle,WA,98102,389000,1,1.0,Capitol Hill,674,,1984,4,577,583,Active,,,https://www.redfin.com/WA/Seattle/535-Summit-Ave-E-98102/unit-204/home/28533,NWMLS as Distributed by MLS Grid,2279321,N,Y,47.6241222,-122.3256414
MLS Listing,,Condo/Co-op,2000 3rd Ave #4502,Seattle,WA,98121,4120460,3,3.0,Seattle,1841,,2024,4,2238,1726,Active,,,https://www.redfin.com/WA/Seattle/2000-3rd-Ave-98121/unit-4502/home/178491473,NWMLS as Distributed by MLS Grid,2287868,N,Y,47.61253,-122.3409136
MLS Listing,,Condo/Co-op,2000 3rd Ave #3009,Seattle,WA,98121,3076000,3,3.0,Seattle,1232,,2024,4,2497,1156,Active,,,https://www.redfin.com/WA/Seattle/2000-3rd-Ave-98121/unit-3009/home/192527314,NWMLS as Distributed by MLS Grid,2287862,N,Y,47.6125423,-122.3408974
MLS Listing,,Condo/Co-op,2000 3rd Ave #2306,Seattle,WA,98121,1799000,2,2.0,Seattle,1077,,2024,4,1670,1010,Active,,,https://www.redfin.com/WA/Seattle/2000-3rd-Ave-98121/unit-2306/home/192527313,NWMLS as Distributed by MLS Grid,2287857,N,Y,47.6125423,-122.3408974
MLS Listing,,Single Family Residential,7313 Wright Ave SW,Seattle,WA,98136,1550000,3,2.0,Lincoln Park,3270,6500,1919,4,474,,Active,,,https://www.redfin.com/WA/Seattle/7313-Wright-Ave-SW-98136/home/158156,NWMLS as Distributed by MLS Grid,2285113,N,Y,47.5375594,-122.394284
MLS Listing,,Condo/Co-op,2000 3rd Ave #809,Seattle,WA,98121,1765000,2,2.0,Seattle,940,,2024,4,1878,881,Active,,,https://www.redfin.com/WA/Seattle/2000-3rd-Ave-98121/unit-809/home/172641530,NWMLS as Distributed by MLS Grid,2287835,N,Y,47.61253,-122.3409136
MLS Listing,,Condo/Co-op,2000 3rd Ave #2401,Seattle,WA,98121,916000,1,1.0,Seattle,548,,2024,4,1672,514,Active,,,https://www.redfin.com/WA/Seattle/2000-3rd-Ave-98121/unit-2401/home/192527308,NWMLS as Distributed by MLS Grid,2287817,N,Y,47.6125423,-122.3408974
MLS Listing,,Condo/Co-op,7323 Sand Point Way NE #105,Seattle,WA,98115,398500,1,1.0,Sand Point,719,,1985,4,554,564,Active,,,https://www.redfin.com/WA/Seattle/7323-Sand-Point-Way-NE-98115/unit-105/home/12091467,NWMLS as Distributed by MLS Grid,2280334,N,Y,47.6819329,-122.2640733
MLS Listing,,Single Family Residential,9702 46th Ave NE,Seattle,WA,98115,1375000,3,2.5,Matthews Beach,1640,6000,2009,4,838,,Active,,,https://www.redfin.com/WA/Seattle/9702-46th-Ave-NE-98115/home/113595,NWMLS as Distributed by MLS Grid,2289086,N,Y,47.6995223,-122.2786941
MLS Listing,,Single Family Residential,1365 33rd Ave S,Seattle,WA,98144,1900000,4,4.5,Leschi,3150,3360,2006,4,603,,Active,,,https://www.redfin.com/WA/Seattle/1365-33rd-Ave-S-98144/home/2100007,NWMLS as Distributed by MLS Grid,2287851,N,Y,47.5906189,-122.2907698
MLS Listing,,Single Family Residential,10540 N Park Ave N,Seattle,WA,98133,619000,2,1.0,Greenwood,900,3425,1965,4,688,5,Active,,,https://www.redfin.com/WA/Seattle/10540-N-Park-Ave-N-98133/home/99591,NWMLS as Distributed by MLS Grid,2282413,N,Y,47.7062091,-122.3484346
MLS Listing,,Townhouse,4518 41st Ave SW Unit A,Seattle,WA,98116,743000,2,2.0,Alaska Junction,1360,755,2019,4,546,,Active,,,https://www.redfin.com/WA/Seattle/4518-41st-Ave-SW-98116/unit-A/home/171862372,NWMLS as Distributed by MLS Grid,2290075,N,Y,47.5622733,-122.3838021
MLS Listing,,Single Family Residential,219 NW 53rd St,Seattle,WA,98107,925000,2,2.0,Phinney Ridge,2100,9180,1924,4,440,,Active,,,https://www.redfin.com/WA/Seattle/219-NW-53rd-St-98107/home/299793,NWMLS as Distributed by MLS Grid,2290368,N,Y,47.6671675,-122.3592044
MLS Listing,,Single Family Residential,703 32nd Ave S,Seattle,WA,98144,1399000,3,3.0,Leschi,2290,6000,1975,4,611,,Active,,,https://www.redfin.com/WA/Seattle/703-32nd-Ave-S-98144/home/141775,NWMLS as Distributed by MLS Grid,2282287,N,Y,47.5964525,-122.2917346
MLS Listing,,Single Family Residential,5060 25th Ave SW,Seattle,WA,98106,799950,4,2.0,Delridge,2080,4800,1918,4,385,,Active,,,https://www.redfin.com/WA/Seattle/5060-25th-Ave-SW-98106/home/159939,NWMLS as Distributed by MLS Grid,2289825,N,Y,47.5556972,-122.3640141
MLS Listing,,Condo/Co-op,76 Cedar St #603,Seattle,WA,98121,439000,1,1.0,Belltown,645,,2007,4,681,602,Active,,,https://www.redfin.com/WA/Seattle/76-Cedar-St-98121/unit-603/home/12538269,NWMLS as Distributed by MLS Grid,2286337,N,Y,47.6154974,-122.3515229
MLS Listing,,Single Family Residential,5451 35th Ave SW,Seattle,WA,98126,1090000,4,2.5,West Seattle,2090,5880,1918,4,522,,Active,,,https://www.redfin.com/WA/Seattle/5451-35th-Ave-SW-98126/home/471360,NWMLS as Distributed by MLS Grid,2290128,N,Y,47.5522723,-122.3768682
MLS Listing,,Single Family Residential,10714 39th Ave NE,Seattle,WA,98125,758500,3,1.0,Meadowbrook,1260,4392,1950,4,602,4,Active,,,https://www.redfin.com/WA/Seattle/10714-39th-Ave-NE-98125/home/112687,NWMLS as Distributed by MLS Grid,2290391,N,Y,47.7069805,-122.2864949
MLS Listing,,Condo/Co-op,123 John St #10,Seattle,WA,98109,289900,1,1.0,Queen Anne,568,,1907,4,510,579,Active,,,https://www.redfin.com/WA/Seattle/123-John-St-98109/unit-10/home/12307144,NWMLS as Distributed by MLS Grid,2290246,N,Y,47.6196456,-122.3544101
MLS Listing,,Single Family Residential,11955 Lakeside Ave NE,Seattle,WA,98125,1150000,3,2.0,Cedar Park,2590,9000,1949,4,444,,Active,,,https://www.redfin.com/WA/Seattle/11955-Lakeside-Ave-NE-98125/home/318797,NWMLS as Distributed by MLS Grid,2289864,N,Y,47.716656,-122.2814243
MLS Listing,,Single Family Residential,2353 NE 91st St,Seattle,WA,98115,2280000,5,3.5,Wedgwood,2982,3495,2024,4,765,5,Active,,,https://www.redfin.com/WA/Seattle/2353-NE-91st-St-98115/home/192527015,NWMLS as Distributed by MLS Grid,2288949,N,Y,47.6946372,-122.3021319
MLS Listing,,Single Family Residential,4420 46th Ave S,Seattle,WA,98118,1399000,4,2.0,Columbia City,2660,7200,1963,4,526,,Active,,,https://www.redfin.com/WA/Seattle/4420-46th-Ave-S-98118/home/491115,NWMLS as Distributed by MLS Grid,2286459,N,Y,47.563428,-122.2753964
MLS Listing,,Condo/Co-op,1545 NW 57th St #610,Seattle,WA,98107,650000,2,2.0,Ballard,1121,,2003,4,580,865,Active,,,https://www.redfin.com/WA/Seattle/1545-NW-57th-St-98107/unit-610/home/171662127,NWMLS as Distributed by MLS Grid,2289612,N,Y,47.6699146,-122.3784177
MLS Listing,,Townhouse,9229 A 16th Ave SW,Seattle,WA,98106,729800,3,3.0,Highland Park,1844,1200,2024,4,396,170,Active,,,https://www.redfin.com/WA/Seattle/9229-16th-Avenue-SW-98106/home/192103653,NWMLS as Distributed by MLS Grid,2289893,N,Y,47.5201101,-122.3556198
MLS Listing,,Single Family Residential,8426 9th Ave SW,Seattle,WA,98106,749900,3,2.0,Highland Park,1460,4880,1943,4,514,,Active,,,https://www.redfin.com/WA/Seattle/8426-9th-Ave-SW-98106/home/474039,NWMLS as Distributed by MLS Grid,2289986,N,Y,47.5274909,-122.3464842
MLS Listing,,Single Family Residential,2434 Queen Anne Ave N,Seattle,WA,98109,2795000,5,4.5,Queen Anne,4160,4200,1912,4,672,,Active,,,https://www.redfin.com/WA/Seattle/2434-Queen-Anne-Ave-N-98109/home/129984,NWMLS as Distributed by MLS Grid,2288212,N,Y,47.6406378,-122.3565598
MLS Listing,,Condo/Co-op,619 5th Ave W #401,Seattle,WA,98119,699000,2,2.0,Queen Anne,1158,,1991,4,604,523,Active,September-17-2024 10:00 AM,September-17-2024 11:00 AM,https://www.redfin.com/WA/Seattle/619-5th-Ave-W-98119/unit-401/home/63867,NWMLS as Distributed by MLS Grid,2289883,N,Y,47.6252906,-122.3636116
MLS Listing,,Single Family Residential,2633 W Crockett St,Seattle,WA,98199,1635000,4,3.0,Magnolia,2735,4000,1946,4,598,,Active,,,https://www.redfin.com/WA/Seattle/2633-W-Crockett-St-98199/home/123541,NWMLS as Distributed by MLS Grid,2289417,N,Y,47.6374987,-122.3919059
MLS Listing,,Townhouse,1412 E 21st Ave,Seattle,WA,98122,805000,2,2.0,Capitol Hill,1321,576,2024,4,609,,Active,September-21-2024 12:45 PM,September-21-2024 02:45 PM,https://www.redfin.com/WA/Seattle/1412-21st-Ave-98122/home/183985652,NWMLS as Distributed by MLS Grid,2209577,N,Y,47.6133867,-122.3046427
MLS Listing,,Single Family Residential,9750 Rainier Ave S,Seattle,WA,98118,2380000,4,3.0,Rainier Beach,2920,7059,1937,4,815,,Active,,,https://www.redfin.com/WA/Seattle/9750-Rainier-Ave-S-98118/home/177342,NWMLS as Distributed by MLS Grid,2289797,N,Y,47.5154246,-122.2529124
MLS Listing,,Condo/Co-op,2920 Eastlake E #310,Seattle,WA,98102,649950,2,2.0,Eastlake,1293,,2005,4,503,667,Active,,,https://www.redfin.com/WA/Seattle/2920-Eastlake-Ave-E-98102/unit-310/home/2076980,NWMLS as Distributed by MLS Grid,2289805,N,Y,47.647818,-122.3237482
MLS Listing,,Townhouse,8700 Mary Ave NW Unit A,Seattle,WA,98117,749900,3,2.5,Crown Hill,1281,1341,2006,4,585,,Active,,,https://www.redfin.com/WA/Seattle/8700-Mary-Ave-NW-98117/unit-A/home/8188168,NWMLS as Distributed by MLS Grid,2288530,N,Y,47.6925275,-122.3750303
MLS Listing,,Single Family Residential,1310 N 41st St Unit B,Seattle,WA,98103,1350000,3,3.5,Wallingford,2310,5385,1991,4,584,,Active,,,https://www.redfin.com/WA/Seattle/1310-N-41st-St-98103/unit-B/home/118893,NWMLS as Distributed by MLS Grid,2286144,N,Y,47.6575456,-122.3414667
MLS Listing,,Townhouse,2108 15th Ave S Unit C,Seattle,WA,98144,625000,2,2.0,Beacon Hill,1000,900,2024,4,625,,Active,,,https://www.redfin.com/WA/Seattle/2108-15th-Ave-S-98144/unit-C/home/192526749,NWMLS as Distributed by MLS Grid,2290042,N,Y,47.5843012,-122.3131547
MLS Listing,,Single Family Residential,8336 Renton Ave S,Seattle,WA,98118,1050000,3,1.5,Rainier Valley,3710,10878,1909,4,283,,Active,,,https://www.redfin.com/WA/Seattle/8336-Renton-Ave-S-98118/home/174039,NWMLS as Distributed by MLS Grid,2288647,N,Y,47.5281152,-122.2773326
MLS Listing,,Single Family Residential,8520 26th Ave NW,Seattle,WA,98117,1050000,4,2.0,North Beach,2060,7800,1949,4,510,,Active,,,https://www.redfin.com/WA/Seattle/8520-26th-Ave-NW-98117/home/163252,NWMLS as Distributed by MLS Grid,2288527,N,Y,47.6912366,-122.3899897
MLS Listing,,Condo/Co-op,619 5th Ave W #202,Seattle,WA,98119,939500,3,2.0,Queen Anne,1595,,1990,4,589,700,Active,,,https://www.redfin.com/WA/Seattle/619-5th-Ave-W-98119/unit-202/home/58168,NWMLS as Distributed by MLS Grid,2289302,N,Y,47.6252906,-122.3636116
MLS Listing,,Condo/Co-op,514 Ward St #201,Seattle,WA,98109,995000,2,2.0,Queen Anne,1443,,1998,4,690,300,Active,September-17-2024 11:00 AM,September-17-2024 01:00 PM,https://www.redfin.com/WA/Seattle/514-Ward-St-98109/unit-201/home/37244,NWMLS as Distributed by MLS Grid,2283069,N,Y,47.6283497,-122.3468181
MLS Listing,,Townhouse,4714 Interlake Ave N,Seattle,WA,98103,1075000,3,3.5,Wallingford,2000,2312,2000,4,538,,Active,,,https://www.redfin.com/WA/Seattle/4714-Interlake-Ave-N-98103/home/117446,NWMLS as Distributed by MLS Grid,2283283,N,Y,47.6633053,-122.3402841
MLS Listing,,Condo/Co-op,5119 S Brandon St Unit B,Seattle,WA,98118,749000,3,2.0,Seward Park,1237,478,2024,4,605,0,Active,,,https://www.redfin.com/WA/Seattle/5119-S-Brandon-St-98118/unit-B/home/192526634,NWMLS as Distributed by MLS Grid,2290168,N,Y,47.5531221,-122.2690371
MLS Listing,,Single Family Residential,1508 23rd Ave,Seattle,WA,98122,995000,4,2.0,Central Area,1920,3454,1926,4,518,,Active,,,https://www.redfin.com/WA/Seattle/1508-23rd-Ave-98122/home/146623,NWMLS as Distributed by MLS Grid,2288218,N,Y,47.6144422,-122.3024109
MLS Listing,,Condo/Co-op,5119 S Brandon St,Seattle,WA,98118,1389000,4,3.5,Seward Park,2205,1851,2024,4,630,0,Active,,,https://www.redfin.com/WA/Seattle/5119-S-Brandon-St-98118/home/492468,NWMLS as Distributed by MLS Grid,2290134,N,Y,47.5531221,-122.2690371
MLS Listing,,Condo/Co-op,425 23rd Ave S Unit A304,Seattle,WA,98144,299950,1,1.0,Judkins,629,,2003,4,477,404,Active,,,https://www.redfin.com/WA/Seattle/425-23rd-Ave-S-98144/unit-A304/home/2064613,NWMLS as Distributed by MLS Grid,2288365,N,Y,47.5982517,-122.302551
MLS Listing,,Townhouse,525 22nd Ave Unit A,Seattle,WA,98122,699950,2,2.0,Central Area,1252,735,2024,4,559,,Active,,,https://www.redfin.com/WA/Seattle/525-22nd-Ave-98122/unit-A/home/192526629,NWMLS as Distributed by MLS Grid,2290077,N,Y,47.606877,-122.3037993
MLS Listing,,Single Family Residential,3306 E Pine St,Seattle,WA,98122,947000,3,2.0,Madrona,2370,2670,1935,4,400,,Active,,,https://www.redfin.com/WA/Seattle/3306-E-Pine-St-98122/home/145929,NWMLS as Distributed by MLS Grid,2289900,N,Y,47.6153728,-122.2898892
MLS Listing,,Condo/Co-op,1119 1st Ave #403,Seattle,WA,98101,350000,1,1.0,Downtown,708,,1902,4,494,774,Active,,,https://www.redfin.com/WA/Seattle/1119-1st-Ave-98101/unit-403/home/191514918,NWMLS as Distributed by MLS Grid,2290261,N,Y,47.6058566,-122.3375827
MLS Listing,,Single Family Residential,7004 Ravenna Ave NE,Seattle,WA,98115,2150000,4,4.0,Ravenna,3673,4034,2024,4,585,,Active,,,https://www.redfin.com/WA/Seattle/7004-Ravenna-Ave-NE-98115/home/311266,NWMLS as Distributed by MLS Grid,2290048,N,Y,47.6796606,-122.303555
MLS Listing,,Townhouse,6614 Carleton Ave S Unit A,Seattle,WA,98108,689950,3,2.5,Georgetown,1670,1,2024,4,413,1,Active,,,https://www.redfin.com/WA/Seattle/6614-Carleton-Ave-S-98108/unit-A/home/192526247,NWMLS as Distributed by MLS Grid,2290213,N,Y,47.5437447,-122.3210498
MLS Listing,,Condo/Co-op,1415 2nd Ave #1501,Seattle,WA,98101,799000,1,1.0,Downtown,601,,1991,4,1329,646,Active,,,https://www.redfin.com/WA/Seattle/1415-2nd-Ave-98101/unit-1501/home/190501084,NWMLS as Distributed by MLS Grid,2279026,N,Y,47.608704,-122.3386233
MLS Listing,,Single Family Residential,8417 Wabash Ave S,Seattle,WA,98118,675000,3,2.0,Dunlap,1540,3000,1920,4,438,,Active,,,https://www.redfin.com/WA/Seattle/8417-Wabash-Ave-S-98118/home/174611,NWMLS as Distributed by MLS Grid,2288472,N,Y,47.5272227,-122.2672477
MLS Listing,,Townhouse,527 22nd Ave,Seattle,WA,98122,899000,3,2.5,Central Area,1506,1093,2024,4,597,,Active,,,https://www.redfin.com/WA/Seattle/527-22nd-Ave-98122/home/192525338,NWMLS as Distributed by MLS Grid,2290090,N,Y,47.6068768,-122.3038008
MLS Listing,,Single Family Residential,4506 S Othello St,Seattle,WA,98118,788000,3,2.0,Brighton,2340,7800,1921,4,337,,Active,,,https://www.redfin.com/WA/Seattle/4506-S-Othello-St-98118/home/173853,NWMLS as Distributed by MLS Grid,2289219,N,Y,47.5372656,-122.2763284
MLS Listing,,Vacant Land,1303 NW 100th St Unit B,Seattle,WA,98177,350000,,,Crown Hill,,1964,,4,,4,Active,,,https://www.redfin.com/WA/Seattle/1303-NW-100th-St-98117/unit-B/home/192525229,NWMLS as Distributed by MLS Grid,2290130,N,Y,47.7013156,-122.3730345
MLS Listing,,Townhouse,810 #B S Orcas St,Seattle,WA,98108,653500,2,2.5,Georgetown,1110,1447,2008,4,589,,Active,,,https://www.redfin.com/WA/Seattle/810-B-S-Orcas-St-98108/home/189749701,NWMLS as Distributed by MLS Grid,2290106,N,Y,47.550502,-122.322149
MLS Listing,,Condo/Co-op,13433 Roosevelt Way N #302,Seattle,WA,98133,320000,2,2.0,Haller Lake,994,,1968,4,322,767,Active,,,https://www.redfin.com/WA/Seattle/13433-Roosevelt-Way-N-98133/unit-302/home/4334,NWMLS as Distributed by MLS Grid,2289297,N,Y,47.7266815,-122.3305622
MLS Listing,,Condo/Co-op,2911 2nd Ave #715,Seattle,WA,98121,450000,1,1.0,Belltown,586,,2009,4,768,569,Active,,,https://www.redfin.com/WA/Seattle/2911-2nd-Ave-98121/unit-715/home/192524976,NWMLS as Distributed by MLS Grid,2289628,N,Y,47.6176125,-122.3523057
MLS Listing,,Single Family Residential,5916 8th Ave NE,Seattle,WA,98105,1200000,5,3.0,Roosevelt,2830,3550,1923,4,424,,Active,,,https://www.redfin.com/WA/Seattle/5916-8th-Ave-NE-98105/home/311681,NWMLS as Distributed by MLS Grid,2290011,N,Y,47.6720728,-122.319844
MLS Listing,,Single Family Residential,5719 40th Ave NE,Seattle,WA,98105,1190000,5,3.5,Bryant,3010,3948,1984,4,395,,Active,,,https://www.redfin.com/WA/Seattle/5719-40th-Ave-NE-98105/home/313511,NWMLS as Distributed by MLS Grid,2289885,N,Y,47.6709449,-122.2851326
MLS Listing,,Condo/Co-op,10501 8th Ave NE #222,Seattle,WA,98125,349950,1,1.0,Northgate,756,,1984,4,463,481,Active,,,https://www.redfin.com/WA/Seattle/10501-8th-Ave-NE-98125/unit-222/home/42722,NWMLS as Distributed by MLS Grid,2289253,N,Y,47.7054772,-122.3211175
MLS Listing,,Single Family Residential,4017 29th Ave W,Seattle,WA,98199,1225000,3,3.0,Magnolia,2500,6843,1941,4,490,,Active,,,https://www.redfin.com/WA/Seattle/4017-29th-Ave-W-98199/home/123440,NWMLS as Distributed by MLS Grid,2287100,N,Y,47.656429,-122.3947175
MLS Listing,,Townhouse,8036 Mary Ave NW Unit B,Seattle,WA,98117,899000,3,2.5,Ballard,1590,1083,2022,4,565,,Active,,,https://www.redfin.com/WA/Seattle/8036-Mary-Ave-NW-98117/unit-B/home/181295261,NWMLS as Distributed by MLS Grid,2290236,N,Y,47.6878981,-122.3750637
MLS Listing,,Single Family Residential,14038 Lenora Pl N,Seattle,WA,98133,789000,4,2.0,Haller Lake,2120,5100,1979,4,372,,Active,,,https://www.redfin.com/WA/Seattle/14038-Lenora-Pl-N-98133/home/102274,NWMLS as Distributed by MLS Grid,2289523,N,Y,47.7315836,-122.3431401
MLS Listing,,Single Family Residential,6661 Ellis Ave S,Seattle,WA,98108,695000,2,1.0,Georgetown,1180,4000,1926,4,589,,Active,,,https://www.redfin.com/WA/Seattle/6661-Ellis-Ave-S-98108/home/476569,NWMLS as Distributed by MLS Grid,2288992,N,Y,47.5422513,-122.3197838
MLS Listing,,Single Family Residential,2620 SW Dakota St,Seattle,WA,98126,898000,5,2.5,Delridge,2050,8370,1918,4,438,,Active,,,https://www.redfin.com/WA/Seattle/2620-SW-Dakota-St-98126/home/159914,NWMLS as Distributed by MLS Grid,2290208,N,Y,47.567213,-122.366514
MLS Listing,,Single Family Residential,3001 24th Ave W,Seattle,WA,98199,1400000,4,3.5,Magnolia,2160,6480,1973,4,648,,Active,,,https://www.redfin.com/WA/Seattle/3001-24th-Ave-W-98199/home/124995,NWMLS as Distributed by MLS Grid,2289542,N,Y,47.646902,-122.3878033
MLS Listing,,Condo/Co-op,1504 Aurora Ave N #306,Seattle,WA,98109,379000,1,1.0,Westlake,600,,1991,4,632,470,Active,,,https://www.redfin.com/WA/Seattle/1504-Aurora-Ave-N-98109/unit-306/home/192524712,NWMLS as Distributed by MLS Grid,2289712,N,Y,47.6327765,-122.3431231
MLS Listing,,Single Family Residential,10044 Sand Point Way NE,Seattle,WA,98125,1662000,4,3.5,Matthews Beach,2940,7200,2024,4,565,,Active,,,https://www.redfin.com/WA/Seattle/10044-Sand-Point-Way-NE-98125/home/319691,NWMLS as Distributed by MLS Grid,2290227,N,Y,47.7024833,-122.2773446
MLS Listing,,Condo/Co-op,5000 30th Ave NE #201,Seattle,WA,98105,750000,2,2.0,Bryant,1133,,2001,4,662,905,Active,September-18-2024 11:00 AM,September-18-2024 01:00 PM,https://www.redfin.com/WA/Seattle/5000-30th-Ave-NE-98105/unit-201/home/33749,NWMLS as Distributed by MLS Grid,2288637,N,Y,47.6650713,-122.2953314
MLS Listing,,Single Family Residential,2600 Harvard Ave E,Seattle,WA,98102,1900000,4,4.0,Roanoke Park,4440,5500,1991,4,428,,Active,,,https://www.redfin.com/WA/Seattle/2600-Harvard-Ave-E-98102/home/136737,NWMLS as Distributed by MLS Grid,2289629,N,Y,47.6433508,-122.3217558
MLS Listing,,Townhouse,4509 S Trenton St Unit A,Seattle,WA,98118,474950,2,1.5,Rainier Beach,1100,1200,2008,4,432,,Active,,,https://www.redfin.com/WA/Seattle/4509-S-Trenton-St-98118/unit-A/home/18657781,NWMLS as Distributed by MLS Grid,2281294,N,Y,47.5239256,-122.2755574
MLS Listing,,Single Family Residential,347 N 105th St,Seattle,WA,98133,699000,3,3.5,Greenwood,1830,1677,2007,4,382,,Active,,,https://www.redfin.com/WA/Seattle/347-N-105th-St-98133/home/98853,NWMLS as Distributed by MLS Grid,2289692,N,Y,47.7047946,-122.3533224
MLS Listing,,Townhouse,9427 35th Ave SW Unit A,Seattle,WA,98126,539000,3,2.5,West Seattle,1040,1028,2006,4,518,,Active,,,https://www.redfin.com/WA/Seattle/9427-35th-Ave-SW-98126/unit-A/home/11761580,NWMLS as Distributed by MLS Grid,2290033,N,Y,47.5184673,-122.377339
MLS Listing,,Single Family Residential,2340 42nd Ave E,Seattle,WA,98112,1975000,4,3.5,Madison Park,1920,2720,2001,4,1029,,Active,,,https://www.redfin.com/WA/Seattle/2340-42nd-Ave-E-98112/home/2062636,NWMLS as Distributed by MLS Grid,2289670,N,Y,47.6404102,-122.2779342
MLS Listing,,Condo/Co-op,2510 6th Ave #3201,Seattle,WA,98121,859000,1,1.0,Denny Triangle,765,,2021,4,1123,755,Active,,,https://www.redfin.com/WA/Seattle/2510-6th-Ave-98121/unit-3201/home/192524437,NWMLS as Distributed by MLS Grid,2290191,N,Y,47.6182832,-122.344644
MLS Listing,,Single Family Residential,5203 2nd Ave NW,Seattle,WA,98107,1050000,3,2.0,Phinney Ridge,2197,2713,1927,4,478,,Active,,,https://www.redfin.com/WA/Seattle/5203-2nd-Ave-NW-98107/home/298894,NWMLS as Distributed by MLS Grid,2289970,N,Y,47.6670355,-122.3586418
MLS Listing,,Single Family Residential,2525 28th Ave W,Seattle,WA,98199,1125000,2,2.0,Magnolia,1700,4640,1930,4,662,,Active,,,https://www.redfin.com/WA/Seattle/2525-28th-Ave-W-98199/home/128100,NWMLS as Distributed by MLS Grid,2278543,N,Y,47.6419634,-122.3933487
MLS Listing,,Townhouse,2025 B NW 62nd St,Seattle,WA,98107,950000,3,2.5,Ballard,1540,832,2020,4,617,,Active,,,https://www.redfin.com/WA/Seattle/2025B-NW-62nd-St-98107/home/182747484,NWMLS as Distributed by MLS Grid,2289903,N,Y,47.6736437,-122.383303
MLS Listing,,Condo/Co-op,121 Stewart St #3108,Seattle,WA,98101,789000,1,1.0,Downtown,951,,2020,4,830,1018,Active,,,https://www.redfin.com/WA/Seattle/121-Stewart-St-98101/unit-3108/home/175699797,NWMLS as Distributed by MLS Grid,2289913,N,Y,47.6106852,-122.3406126
MLS Listing,,Single Family Residential,4815 40th Ave SW,Seattle,WA,98116,995000,4,2.5,Alaska Junction,2070,2875,2000,4,481,,Active,,,https://www.redfin.com/WA/Seattle/4815-40th-Ave-SW-98116/home/471771,NWMLS as Distributed by MLS Grid,2287839,N,Y,47.5588539,-122.3832836
MLS Listing,,Vacant Land,87 XX 12th Ave NW,Seattle,WA,98117,685000,,,Crown Hill,,5000,,4,,,Active,,,https://www.redfin.com/WA/Seattle/87-XX-12th-Ave-NW-98117/home/192524221,NWMLS as Distributed by MLS Grid,2289009,N,Y,47.693929,-122.371672
MLS Listing,,Single Family Residential,12062 8th Ave NW,Seattle,WA,98177,824950,2,2.0,Broadview,1158,4076,2024,4,712,19,Active,,,https://www.redfin.com/WA/Seattle/12062-8th-Ave-NW-98177/home/192520759,NWMLS as Distributed by MLS Grid,2290172,N,Y,47.717742,-122.3658913
MLS Listing,,Single Family Residential,5022 SW Waite St,Seattle,WA,98116,1030000,2,2.0,North Admiral,1970,7500,1908,4,523,,Active,,,https://www.redfin.com/WA/Seattle/5022-SW-Waite-St-98116/home/149425,NWMLS as Distributed by MLS Grid,2287801,N,Y,47.5814222,-122.3954953
MLS Listing,,Single Family Residential,8031 Dibble Ave NW,Seattle,WA,98117,1195000,4,2.0,Whittier,2140,3760,1931,4,558,,Active,,,https://www.redfin.com/WA/Seattle/8031-Dibble-Ave-NW-98117/home/496986,NWMLS as Distributed by MLS Grid,2290126,N,Y,47.6878965,-122.3675821
MLS Listing,,Townhouse,1060 SW 100th St #77,Seattle,WA,98106,715000,3,3.0,White Center,1720,1861,2021,4,416,305,Active,,,https://www.redfin.com/WA/Seattle/1060-SW-100th-St-98106/unit-77/home/177488913,NWMLS as Distributed by MLS Grid,2289985,N,Y,47.513976,-122.348474
MLS Listing,,Single Family Residential,4111 SW Dawson St,Seattle,WA,98136,1350000,4,2.0,Fairmount,2280,6000,2003,4,592,,Active,,,https://www.redfin.com/WA/Seattle/4111-SW-Dawson-St-98136/home/471749,NWMLS as Distributed by MLS Grid,2289880,N,Y,47.55552,-122.3846491
MLS Listing,,Single Family Residential,14802 Stone Ave N,Shoreline,WA,98133,895000,4,3.0,Parkwood,1873,8568,1961,4,478,,Active,,,https://www.redfin.com/WA/Shoreline/14802-Stone-Ave-N-98133/home/81985,NWMLS as Distributed by MLS Grid,2287208,N,Y,47.7359877,-122.342178
MLS Listing,,Condo/Co-op,1119 1st Ave #315,Seattle,WA,98101,688000,2,2.5,Downtown,1198,,1902,4,574,1187,Active,,,https://www.redfin.com/WA/Seattle/1119-1st-Ave-98101/unit-315/home/5509,NWMLS as Distributed by MLS Grid,2290108,N,Y,47.6058566,-122.3375827
MLS Listing,,Condo/Co-op,2911 2nd Ave #603,Seattle,WA,98121,845000,2,2.0,Belltown,1160,,2009,4,728,1148,Active,,,https://www.redfin.com/WA/Seattle/2911-2nd-Ave-98121/unit-603/home/21617009,NWMLS as Distributed by MLS Grid,2289627,N,Y,47.6176125,-122.3523057
MLS Listing,,Single Family Residential,8251 Densmore Ave N,Seattle,WA,98103,1195000,4,2.0,Green Lake,2100,5000,1915,4,569,,Active,,,https://www.redfin.com/WA/Seattle/8251-Densmore-Ave-N-98103/home/306278,NWMLS as Distributed by MLS Grid,2289329,N,Y,47.6902293,-122.3380749
MLS Listing,,Condo/Co-op,1420 Terry Ave #1107,Seattle,WA,98101,435000,1,1.0,First Hill,622,,2002,4,699,755,Active,,,https://www.redfin.com/WA/Seattle/1420-Terry-Ave-98101/unit-1107/home/175096235,NWMLS as Distributed by MLS Grid,2289359,N,Y,47.6126538,-122.3293148
MLS Listing,,Single Family Residential,12537 41st Ave NE,Seattle,WA,98125,1250000,3,2.0,Sand Point,1880,18326,1940,4,665,,Active,,,https://www.redfin.com/WA/Seattle/12537-41st-Ave-NE-98125/home/319271,NWMLS as Distributed by MLS Grid,2264455,N,Y,47.7203376,-122.2843603
MLS Listing,,Townhouse,1735 NE 89th St Unit B,Seattle,WA,98115,744950,2,2.0,Maple Leaf,1125,,2024,4,662,51,Active,,,https://www.redfin.com/WA/Seattle/1735-NE-89th-St-98115/unit-B/home/192523283,NWMLS as Distributed by MLS Grid,2289434,N,Y,47.6928562,-122.3080277
MLS Listing,,Single Family Residential,12726 27th Ave NE,Seattle,WA,98125,939000,3,2.0,Olympic Hills,2140,8412,1928,4,439,,Active,,,https://www.redfin.com/WA/Seattle/12726-27th-Ave-NE-98125/home/115552,NWMLS as Distributed by MLS Grid,2289822,N,Y,47.7217693,-122.298811
MLS Listing,,Single Family Residential,6525 37th Ave NE,Seattle,WA,98115,1899888,3,3.5,Bryant,2350,5091,1987,4,808,,Active,,,https://www.redfin.com/WA/Seattle/6525-37th-Ave-NE-98115/home/315392,NWMLS as Distributed by MLS Grid,2288860,N,Y,47.6766548,-122.288082
MLS Listing,,Single Family Residential,4336 5th Ave NW,Seattle,WA,98107,970000,3,2.0,Ballard,1270,3000,1987,4,764,,Active,,,https://www.redfin.com/WA/Seattle/4336-5th-Ave-NW-98107/home/303273,NWMLS as Distributed by MLS Grid,2289165,N,Y,47.6600378,-122.3626426
MLS Listing,,Single Family Residential,1507 33rd Ave,Seattle,WA,98122,1649500,4,4.0,Madrona,3175,4500,1924,4,520,,Active,,,https://www.redfin.com/WA/Seattle/1507-33rd-Ave-98122/home/145783,NWMLS as Distributed by MLS Grid,2288557,N,Y,47.6143251,-122.2906342
MLS Listing,,Single Family Residential,1019 NW 67th St,Seattle,WA,98117,1250000,5,3.0,Ballard,2866,4280,1911,4,436,,Active,,,https://www.redfin.com/WA/Seattle/1019-NW-67th-St-98117/home/496052,NWMLS as Distributed by MLS Grid,2284561,N,Y,47.6776183,-122.3706512
MLS Listing,,Single Family Residential,1619 29th Ave,Seattle,WA,98122,2749500,4,3.5,Madrona,3744,4800,2024,4,734,,Active,,,https://www.redfin.com/WA/Seattle/1619-29th-Ave-98122/home/147589,NWMLS as Distributed by MLS Grid,2288793,N,Y,47.6158652,-122.2951644
MLS Listing,,Condo/Co-op,1110 W Howe St #304,Seattle,WA,98119,630000,2,2.0,Queen Anne,1138,,1989,4,554,513,Active,,,https://www.redfin.com/WA/Seattle/1110-W-Howe-St-98119/unit-304/home/67012,NWMLS as Distributed by MLS Grid,2277527,N,Y,47.6361622,-122.3724209
MLS Listing,,Single Family Residential,5900 44th Ave SW,Seattle,WA,98136,1195000,4,3.0,Seaview,2450,6500,1958,4,488,,Active,,,https://www.redfin.com/WA/Seattle/5900-44th-Ave-SW-98136/home/154589,NWMLS as Distributed by MLS Grid,2289096,N,Y,47.5501623,-122.3882403
MLS Listing,,Townhouse,6514 42 Ave SW Unit A,Seattle,WA,98136,659000,3,2.5,Gatewood,1270,1718,2003,4,519,,Active,September-18-2024 02:00 PM,September-18-2024 05:00 PM,https://www.redfin.com/WA/Seattle/6514-42nd-Ave-SW-98136/unit-A/home/468425,NWMLS as Distributed by MLS Grid,2283280,N,Y,47.5444069,-122.3852929
MLS Listing,,Condo/Co-op,3104 Western Ave #102,Seattle,WA,98121,600000,1,1.5,Belltown,1038,,2008,4,578,915,Active,,,https://www.redfin.com/WA/Seattle/3104-Western-Ave-98121/unit-102/home/18657859,NWMLS as Distributed by MLS Grid,2289975,N,Y,47.6181716,-122.3562088
MLS Listing,,Townhouse,4426 NE 4th Ave Unit B,Seattle,WA,98105,815000,3,3.0,Wallingford,1406,756,2020,4,580,130,Active,,,https://www.redfin.com/WA/Seattle/4426-4th-Ave-NE-98105/unit-B/home/173110529,NWMLS as Distributed by MLS Grid,2288915,N,Y,47.6610237,-122.3237662
MLS Listing,,Single Family Residential,548 N 75th,Seattle,WA,98103,1350000,3,3.0,Phinney Ridge,2040,2987,1987,4,662,,Active,,,https://www.redfin.com/WA/Seattle/548-N-75th-St-98103/home/301360,NWMLS as Distributed by MLS Grid,2289915,N,Y,47.683509,-122.3503225
MLS Listing,,Single Family Residential,8044 27th Ave NW,Seattle,WA,98117,720000,3,1.0,Loyal Heights,1540,3880,1943,4,468,,Active,,,https://www.redfin.com/WA/Seattle/8044-27th-Ave-NW-98117/home/167018,NWMLS as Distributed by MLS Grid,2289338,N,Y,47.6881214,-122.3906231
MLS Listing,,Single Family Residential,14014 38th Ave NE,Seattle,WA,98125,2165000,5,4.0,Cedar Park,5695,8100,2007,4,380,,Active,,,https://www.redfin.com/WA/Seattle/14014-38th-Ave-NE-98125/home/319895,NWMLS as Distributed by MLS Grid,2289052,N,Y,47.7306023,-122.2871886
MLS Listing,,Single Family Residential,6529 36th Ave NE,Seattle,WA,98115,995000,3,2.0,Bryant,1360,5080,1949,4,732,,Active,,,https://www.redfin.com/WA/Seattle/6529-36th-Ave-NE-98115/home/318256,NWMLS as Distributed by MLS Grid,2289811,N,Y,47.676674,-122.289242
MLS Listing,,Single Family Residential,4200 S Orcas St,Seattle,WA,98118,688000,3,1.0,Columbia City,2140,3090,1911,4,321,,Active,,,https://www.redfin.com/WA/Seattle/4200-S-Orcas-St-98118/home/173514,NWMLS as Distributed by MLS Grid,2288188,N,Y,47.5514004,-122.2806236
MLS Listing,,Townhouse,3645 Greenwood Ave N,Seattle,WA,98103,915000,3,2.5,Fremont,1500,1312,2007,4,610,,Active,,,https://www.redfin.com/WA/Seattle/3645-Greenwood-Ave-N-98103/home/12539027,NWMLS as Distributed by MLS Grid,2288528,N,Y,47.6536975,-122.3559377
MLS Listing,,Single Family Residential,108 NW 41st St,Seattle,WA,98107,949500,3,1.0,Fremont,1496,3240,1918,4,635,,Active,,,https://www.redfin.com/WA/Seattle/108-NW-41st-St-98107/home/301991,NWMLS as Distributed by MLS Grid,2288765,N,Y,47.6565231,-122.3580905
MLS Listing,,Townhouse,901 28th Ave S Unit C,Seattle,WA,98144,899900,3,2.0,Leschi,1380,817,2022,4,652,,Active,,,https://www.redfin.com/WA/Seattle/901-28th-Ave-S-98144/unit-C/home/181270259,NWMLS as Distributed by MLS Grid,2289461,N,Y,47.5944958,-122.2969463
MLS Listing,,Single Family Residential,7115 34th Ave NW,Seattle,WA,98117,2698000,5,4.5,Seattle,3490,5000,1976,4,773,,Active,,,https://www.redfin.com/WA/Seattle/7115-34th-Ave-NW-98117/home/290266,NWMLS as Distributed by MLS Grid,2288703,N,Y,47.6806102,-122.4013777
MLS Listing,,Single Family Residential,10809 2nd Ave SW,Seattle,WA,98146,999990,4,3.0,White Center,2950,6968,2003,4,339,,Active,,,https://www.redfin.com/WA/Seattle/10809-2nd-Ave-SW-98146/home/182125,NWMLS as Distributed by MLS Grid,2289965,N,Y,47.5062892,-122.3367746
MLS Listing,,Townhouse,410 21st Ave Unit C,Seattle,WA,98122,749950,3,2.5,Central Area,1180,1563,2015,4,636,,Active,,,https://www.redfin.com/WA/Seattle/410-21st-Ave-98122/unit-C/home/192518319,NWMLS as Distributed by MLS Grid,2289376,N,Y,47.6055452,-122.3046254
MLS Listing,,Single Family Residential,2716 NE 105 St,Seattle,WA,98125,1120000,3,2.5,Meadowbrook,2300,7209,1993,4,487,,Active,,,https://www.redfin.com/WA/Seattle/2716-NE-105th-St-98125/home/112186,NWMLS as Distributed by MLS Grid,2281981,N,Y,47.7049674,-122.2980251
MLS Listing,,Townhouse,6317 34th Ave SW Unit B,Seattle,WA,98126,649000,2,2.0,West Seattle,1204,805,2020,4,539,,Active,,,https://www.redfin.com/WA/Seattle/6317-34th-Ave-SW-98126/unit-B/home/171919161,NWMLS as Distributed by MLS Grid,2288345,N,Y,47.5460596,-122.3754367
MLS Listing,,Single Family Residential,11742 36th Ave NE,Seattle,WA,98125,1165000,4,3.0,Meadowbrook,2600,10446,1938,4,448,,Active,,,https://www.redfin.com/WA/Seattle/11742-36th-Ave-NE-98125/home/112046,NWMLS as Distributed by MLS Grid,2289254,N,Y,47.7149558,-122.2889441
MLS Listing,,Single Family Residential,6206 43rd Ave NE,Seattle,WA,98115,1200000,4,2.0,Hawthorne Hills,2220,6750,1950,4,541,,Active,,,https://www.redfin.com/WA/Seattle/6206-43rd-Ave-NE-98115/home/313487,NWMLS as Distributed by MLS Grid,2273166,N,Y,47.6742539,-122.2818687
MLS Listing,,Condo/Co-op,4004 Beach Dr SW #202,Seattle,WA,98116,529000,2,1.0,Beach Drive,895,,1980,4,591,550,Active,,,https://www.redfin.com/WA/Seattle/4004-Beach-Dr-SW-98116/unit-202/home/32126,NWMLS as Distributed by MLS Grid,2288704,N,Y,47.5681834,-122.4091765
MLS Listing,,Single Family Residential,9246 22nd Ave SW,Seattle,WA,98106,525000,2,1.0,Westwood,670,3133,1942,4,784,,Active,,,https://www.redfin.com/WA/Seattle/9246-22nd-Ave-SW-98106/home/472032,NWMLS as Distributed by MLS Grid,2289820,N,Y,47.5196754,-122.3616361
MLS Listing,,Condo/Co-op,5450 Leary Ave NW #240,Seattle,WA,98107,488000,1,1.0,Ballard,725,,2008,4,673,458,Active,September-16-2024 12:00 AM,September-16-2024 11:59 PM,https://www.redfin.com/WA/Seattle/5450-Leary-Ave-NW-98107/unit-240/home/22709091,NWMLS as Distributed by MLS Grid,2286008,N,Y,47.6679047,-122.3832003
MLS Listing,,Single Family Residential,2316 28th Ave S,Seattle,WA,98144,675000,2,1.0,Mt Baker,880,6000,1947,4,767,,Active,,,https://www.redfin.com/WA/Seattle/2316-28th-Ave-S-98144/home/170604,NWMLS as Distributed by MLS Grid,2286382,N,Y,47.5823644,-122.2960654
MLS Listing,,Single Family Residential,11542 39th Ave NE,Seattle,WA,98125,750000,2,1.0,Meadowbrook,1750,8255,1944,4,429,,Active,,,https://www.redfin.com/WA/Seattle/11542-39th-Ave-NE-98125/home/111491,NWMLS as Distributed by MLS Grid,2286619,N,Y,47.7132241,-122.2862913
MLS Listing,,Condo/Co-op,1413 15th Ave #7,Seattle,WA,98122,449950,1,1.0,Capitol Hill,662,,2000,4,680,375,Active,,,https://www.redfin.com/WA/Seattle/1413-15th-Ave-98122/unit-7/home/70527,NWMLS as Distributed by MLS Grid,2289901,N,Y,47.6134168,-122.3130662
MLS Listing,,Condo/Co-op,2727 E Franklin Ave E E #102,Seattle,WA,98102,365000,1,1.0,Eastlake,466,,1988,4,783,380,Active,,,https://www.redfin.com/WA/Seattle/2727-Franklin-Ave-E-98102/unit-102/home/43837,NWMLS as Distributed by MLS Grid,2289455,N,Y,47.6452925,-122.3249062
MLS Listing,,Condo/Co-op,4343 Roosevelt Way NE #408,Seattle,WA,98105,420000,1,1.0,University District,761,,1996,4,552,433,Active,,,https://www.redfin.com/WA/Seattle/4343-Roosevelt-Way-NE-98105/unit-408/home/190499480,NWMLS as Distributed by MLS Grid,2285799,N,Y,47.6606289,-122.3180337
MLS Listing,,Townhouse,3001 60th Ave SW,Seattle,WA,98116,1075000,3,3.5,Alki,1967,1267,2013,4,547,,Active,,,https://www.redfin.com/WA/Seattle/3001-60th-Ave-SW-98116/home/150259,NWMLS as Distributed by MLS Grid,2289128,N,Y,47.5776177,-122.4096456
MLS Listing,,Townhouse,1919 24th Ave S Unit E,Seattle,WA,98144,749000,3,2.5,Seattle,1790,644,2020,4,418,40,Active,September-21-2024 02:00 PM,September-21-2024 04:00 PM,https://www.redfin.com/WA/Seattle/1919-24th-Ave-S-98144/unit-E/home/176347679,NWMLS as Distributed by MLS Grid,2288735,N,Y,47.5857363,-122.3020642
MLS Listing,,Single Family Residential,3233 57th St SW,Seattle,WA,98116,1650000,5,4.5,Alki,3620,12050,1982,4,456,,Active,,,https://www.redfin.com/WA/Seattle/3233-57th-Ave-SW-98116/home/151604,NWMLS as Distributed by MLS Grid,2287736,N,Y,47.574833,-122.4057458
MLS Listing,,Townhouse,2121 E Terrace St,Seattle,WA,98122,870000,3,2.5,Central Area,1530,828,2014,4,569,,Active,,,https://www.redfin.com/WA/Seattle/2121-E-Terrace-St-98122/home/59703985,NWMLS as Distributed by MLS Grid,2289441,N,Y,47.6050681,-122.3039739
MLS Listing,,Single Family Residential,820 Yakima Ave S,Seattle,WA,98144,898000,4,2.5,Leschi,1590,6000,1977,5,565,,Active,,,https://www.redfin.com/WA/Seattle/820-Yakima-Ave-S-98144/home/148572,NWMLS as Distributed by MLS Grid,2288185,N,Y,47.5951124,-122.2940289
MLS Listing,,Vacant Land,2822 S Jackson Street Ct,Seattle,WA,98144,3595000,,,Leschi,,10800,,5,,,Active,,,https://www.redfin.com/WA/Seattle/2822-S-Jackson-St-98144/home/192507005,NWMLS as Distributed by MLS Grid,2289905,N,Y,47.5993268,-122.2952099
MLS Listing,,Condo/Co-op,1526 Aurora Ave N Unit B,Seattle,WA,98109,320000,2,1.0,South Lake Union,1020,3918,1946,5,314,636,Active,,,https://www.redfin.com/WA/Seattle/1526-Aurora-Ave-N-98109/unit-B/home/2085114,NWMLS as Distributed by MLS Grid,2289070,N,Y,47.6331458,-122.3431674
MLS Listing,,Single Family Residential,531 27th Ave,Seattle,WA,98122,699000,3,1.0,Central Area,2280,3500,1913,5,307,,Active,,,https://www.redfin.com/WA/Seattle/531-27th-Ave-98122/home/144961,NWMLS as Distributed by MLS Grid,2278033,N,Y,47.607151,-122.2981988
