SALE TYPE,SOLD DATE,PROPERTY TYPE,ADDRESS,CITY,STATE OR PROVINCE,ZIP OR POSTAL CODE,PRICE,BEDS,BATHS,LOCATION,SQUARE FEET,LOT SIZE,YEAR BUILT,DAYS ON MARKET,$/SQUARE FEET,HOA/MONTH,STATUS,NEXT OPEN HOUSE START TIME,NEXT OPEN HOUSE END TIME,URL (SEE https://www.redfin.com/buy-a-home/comparative-market-analysis FOR INFO ON PRICING),SOURCE,MLS#,FAVORITE,INTERESTED,LATITUDE,LONGITUDE
MLS Listing,,Townhouse,2213 Fleeter Pl,Silver Spring,MD,20902,610000,3,3.0,LEESBOROUGH,2400,1220,2011,1,254,105,Pre On-Market,September-22-2024 01:00 PM,September-22-2024 03:00 PM,https://www.redfin.com/MD/Silver-Spring/2213-Fleeter-Pl-20902/home/23460472,BRIGHT MLS,MDMC2134198,N,Y,39.0459922,-77.0513586
MLS Listing,,Single Family Residential,9 Winding Waye Ct,Silver Spring,MD,20902,639000,5,2.5,GLENFIELD MANOR,2520,13298,1970,1,254,,Pre On-Market,September-22-2024 01:00 PM,September-22-2024 03:00 PM,https://www.redfin.com/MD/Silver-Spring/9-Winding-Waye-Ct-20902/home/11086715,BRIGHT MLS,MDMC2148204,N,Y,39.0618542,-77.0366603
MLS Listing,,Single Family Residential,3116 Helsel Dr,Silver Spring,MD,20906,475000,3,2.5,GEORGIAN FOREST,1850,11245,1958,5,257,,Pre On-Market,,,https://www.redfin.com/MD/Silver-Spring/3116-Helsel-Dr-20906/home/11071824,BRIGHT MLS,MDMC2147730,N,Y,39.0737658,-77.0636125
MLS Listing,,Single Family Residential,2912 Collins Ave,Silver Spring,MD,20902,549999,4,2.0,WHEATON HILLS,1828,6440,1949,6,301,,Active,,,https://www.redfin.com/MD/Silver-Spring/2912-Collins-Ave-20902/home/11007719,BRIGHT MLS,MDMC2147458,N,Y,39.0461516,-77.0611092
MLS Listing,,Condo/Co-op,9039 Sligo Creek Pkwy #815,Silver Spring,MD,20901,225000,1,1.0,PARKSIDE PLAZA CODM,872,,1965,6,258,667,Active,,,https://www.redfin.com/MD/Silver-Spring/9039-Sligo-Creek-Pkwy-20901/unit-815/home/11114127,BRIGHT MLS,MDMC2145956,N,Y,39.0041936,-77.0136105
MLS Listing,,Condo/Co-op,15107 Interlachen Dr Unit 2-1008,Silver Spring,MD,20906,264900,2,2.0,THE GRNS AT LEISURE WRLD,1120,,1984,7,237,884,Pre On-Market,,,https://www.redfin.com/MD/Silver-Spring/15107-Interlachen-Dr-20906/unit-2-1008/home/11128467,BRIGHT MLS,MDMC2145928,N,Y,39.1060077,-77.0682045
MLS Listing,,Condo/Co-op,2206 Colston Dr #103,Silver Spring,MD,20910,240000,1,1.0,ROCK CREEK APTS CODM 1,709,,1948,34,339,555,Active,,,https://www.redfin.com/MD/Silver-Spring/2206-Colston-Dr-20910/unit-103/home/143329928,BRIGHT MLS,MDMC2142792,N,Y,38.9941698,-77.0475188
MLS Listing,,Single Family Residential,3316 Estelle Ter,Silver Spring,MD,20906,585000,5,3.0,GREENWOOD KNOLLS,1744,6478,1960,1,335,,Active,,,https://www.redfin.com/MD/Silver-Spring/3316-Estelle-Ter-20906/home/11045761,BRIGHT MLS,MDMC2146126,N,Y,39.0708926,-77.0646888
MLS Listing,,Condo/Co-op,1900 Lyttonsville Rd #605,Silver Spring,MD,20910,189000,1,1.0,PARK SUTTON,768,,1964,1,246,637,Active,,,https://www.redfin.com/MD/Silver-Spring/1900-Lyttonsville-Rd-20910/unit-605/home/11107375,BRIGHT MLS,MDMC2142244,N,Y,39.0013157,-77.0411734
MLS Listing,,Condo/Co-op,9039 Sligo Creek Pkwy #1102,Silver Spring,MD,20901,297000,2,1.0,PARKSIDE PLAZA CODM,1172,,1965,1,253,895,Active,September-21-2024 01:00 PM,September-21-2024 03:00 PM,https://www.redfin.com/MD/Silver-Spring/9039-Sligo-Creek-Pkwy-20901/unit-1102/home/11114224,BRIGHT MLS,MDMC2147404,N,Y,39.0041936,-77.0136105
MLS Listing,,Condo/Co-op,2250 Washington Ave Unit 102-W,Silver Spring,MD,20910,315000,2,1.0,ROCK CREEK GARDENS,824,,1948,1,382,464,Pre On-Market,,,https://www.redfin.com/MD/Silver-Spring/2250-Washington-Ave-20910/unit-102-W/home/192582217,BRIGHT MLS,MDMC2145800,N,Y,38.9924171,-77.0477304
MLS Listing,,Condo/Co-op,2701 Leaf Drop Ct Unit 5-18,Silver Spring,MD,20906,225000,2,2.0,WINTERGATE AT LONGMEAD CODM,861,,1992,1,261,415,Active,,,https://www.redfin.com/MD/Aspen-Hill/2701-Leaf-Drop-Ct-20906/unit-5-18/home/192581998,BRIGHT MLS,MDMC2148672,N,Y,39.106406,-77.057104
MLS Listing,,Single Family Residential,10412 Hayes Ave,Silver Spring,MD,20902,760000,4,4.0,CAMERON HEIGHTS,2043,6500,1947,1,372,,Active,,,https://www.redfin.com/MD/Silver-Spring/10412-Hayes-Ave-20902/home/10981508,BRIGHT MLS,MDMC2148700,N,Y,39.0275383,-77.036695
MLS Listing,,Condo/Co-op,3408 Chiswick Ct Unit 47-3H,Silver Spring,MD,20906,125000,2,1.0,MONTGOMERY MUTUAL COOP,1035,,1967,1,121,1064,Active,,,https://www.redfin.com/MD/Silver-Spring/3408-Chiswick-Ct-20906/unit-47-3H/home/28961956,BRIGHT MLS,MDMC2145478,N,Y,39.099216,-77.071869
MLS Listing,,Single Family Residential,9403 Warren St,Silver Spring,MD,20910,515000,2,1.5,WHEATON OUT RES. (1),1218,6004,1906,1,423,,Pre On-Market,,,https://www.redfin.com/MD/Silver-Spring/9403-Warren-St-20910/home/10950515,BRIGHT MLS,MDMC2147674,N,Y,39.0096088,-77.0485192
MLS Listing,,Single Family Residential,11513 Idlewood Rd,Silver Spring,MD,20906,465000,2,2.0,VEIRS MILL VILLAGE,1104,5799,1946,1,421,,Pre On-Market,,,https://www.redfin.com/MD/Silver-Spring/11513-Idlewood-Rd-20906/home/11002056,BRIGHT MLS,MDMC2147132,N,Y,39.0454451,-77.0850347
MLS Listing,,Single Family Residential,2215 Reedie Dr,Silver Spring,MD,20902,915000,4,3.0,WHEATON FOREST,2513,8067,1955,1,364,,Active,September-22-2024 12:00 PM,September-22-2024 04:00 PM,https://www.redfin.com/MD/Silver-Spring/2215-Reedie-Dr-20902/home/11031672,BRIGHT MLS,MDMC2148526,N,Y,39.0394123,-77.0481504
MLS Listing,,Single Family Residential,1405 Pillock Pl,Silver Spring,MD,20905,525000,4,2.5,OAK SPRINGS,1522,11151,1983,2,345,,Pre On-Market,,,https://www.redfin.com/MD/Silver-Spring/1405-Pillock-Pl-20905/home/10585937,BRIGHT MLS,MDMC2145206,N,Y,39.0965032,-76.9830717
MLS Listing,,Single Family Residential,4205 Tulare Dr,Silver Spring,MD,20906,525000,3,1.5,GARRETT FOREST,1796,8051,1957,2,292,,Pre On-Market,,,https://www.redfin.com/MD/Silver-Spring/4205-Tulare-Dr-20906/home/11044733,BRIGHT MLS,MDMC2148630,N,Y,39.0516768,-77.0832139
MLS Listing,,Townhouse,11020 Hemingway Ct,Silver Spring,MD,20902,630000,4,3.5,KEMP MILL ESTATES,1980,1742,2000,2,318,160,Pre On-Market,,,https://www.redfin.com/MD/Silver-Spring/11020-Hemingway-Ct-20902/home/11153655,BRIGHT MLS,MDMC2148596,N,Y,39.0363735,-77.0260909
MLS Listing,,Single Family Residential,13914 Shannon Dr,Silver Spring,MD,20904,700000,5,3.0,COLESVILLE MANOR,3232,20410,1964,2,217,,Pre On-Market,September-22-2024 01:00 PM,September-22-2024 04:00 PM,https://www.redfin.com/MD/Silver-Spring/13914-Shannon-Dr-20904/home/10567552,BRIGHT MLS,MDMC2148614,N,Y,39.085236,-77.0052532
MLS Listing,,Townhouse,11361 King George Dr #8,Wheaton,MD,20902,485000,3,2.5,HEARTHSTONE VILLAGE CODM,1760,,2001,2,276,330,Active,,,https://www.redfin.com/MD/Silver-Spring/11361-King-George-Dr-20902/unit-8/home/11187364,BRIGHT MLS,MDMC2148610,N,Y,39.0401066,-77.0456643
MLS Listing,,Single Family Residential,12505 Summerwood Dr,Silver Spring,MD,20904,559000,3,2.5,CALVERTON,2386,16654,1965,2,234,,Pre On-Market,,,https://www.redfin.com/MD/Silver-Spring/12505-Summerwood-Dr-20904/home/10572646,BRIGHT MLS,MDMC2148600,N,Y,39.0601862,-76.9412535
MLS Listing,,Single Family Residential,1116 Snider Ln,Silver Spring,MD,20905,675000,6,3.0,GOOD HOPE ESTATES,3000,11159,1972,2,225,,Pre On-Market,,,https://www.redfin.com/MD/Silver-Spring/1116-Snider-Ln-20905/home/10576295,BRIGHT MLS,MDMC2148522,N,Y,39.1094443,-76.9875065
MLS Listing,,Single Family Residential,419 Gilmoure Dr,Silver Spring,MD,20901,1200000,6,5.5,FAIRWAY,4188,6798,2018,3,287,,Active,,,https://www.redfin.com/MD/Silver-Spring/419-Gilmoure-Dr-20901/home/12050540,BRIGHT MLS,MDMC2147644,N,Y,39.0225412,-77.0171513
MLS Listing,,Vacant Land,13719 Notley Rd,Silver Spring,MD,20904,1250000,,,COLESVILLE OUTSIDE,,35381,,3,,,Pre On-Market,,,https://www.redfin.com/MD/Silver-Spring/13719-Notley-Rd-20904/home/10558031,BRIGHT MLS,MDMC2148592,N,Y,39.081431,-77.003378
MLS Listing,,Single Family Residential,13715 Notley Rd,Silver Spring,MD,20904,1250000,3,1.0,COLESVILLE OUTSIDE,1036,35366,1960,3,1207,,Pre On-Market,,,https://www.redfin.com/MD/Silver-Spring/13715-Notley-Rd-20904/home/10558032,BRIGHT MLS,MDMC2148582,N,Y,39.0815348,-77.0027949
MLS Listing,,Townhouse,11895 Old Columbia Pike #68,Silver Spring,MD,20904,330000,2,3.5,PAINT BRANCH PARK,1435,,1980,3,230,331,Active,,,https://www.redfin.com/MD/Silver-Spring/11895-Old-Columbia-Pike-20904/unit-68/home/10580956,BRIGHT MLS,MDMC2148072,N,Y,39.0505724,-76.9754336
MLS Listing,,Condo/Co-op,3100 N Leisure World Blvd #519,Silver Spring,MD,20906,269900,2,2.0,OVERLOOK AT LEISURE WORLD CODM,1035,,2004,3,261,718,Pre On-Market,,,https://www.redfin.com/MD/Silver-Spring/3100-N-Leisure-World-Blvd-20906/unit-519/home/11205855,BRIGHT MLS,MDMC2148390,N,Y,39.1058724,-77.0641793
MLS Listing,,Townhouse,15011 Haslemere Ct Unit 267-C,Silver Spring,MD,20906,394900,3,2.0,ROSSMOOR MUTUAL #12,1200,,1975,3,329,888,Active,,,https://www.redfin.com/MD/Silver-Spring/15011-Haslemere-Ct-20906/unit-267C/home/11093817,BRIGHT MLS,MDMC2133096,N,Y,39.102273,-77.060697
MLS Listing,,Single Family Residential,3901 Jeffry St,Silver Spring,MD,20906,499500,5,2.0,CONN AVE PARK,1230,6278,1955,4,406,,Active,,,https://www.redfin.com/MD/Silver-Spring/3901-Jeffry-St-20906/home/11037205,BRIGHT MLS,MDMC2145086,N,Y,39.0665029,-77.0765145
MLS Listing,,Condo/Co-op,3230 Hewitt Ave Unit 1-3-B,Silver Spring,MD,20906,252500,3,2.0,WESTCHESTER WEST,1224,,1968,4,206,588,Active,,,https://www.redfin.com/MD/Silver-Spring/3230-Hewitt-Ave-20906/unit-1-3-B/home/192504890,BRIGHT MLS,MDMC2147888,N,Y,39.0799492,-77.0617123
MLS Listing,,Single Family Residential,14316 Cantrell Rd,Silver Spring,MD,20905,685000,4,3.0,GUM SPRINGS FARM,2265,20000,1968,4,302,,Pre On-Market,,,https://www.redfin.com/MD/Silver-Spring/14316-Cantrell-Rd-20905/home/10575478,BRIGHT MLS,MDMC2148502,N,Y,39.0915473,-76.9728112
MLS Listing,,Single Family Residential,13836 Blair Stone Ln,Silver Spring,MD,20906,650000,4,2.5,STRATHMORE AT BEL PRE,2228,12784,1970,4,292,33,Active,,,https://www.redfin.com/MD/Silver-Spring/13836-Blair-Stone-Ln-20906/home/11084796,BRIGHT MLS,MDMC2148468,N,Y,39.0834167,-77.058188
MLS Listing,,Townhouse,11036 Amherst Ave,Silver Spring,MD,20902,620000,3,3.5,WHEATON FOREST,1966,798,2004,4,315,510,Pre On-Market,,,https://www.redfin.com/MD/Silver-Spring/11036-Amherst-Ave-20902/home/11201919,BRIGHT MLS,MDMC2148434,N,Y,39.0375803,-77.0486363
MLS Listing,,Townhouse,1367 Alderton Ln,Silver Spring,MD,20906,350000,2,1.0,BONIFANT WOODS,792,1764,1982,4,442,122,Active,,,https://www.redfin.com/MD/Silver-Spring/1367-Alderton-Ln-20906/home/11115814,BRIGHT MLS,MDMC2148472,N,Y,39.0889168,-77.0317601
MLS Listing,,Condo/Co-op,8601 Manchester Rd #417,Silver Spring,MD,20901,139999,1,1.0,PARK BRADFORD,700,,1958,4,200,651,Active,,,https://www.redfin.com/MD/Silver-Spring/8601-Manchester-Rd-20901/unit-417/home/11103544,BRIGHT MLS,MDMC2147346,N,Y,38.9988865,-77.007606
MLS Listing,,Condo/Co-op,3398 Gleneagles Dr Unit 73-2A,Silver Spring,MD,20906,99000,1,1.0,MONTGOMERY MUTUAL COOP,800,,1967,4,124,925,Active,,,https://www.redfin.com/MD/Silver-Spring/3398-Gleneagles-Dr-20906/unit-73-2A/home/28962119,BRIGHT MLS,MDMC2147596,N,Y,39.099106,-77.068816
MLS Listing,,Condo/Co-op,9039 Sligo Creek Pkwy #715,Silver Spring,MD,20901,229999,1,1.0,PARKSIDE PLAZA CODM,872,,1965,4,264,666,Pre On-Market,,,https://www.redfin.com/MD/Silver-Spring/9039-Sligo-Creek-Pkwy-20901/unit-715/home/11114088,BRIGHT MLS,MDMC2148406,N,Y,39.0041936,-77.0136105
MLS Listing,,Single Family Residential,400 Hinsdale Ct,Silver Spring,MD,20901,725000,3,2.5,HIGHLAND VIEW,1860,9815,1951,4,390,,Active,,,https://www.redfin.com/MD/Silver-Spring/400-Hinsdale-Ct-20901/home/10958969,BRIGHT MLS,MDMC2146706,N,Y,39.0035036,-77.0012741
MLS Listing,,Townhouse,2109 Wagon Trail Pl,Silver Spring,MD,20906,620000,3,3.0,PARKER FARM,2226,1650,1995,4,279,153,Active,,,https://www.redfin.com/MD/Silver-Spring/2109-Wagon-Trail-Pl-20906/home/11140513,BRIGHT MLS,MDMC2148314,N,Y,39.0889523,-77.0455111
MLS Listing,,Townhouse,13907 Valleyfield Dr,Silver Spring,MD,20906,399900,3,1.5,LONGMEAD,1104,1264,1984,4,362,81,Pre On-Market,September-22-2024 01:00 PM,September-22-2024 03:00 PM,https://www.redfin.com/MD/Silver-Spring/13907-Valleyfield-Dr-20906/home/11122480,BRIGHT MLS,MDMC2146718,N,Y,39.103388,-77.055648
MLS Listing,,Single Family Residential,1614 Grace Church Rd,Silver Spring,MD,20910,999999,5,3.5,WOODSIDE PARK,3486,10835,1923,4,287,,Active,,,https://www.redfin.com/MD/Silver-Spring/1614-Grace-Church-Rd-20910/home/11138096,BRIGHT MLS,MDMC2147302,N,Y,39.005165,-77.0374492
MLS Listing,,Single Family Residential,9704 Hastings Dr,Silver Spring,MD,20901,804999,4,3.5,INDIAN SPRING CLUB ESTS,1962,5500,1940,4,410,,Active,,,https://www.redfin.com/MD/Silver-Spring/9704-Hastings-Dr-20901/home/10961594,BRIGHT MLS,MDMC2147628,N,Y,39.0145323,-77.0160072
MLS Listing,,Condo/Co-op,1121 University Blvd W Unit 915-B,Silver Spring,MD,20902,230000,2,2.0,UNIVERSITY TOWERS CODM,1117,,1967,4,206,807,Active,,,https://www.redfin.com/MD/Silver-Spring/1121-University-Blvd-W-20902/unit-915-B/home/101391766,BRIGHT MLS,MDMC2147144,N,Y,39.0385292,-77.0282448
MLS Listing,,Townhouse,2210 Highfly Ter #2210,Silver Spring,MD,20902,532500,3,2.5,LEESBOROUGH CODM*,2686,,2009,4,198,480,Active,,,https://www.redfin.com/MD/Silver-Spring/2210-Highfly-Ter-20902/unit-2210/home/28476565,BRIGHT MLS,MDMC2147724,N,Y,39.0450891,-77.0508983
MLS Listing,,Single Family Residential,8105 Chester St,Takoma Park,MD,20912,625000,3,2.0,KILMAROCK,1404,6550,1950,4,445,,Active,,,https://www.redfin.com/MD/Takoma-Park/8105-Chester-St-20912/home/11058849,BRIGHT MLS,MDMC2146014,N,Y,38.9901172,-76.9941839
MLS Listing,,Single Family Residential,633 Whitingham Dr,Silver Spring,MD,20904,799900,5,3.0,SHERWOOD FOREST MANOR,3769,15233,1966,4,212,,Pre On-Market,September-22-2024 01:00 PM,September-22-2024 04:00 PM,https://www.redfin.com/MD/Silver-Spring/633-Whitingham-Dr-20904/home/10565597,BRIGHT MLS,MDMC2147804,N,Y,39.0725578,-77.0211346
MLS Listing,,Single Family Residential,12121 Livingston St,Silver Spring,MD,20902,579000,5,2.5,KINGSWELL SUB,1729,6394,1955,5,335,,Active,,,https://www.redfin.com/MD/Silver-Spring/12121-Livingston-St-20902/home/11051675,BRIGHT MLS,MDMC2147318,N,Y,39.0549766,-77.0587512
MLS Listing,,Condo/Co-op,8718 Manchester Rd #4,Silver Spring,MD,20901,119000,1,1.0,SLIGO PARK HILLS,600,,1947,5,198,599,Active,,,https://www.redfin.com/MD/Silver-Spring/8718-Manchester-Rd-20901/unit-4/home/28962385,BRIGHT MLS,MDMC2146708,N,Y,38.9993098,-77.010028
MLS Listing,,Single Family Residential,11832 Huggins Dr,Silver Spring,MD,20902,625000,5,3.0,CONNECTICUT GARDENS,1848,9122,1951,5,338,,Active,,,https://www.redfin.com/MD/Silver-Spring/11832-Huggins-Dr-20902/home/11025337,BRIGHT MLS,MDMC2147810,N,Y,39.0494936,-77.074277
MLS Listing,,Single Family Residential,10148 Dallas Ave,Silver Spring,MD,20901,514999,3,1.0,DAWN VILLAGE,1058,5823,1950,5,487,,Active,,,https://www.redfin.com/MD/Silver-Spring/10148-Dallas-Ave-20901/home/11070668,BRIGHT MLS,MDMC2147714,N,Y,39.024737,-77.020898
MLS Listing,,Single Family Residential,13709 Turnmore Rd,Silver Spring,MD,20906,800000,4,2.5,LAYHILL VIEW,2796,17624,1973,5,286,,Active,,,https://www.redfin.com/MD/Silver-Spring/13709-Turnmore-Rd-20906/home/11087288,BRIGHT MLS,MDMC2147974,N,Y,39.0819885,-77.0386923
MLS Listing,,Single Family Residential,513 Philadelphia Ave,Takoma Park,MD,20912,945000,4,2.5,TAKOMA PARK,2212,11375,1926,5,427,,Pre On-Market,,,https://www.redfin.com/MD/Takoma-Park/513-Philadelphia-Ave-20912/home/10971560,BRIGHT MLS,MDMC2145364,N,Y,38.9845955,-77.0178856
MLS Listing,,Single Family Residential,14012 Broomall Ln,Silver Spring,MD,20906,549000,4,2.5,STRATHMORE AT BEL PRE,2350,12707,1971,5,234,33,Active,,,https://www.redfin.com/MD/Silver-Spring/14012-Broomall-Ln-20906/home/11086328,BRIGHT MLS,MDMC2148328,N,Y,39.0844916,-77.0636278
MLS Listing,,Single Family Residential,2420 E Gate Dr,Silver Spring,MD,20906,849900,5,3.5,LAYHILL VILLAGE,4270,16103,1966,5,199,,Active,,,https://www.redfin.com/MD/Silver-Spring/2420-E-Gate-Dr-20906/home/11080453,BRIGHT MLS,MDMC2144722,N,Y,39.0853996,-77.0502709
MLS Listing,,Condo/Co-op,930 Wayne Ave #1007,Silver Spring,MD,20910,335000,1,1.0,CRESCENT CODM*,805,,2006,5,416,477,Active,,,https://www.redfin.com/MD/Silver-Spring/930-Wayne-Ave-20910/unit-1007/home/11760940,BRIGHT MLS,MDMC2141608,N,Y,38.9946163,-77.0252154
MLS Listing,,Single Family Residential,707 Rosemere Ave,Silver Spring,MD,20904,550000,5,3.0,HOLLYWOOD PARK,2260,11325,1928,5,243,,Active,,,https://www.redfin.com/MD/Silver-Spring/707-Rosemere-Ave-20904/home/10560132,BRIGHT MLS,MDMC2142370,N,Y,39.0651249,-76.9964223
MLS Listing,,Single Family Residential,10213 Ridgemoor Dr,Silver Spring,MD,20901,775000,3,2.5,WOODMOOR,2335,9294,1939,5,332,,Pre On-Market,September-22-2024 02:00 PM,September-22-2024 04:00 PM,https://www.redfin.com/MD/Silver-Spring/10213-Ridgemoor-Dr-20901/home/10978310,BRIGHT MLS,MDMC2147952,N,Y,39.023378,-77.0082936
MLS Listing,,Single Family Residential,1200 Ballard St,Silver Spring,MD,20910,798000,3,3.0,WOODSIDE PARK,2896,10644,1951,5,276,,Active,,,https://www.redfin.com/MD/Silver-Spring/1200-Ballard-St-20910/home/11079356,BRIGHT MLS,MDMC2147124,N,Y,39.0009359,-77.0309135
MLS Listing,,Single Family Residential,11413 Heather Crest Ln,Silver Spring,MD,20902,599999,3,2.5,GRAY SUB,1566,6387,1984,5,383,,Active,,,https://www.redfin.com/MD/Silver-Spring/11413-Heather-Crest-Ln-20902/home/11120047,BRIGHT MLS,MDMC2135408,N,Y,39.0438572,-77.0314861
MLS Listing,,Single Family Residential,12707 Holdridge Rd,Silver Spring,MD,20906,579999,3,2.0,GLENMONT HILLS & HGTS,1400,10500,1952,5,414,,Active,,,https://www.redfin.com/MD/Silver-Spring/12707-Holdridge-Rd-20906/home/11009639,BRIGHT MLS,MDMC2146204,N,Y,39.0645195,-77.0602348
MLS Listing,,Single Family Residential,1816 Queensguard Rd,Silver Spring,MD,20906,635000,3,3.5,LAYHILL VILL EAST,2211,18694,1969,6,287,,Active,,,https://www.redfin.com/MD/Silver-Spring/1816-Queensguard-Rd-20906/home/11084353,BRIGHT MLS,MDMC2146472,N,Y,39.0863459,-77.0406822
MLS Listing,,Single Family Residential,11903 Dewey Rd,Silver Spring,MD,20906,485000,3,2.0,VEIRS MILL VILLAGE,1311,7677,1946,6,370,,Active,,,https://www.redfin.com/MD/Silver-Spring/11903-Dewey-Rd-20906/home/11003514,BRIGHT MLS,MDMC2144176,N,Y,39.0511864,-77.0889569
MLS Listing,,Single Family Residential,9205 Sligo Creek Pkwy,Silver Spring,MD,20901,995000,3,3.0,SEVEN OAKS,2285,6727,1939,6,435,,Active,,,https://www.redfin.com/MD/Silver-Spring/9205-Sligo-Creek-Pkwy-20901/home/10966257,BRIGHT MLS,MDMC2146912,N,Y,39.0073317,-77.0179275
MLS Listing,,Single Family Residential,13704 New Hampshire Ave,Silver Spring,MD,20904,1250000,4,2.0,COLESVILLE OUTSIDE,1911,33204,1955,6,654,,Active,,,https://www.redfin.com/MD/Silver-Spring/13704-New-Hampshire-Ave-20904/home/10557196,BRIGHT MLS,MDMC2145368,N,Y,39.0811951,-77.0015878
MLS Listing,,Single Family Residential,11513 Orebaugh Ave,Silver Spring,MD,20902,525000,3,3.0,ARVILLE,3582,12375,1961,6,147,,Active,,,https://www.redfin.com/MD/Silver-Spring/11513-Orebaugh-Ave-20902/home/11069731,BRIGHT MLS,MDMC2147616,N,Y,39.0454462,-77.0361626
MLS Listing,,Condo/Co-op,13400 Shady Knoll Dr #101,Silver Spring,MD,20904,235000,1,1.0,ASPEN FOREST 2 CODM,746,,1988,6,315,309,Active,,,https://www.redfin.com/MD/Silver-Spring/13400-Shady-Knoll-Dr-20904/unit-101/home/10600994,BRIGHT MLS,MDMC2144678,N,Y,39.076787,-76.935284
MLS Listing,,Single Family Residential,13939 Alderton Rd,Silver Spring,MD,20906,1049000,5,5.5,LAYHILL VIEW,5114,20005,1903,6,205,,Active,,,https://www.redfin.com/MD/Silver-Spring/13939-Alderton-Rd-20906/home/11135952,BRIGHT MLS,MDMC2147682,N,Y,39.0842787,-77.0342607
MLS Listing,,Condo/Co-op,3005 S Leisure World Blvd #703,Silver Spring,MD,20906,289000,2,2.0,TURNBERRY COURTS AT LEISURE WORLD CODM,1315,,1999,6,220,1483,Active,,,https://www.redfin.com/MD/Silver-Spring/3005-S-Leisure-World-Blvd-20906/unit-703/home/11170572,BRIGHT MLS,MDMC2147150,N,Y,39.103644,-77.060706
MLS Listing,,Single Family Residential,15435 Good Hope Rd,Silver Spring,MD,20905,1175000,6,3.5,COLESVILLE OUTSIDE,4259,87120,1903,6,276,,Active,September-21-2024 10:00 AM,September-21-2024 01:00 PM,https://www.redfin.com/MD/Silver-Spring/15435-Good-Hope-Rd-20905/home/10556284,BRIGHT MLS,MDMC2146400,N,Y,39.1095236,-76.9785284
MLS Listing,,Single Family Residential,11007 Bucknell Dr,Silver Spring,MD,20902,699500,5,3.0,WHEATON FOREST,2000,6311,1953,6,350,,Active,,,https://www.redfin.com/MD/Silver-Spring/11007-Bucknell-Dr-20902/home/11031430,BRIGHT MLS,MDMC2147798,N,Y,39.0372703,-77.0461414
MLS Listing,,Townhouse,1569 Ivystone Ct,Silver Spring,MD,20904,549000,3,3.5,OAK SPRINGS,1540,1650,1984,6,356,108,Active,,,https://www.redfin.com/MD/Silver-Spring/1569-Ivystone-Ct-20904/home/10587525,BRIGHT MLS,MDMC2146904,N,Y,39.082116,-76.978226
MLS Listing,,Single Family Residential,2206 Darrow St,Silver Spring,MD,20902,574900,4,2.0,CARROLL KNOLLS,1974,8388,1949,6,291,,Active,,,https://www.redfin.com/MD/Silver-Spring/2206-Darrow-St-20902/home/10981928,BRIGHT MLS,MDMC2146444,N,Y,39.0237336,-77.0484846
MLS Listing,,Townhouse,15400 Short Ridge Ct Unit 42-A,Silver Spring,MD,20906,549500,3,2.0,ROSSMOOR MUTUAL #15,1251,,1977,6,439,922,Active,,,https://www.redfin.com/MD/Silver-Spring/15400-Short-Ridge-Ct-20906/unit-42A/home/11101433,BRIGHT MLS,MDMC2146774,N,Y,39.109273,-77.074009
MLS Listing,,Single Family Residential,1805 Dennis Ave,Silver Spring,MD,20902,399900,2,1.5,CAMERON HEIGHTS,1179,6334,1949,6,339,,Active,,,https://www.redfin.com/MD/Silver-Spring/1805-Dennis-Ave-20902/home/10981159,BRIGHT MLS,MDMC2147546,N,Y,39.0263723,-77.0399413
MLS Listing,,Single Family Residential,13316 Dauphine St,Silver Spring,MD,20906,700000,5,2.5,HARMONY HILLS,2275,6300,1956,6,308,,Active,,,https://www.redfin.com/MD/Silver-Spring/13316-Dauphine-St-20906/home/11047481,BRIGHT MLS,MDMC2145826,N,Y,39.0748808,-77.0779582
MLS Listing,,Single Family Residential,13707 Notley Rd,Silver Spring,MD,20904,1250000,0,,COLESVILLE OUTSIDE,,33717,1975,7,,,Active,,,https://www.redfin.com/MD/Silver-Spring/13707-Notley-Rd-20904/home/10557192,BRIGHT MLS,MDMC2145370,N,Y,39.0810606,-77.0021459
MLS Listing,,Single Family Residential,709 Brantford Ave,Silver Spring,MD,20904,600000,3,2.5,EAST SPRINGBROOK,2753,15000,1956,7,218,,Active,,,https://www.redfin.com/MD/Silver-Spring/709-Brantford-Ave-20904/home/10567781,BRIGHT MLS,MDMC2147148,N,Y,39.0593443,-76.9948748
MLS Listing,,Condo/Co-op,8045 Newell St #419,Silver Spring,MD,20910,345000,1,1.0,8045 AT SILVER SPRING METRO,899,,2005,7,384,501,Active,,,https://www.redfin.com/MD/Silver-Spring/8045-Newell-St-20910/unit-419/home/11207928,BRIGHT MLS,MDMC2145888,N,Y,38.9884212,-77.0296203
MLS Listing,,Single Family Residential,13711 Notley Rd,Silver Spring,MD,20904,1250000,3,2.0,COLESVILLE OUTSIDE,1152,35366,1976,7,1085,,Active,,,https://www.redfin.com/MD/Silver-Spring/13711-Notley-Rd-20904/home/10557194,BRIGHT MLS,MDMC2145374,N,Y,39.081214,-77.002452
MLS Listing,,Single Family Residential,3006 Dawson Ave,Wheaton,MD,20902,458900,2,1.0,WHEATON HILLS,858,6960,1949,7,535,,Pre On-Market,,,https://www.redfin.com/MD/Silver-Spring/3006-Dawson-Ave-20902/home/11007016,BRIGHT MLS,MDMC2147736,N,Y,39.0453017,-77.0622703
MLS Listing,,Single Family Residential,2507 Mason St,Silver Spring,MD,20902,579900,3,3.0,GLENMONT FOREST,1080,10426,1949,7,537,,Active,,,https://www.redfin.com/MD/Silver-Spring/2507-Mason-St-20902/home/10987821,BRIGHT MLS,MDMC2146668,N,Y,39.0558454,-77.0525942
MLS Listing,,Single Family Residential,14 Atwood Ct,Silver Spring,MD,20906,850000,5,4.5,LAYHILL VIEW,5277,11944,1990,7,161,28,Active,,,https://www.redfin.com/MD/Silver-Spring/14-Atwood-Ct-20906/home/11134967,BRIGHT MLS,MDMC2142722,N,Y,39.083433,-77.0273597
MLS Listing,,Condo/Co-op,15115 Interlachen Dr Unit 3-404,Silver Spring,MD,20906,319900,2,2.0,GREENS AT LEISURE WORLD 2 CODM,1480,,1984,7,216,1077,Pre On-Market,,,https://www.redfin.com/MD/Silver-Spring/15115-Interlachen-Dr-20906/unit-3-404/home/11132201,BRIGHT MLS,MDMC2147638,N,Y,39.1060077,-77.0682045
MLS Listing,,Condo/Co-op,1111 University W #1409,Silver Spring,MD,20902,169000,1,1.0,UNIVERSITY TOWERS CODM,742,,1967,7,228,541,Active,,,https://www.redfin.com/MD/Silver-Spring/1111-University-Blvd-W-20902/unit-1409/home/11117527,BRIGHT MLS,MDMC2146900,N,Y,39.0371712,-77.0272102
MLS Listing,,Condo/Co-op,1900 Lyttonsville Rd #819,Silver Spring,MD,20910,120000,0,1.0,PARK SUTTON,516,,1964,7,233,720,Active,,,https://www.redfin.com/MD/Silver-Spring/1900-Lyttonsville-Rd-20910/unit-819/home/11107532,BRIGHT MLS,MDMC2147668,N,Y,39.0013157,-77.0411734
MLS Listing,,Single Family Residential,15516 Tierra Dr,Silver Spring,MD,20906,799900,5,3.5,GAYFIELDS,3395,80000,1956,7,236,,Pre On-Market,,,https://www.redfin.com/MD/Silver-Spring/15516-Tierra-Dr-20906/home/11071485,BRIGHT MLS,MDMC2147598,N,Y,39.1098229,-77.045828
MLS Listing,,Single Family Residential,2904 Shanandale Dr,Silver Spring,MD,20904,200000,3,1.5,CALVERTON,2441,9985,1967,7,82,,Active,,,https://www.redfin.com/MD/Silver-Spring/2904-Shanandale-Dr-20904/home/10573091,BRIGHT MLS,MDMC2147670,N,Y,39.060127,-76.9503304
MLS Listing,,Townhouse,2547 Auden Dr,Silver Spring,MD,20906,730000,3,2.5,GLENMONT METROCENTRE,2235,1717,2020,7,327,121,Active,,,https://www.redfin.com/MD/Silver-Spring/2547-Auden-Dr-20906/home/144922379,BRIGHT MLS,MDMC2146678,N,Y,39.0653881,-77.0527134
MLS Listing,,Single Family Residential,1621 Belvedere Blvd,Silver Spring,MD,20902,719999,5,3.0,FOREST ESTATES,2118,6120,1948,8,340,,Active,,,https://www.redfin.com/MD/Silver-Spring/1621-Belvedere-Blvd-20902/home/10985725,BRIGHT MLS,MDMC2147216,N,Y,39.0200982,-77.0362945
MLS Listing,,Condo/Co-op,2900 N Leisure World Blvd #201,Silver Spring,MD,20906,279000,2,2.0,TURNBERRY COURTS AT LEISURE WORLD CODM,1149,,1998,8,243,1258,Active,,,https://www.redfin.com/MD/Silver-Spring/2900-N-Leisure-World-Blvd-20906/unit-201/home/11152953,BRIGHT MLS,MDMC2146860,N,Y,39.1044395,-77.0597294
MLS Listing,,Condo/Co-op,9900 Georgia Ave Unit 27-509,Silver Spring,MD,20902,185000,1,1.0,AMERICANA FINMARK,907,,1969,8,204,924,Active,,,https://www.redfin.com/MD/Silver-Spring/9900-Georgia-Ave-20902/unit-27-509/home/11098164,BRIGHT MLS,MDMC2147540,N,Y,39.0181476,-77.0446914
MLS Listing,,Single Family Residential,1814 Cody Dr,Silver Spring,MD,20902,675000,3,2.5,FOREST ESTATES,1878,6678,1948,8,359,,Pre On-Market,,,https://www.redfin.com/MD/Silver-Spring/1814-Cody-Dr-20902/home/10985985,BRIGHT MLS,MDMC2147454,N,Y,39.0213969,-77.0415348
MLS Listing,,Townhouse,3306 Densmore Ct Unit 205-A,Silver Spring,MD,20906,435000,3,2.0,ROSSMOOR MUTUAL #10,1328,,1971,8,328,870,Pre On-Market,,,https://www.redfin.com/MD/Silver-Spring/3306-Densmore-Ct-20906/unit-205A/home/11089794,BRIGHT MLS,MDMC2146518,N,Y,39.0950253,-77.0665292
MLS Listing,,Condo/Co-op,3408 Chiswick Ct Unit 47-2F,Silver Spring,MD,20906,105000,1,1.0,MONTGOMERY MUTUAL COOP,800,,1967,8,131,920,Active,,,https://www.redfin.com/MD/Silver-Spring/3408-Chiswick-Ct-20906/unit-47-2F/home/12051912,BRIGHT MLS,MDMC2146924,N,Y,39.099216,-77.071869
MLS Listing,,Condo/Co-op,2210 Greenery Ln #202,Silver Spring,MD,20906,270000,3,2.0,GLENWAYE GARDENS,1227,,1971,9,220,775,Active,September-18-2024 03:00 PM,September-18-2024 05:00 PM,https://www.redfin.com/MD/Silver-Spring/2210-Greenery-Ln-20906/unit-202/home/11098955,BRIGHT MLS,MDMC2146486,N,Y,39.0613887,-77.0486792
MLS Listing,,Condo/Co-op,8830 Piney Branch Rd #1010,Silver Spring,MD,20903,110000,1,1.0,PINEWAY TOWERS CODM,825,,1971,10,133,437,Active,,,https://www.redfin.com/MD/Silver-Spring/8830-Piney-Branch-Rd-20903/unit-1010/home/11102360,BRIGHT MLS,MDMC2144654,N,Y,39.000622,-76.9929566
MLS Listing,,Condo/Co-op,1900 Lyttonsville Rd #1315,Silver Spring,MD,20910,295000,2,1.5,PARK SUTTON,1050,,1964,11,281,1039,Active,,,https://www.redfin.com/MD/Silver-Spring/1900-Lyttonsville-Rd-20910/unit-1315/home/11107842,BRIGHT MLS,MDMC2145324,N,Y,39.0013157,-77.0411734
MLS Listing,,Single Family Residential,8715 2nd Ave,Silver Spring,MD,20910,1200000,4,2.5,WOODSIDE,3455,7000,1986,11,347,,Active,,,https://www.redfin.com/MD/Silver-Spring/8715-2nd-Ave-20910/home/11130895,BRIGHT MLS,MDMC2146410,N,Y,38.9990716,-77.0353294
MLS Listing,,Single Family Residential,109 Eastmoor Dr,Silver Spring,MD,20901,699900,3,2.0,WOODMOOR,1789,6442,1946,11,391,,Active,,,https://www.redfin.com/MD/Silver-Spring/109-Eastmoor-Dr-20901/home/10978914,BRIGHT MLS,MDMC2146934,N,Y,39.0268703,-77.0059154
MLS Listing,,Townhouse,2732 Cassedy St,Silver Spring,MD,20910,759000,3,3.5,FOREST GLEN PARK,1332,,2007,11,570,164,Active,,,https://www.redfin.com/MD/Silver-Spring/2732-Cassedy-St-20910/home/22038069,BRIGHT MLS,MDMC2144512,N,Y,39.0107912,-77.0555819
MLS Listing,,Condo/Co-op,9039 Sligo Creek Pkwy #907,Silver Spring,MD,20901,225000,1,1.0,PARKSIDE PLAZA CODM,955,,1965,12,236,727,Active,,,https://www.redfin.com/MD/Silver-Spring/9039-Sligo-Creek-Pkwy-20901/unit-907/home/11114141,BRIGHT MLS,MDMC2146648,N,Y,39.0041936,-77.0136105
MLS Listing,,Single Family Residential,13813 Rippling Brook Dr,Silver Spring,MD,20906,1000000,7,5.5,STRATHMORE AT BEL PRE,4425,12875,2024,12,226,,Active,,,https://www.redfin.com/MD/Silver-Spring/13813-Rippling-Brook-Dr-20906/home/11086235,BRIGHT MLS,MDMC2145014,N,Y,39.082918,-77.0554233
MLS Listing,,Townhouse,3021 Mozart Dr,Silver Spring,MD,20904,450000,3,2.5,TANGLEWOOD,1320,1500,1983,12,341,140,Active,,,https://www.redfin.com/MD/Silver-Spring/3021-Mozart-Dr-20904/home/10584105,BRIGHT MLS,MDMC2145688,N,Y,39.0700932,-76.9492419
MLS Listing,,Single Family Residential,4 Park Valley Rd,Silver Spring,MD,20910,895000,4,3.0,SLIGO PARK HILLS,2317,6792,1932,12,386,,Active,,,https://www.redfin.com/MD/Silver-Spring/4-Park-Valley-Rd-20910/home/10968769,BRIGHT MLS,MDMC2144046,N,Y,38.9909902,-77.0096876
MLS Listing,,Single Family Residential,10208 Carson Pl,Silver Spring,MD,20901,555000,3,2.0,SLIGO PARK KNOLLS,2040,5871,1950,12,272,,Pre On-Market,,,https://www.redfin.com/MD/Silver-Spring/10208-Carson-Pl-20901/home/11077216,BRIGHT MLS,MDMC2146250,N,Y,39.0249175,-77.0250064
MLS Listing,,Condo/Co-op,14203 Woolen Oak Ct Unit 8-31,Silver Spring,MD,20906,275000,3,2.0,WINTERGATE AT LONGMEAD CODM,1049,,1993,12,262,419,Active,,,https://www.redfin.com/MD/Aspen-Hill/14203-Woolen-Oak-Ct-20906/unit-8-31/home/192374343,BRIGHT MLS,MDMC2146792,N,Y,39.108416,-77.057191
MLS Listing,,Townhouse,10203 Green Holly Ter,Silver Spring,MD,20902,545000,2,3.0,FOREST ESTATES,1860,1519,1983,12,293,111,Active,,,https://www.redfin.com/MD/Silver-Spring/10203-Green-Holly-Ter-20902/home/11113376,BRIGHT MLS,MDMC2146582,N,Y,39.0236142,-77.0413463
MLS Listing,,Single Family Residential,211 Winding Hill Way,Takoma Park,MD,20912,510000,3,2.0,TAKOMA PARK,684,4560,1936,12,746,,Active,,,https://www.redfin.com/MD/Takoma-Park/211-Winding-Hill-Way-20912/home/10976663,BRIGHT MLS,MDMC2140040,N,Y,38.9966553,-77.00419
MLS Listing,,Townhouse,15062 Haslemere Ct Unit 262-B,Silver Spring,MD,20906,220000,2,2.5,ROSSMOOR MUTUAL #12,1359,,1975,12,162,870,Pre On-Market,,,https://www.redfin.com/MD/Silver-Spring/15062-Haslemere-Ct-20906/unit-262B/home/11093698,BRIGHT MLS,MDMC2146462,N,Y,39.102273,-77.060697
MLS Listing,,Single Family Residential,12215 Middle Rd,Silver Spring,MD,20906,549999,4,2.0,VEIRS MILL VILLAGE,1688,6391,1946,13,326,,Active,September-22-2024 01:00 PM,September-22-2024 03:00 PM,https://www.redfin.com/MD/Silver-Spring/12215-Middle-Rd-20906/home/11003583,BRIGHT MLS,MDMC2144516,N,Y,39.0571385,-77.0874514
MLS Listing,,Single Family Residential,2300 Cranberry Ter,Silver Spring,MD,20906,875000,4,3.5,HAMMOND SUB,3842,11477,1989,13,228,31,Active,,,https://www.redfin.com/MD/Silver-Spring/2300-Cranberry-Ter-20906/home/11135556,BRIGHT MLS,MDMC2145050,N,Y,39.112393,-77.0488441
MLS Listing,,Single Family Residential,304 Mississippi Ave,Silver Spring,MD,20910,895000,4,3.5,TAKOMA PARK,2211,6695,1981,13,405,,Active,,,https://www.redfin.com/MD/Silver-Spring/304-Mississippi-Ave-20910/home/10976820,BRIGHT MLS,MDMC2145262,N,Y,38.9871227,-77.0060661
MLS Listing,,Single Family Residential,2018 Forest Dale Dr,Silver Spring,MD,20903,690000,4,3.0,HILLANDALE FOREST,2330,12025,1959,13,296,,Active,,,https://www.redfin.com/MD/Silver-Spring/2018-Forest-Dale-Dr-20903/home/144686145,BRIGHT MLS,MDMC2146740,N,Y,39.0234072,-76.9682653
MLS Listing,,Single Family Residential,237 Dale Dr,Silver Spring,MD,20910,575000,3,1.0,SLIGO PARK HILLS,776,7651,1944,13,741,,Active,,,https://www.redfin.com/MD/Silver-Spring/237-Dale-Dr-20910/home/10970404,BRIGHT MLS,MDMC2146732,N,Y,38.9965149,-77.0149352
MLS Listing,,Single Family Residential,12901 Kilgore Rd,Silver Spring,MD,20904,599900,4,2.5,FAIRVIEW ESTATES,2064,11630,1963,13,291,,Active,,,https://www.redfin.com/MD/Silver-Spring/12901-Kilgore-Rd-20904/home/10568857,BRIGHT MLS,MDMC2146734,N,Y,39.067318,-76.9891554
MLS Listing,,Townhouse,10941 Bucknell Dr #21,Silver Spring,MD,20902,480000,3,3.5,BUCKNELL COMMONS,1515,,1967,13,317,225,Active,,,https://www.redfin.com/MD/Silver-Spring/10941-Bucknell-Dr-20902/unit-21/home/10952248,BRIGHT MLS,MDMC2146676,N,Y,39.0347441,-77.0443305
MLS Listing,,Townhouse,8120 Bonaire Ct,Silver Spring,MD,20910,640000,3,3.0,SILVER SPRING,1360,1300,1984,13,471,117,Active,,,https://www.redfin.com/MD/Silver-Spring/8120-Bonaire-Ct-20910/home/11124683,BRIGHT MLS,MDMC2144848,N,Y,38.9911245,-77.0173783
MLS Listing,,Townhouse,10929 Rocky Mount Way,Silver Spring,MD,20902,625000,3,3.0,GLEN HAVEN,2198,1927,1989,13,284,166,Active,,,https://www.redfin.com/MD/Silver-Spring/10929-Rocky-Mount-Way-20902/home/11135416,BRIGHT MLS,MDMC2146664,N,Y,39.035029,-77.0330878
MLS Listing,,Single Family Residential,13305 Rippling Brook Dr,Silver Spring,MD,20906,854900,4,3.5,FOXHALL,3006,9957,1979,13,284,,Active,,,https://www.redfin.com/MD/Silver-Spring/13305-Rippling-Brook-Dr-20906/home/11103228,BRIGHT MLS,MDMC2145794,N,Y,39.0741553,-77.0607412
MLS Listing,,Single Family Residential,12112 Dewey Rd,Silver Spring,MD,20906,569000,4,2.0,VEIRS MILL VILLAGE,1944,7209,1946,13,293,,Active,,,https://www.redfin.com/MD/Silver-Spring/12112-Dewey-Rd-20906/home/11003812,BRIGHT MLS,MDMC2146540,N,Y,39.0547547,-77.0897155
MLS Listing,,Single Family Residential,2102 Luzerne Ave,Silver Spring,MD,20910,680000,2,2.0,NORTH WOODSIDE,1679,5336,1939,14,405,,Active,,,https://www.redfin.com/MD/Silver-Spring/2102-Luzerne-Ave-20910/home/11075257,BRIGHT MLS,MDMC2146064,N,Y,39.0055618,-77.0469564
MLS Listing,,Condo/Co-op,2232 Washington Ave Unit W-201,Silver Spring,MD,20910,420000,2,1.0,ROCK CREEK GARDENS,1132,,1948,14,371,581,Active,,,https://www.redfin.com/MD/Silver-Spring/2232-Washington-Ave-20910/unit-W201/home/11110829,BRIGHT MLS,MDMC2145530,N,Y,38.9925803,-77.0474808
MLS Listing,,Single Family Residential,2605 Eccleston St,Silver Spring,MD,20902,865000,7,5.0,CARROLL KNOLLS,3528,6435,1955,14,245,,Active,,,https://www.redfin.com/MD/Silver-Spring/2605-Eccleston-St-20902/home/10982971,BRIGHT MLS,MDMC2144600,N,Y,39.0234522,-77.0551853
MLS Listing,,Single Family Residential,9313 Colesville Rd,Silver Spring,MD,20901,850000,5,3.5,SEVEN OAKS,2510,9111,1923,15,339,,Active,,,https://www.redfin.com/MD/Silver-Spring/9313-Colesville-Rd-20901/home/10966704,BRIGHT MLS,MDMC2145488,N,Y,39.0081952,-77.018668
MLS Listing,,Single Family Residential,10109 Tenbrook Dr,Silver Spring,MD,20901,600000,3,2.0,ARGYLE CLUB ESTATES,1510,6279,1948,15,397,,Pre On-Market,,,https://www.redfin.com/MD/Silver-Spring/10109-Tenbrook-Dr-20901/home/10980926,BRIGHT MLS,MDMC2146398,N,Y,39.0218257,-77.0286202
MLS Listing,,Townhouse,11216 Legato Way,Silver Spring,MD,20901,425000,3,2.0,DUMONT OAKS,1680,800,1984,15,253,95,Active,September-21-2024 02:00 PM,September-21-2024 05:00 PM,https://www.redfin.com/MD/Silver-Spring/11216-Legato-Way-20901/home/10592503,BRIGHT MLS,MDMC2146390,N,Y,39.0406509,-76.998965
MLS Listing,,Single Family Residential,10319 Insley St,Silver Spring,MD,20902,720000,3,2.0,CARROLL KNOLLS,968,6571,1951,16,744,,Active,,,https://www.redfin.com/MD/Silver-Spring/10319-Insley-St-20902/home/10983498,BRIGHT MLS,MDMC2140352,N,Y,39.0259039,-77.0534447
MLS Listing,,Condo/Co-op,3301 S Leisure World Blvd Unit 99-1H,Silver Spring,MD,20906,92900,1,1.0,MONTGOMERY MUTUAL COOP,635,,1967,17,146,873,Active,,,https://www.redfin.com/MD/Silver-Spring/3301-S-Leisure-World-Blvd-20906/unit-99-1H/home/28962103,BRIGHT MLS,MDMC2145860,N,Y,39.0955927,-77.0664984
MLS Listing,,Single Family Residential,15729 Holly Grove Rd,Silver Spring,MD,20905,1049000,4,3.5,NORWOOD ESTATES,4828,97574,1980,18,217,,Active,,,https://www.redfin.com/MD/Silver-Spring/15729-Holly-Grove-Rd-20905/home/10580374,BRIGHT MLS,MDMC2146054,N,Y,39.1163476,-77.0089381
MLS Listing,,Townhouse,11926 Centerhill St,Silver Spring,MD,20902,274900,2,1.0,CONN AVE ESTATES,896,4888,1950,18,307,,Active,,,https://www.redfin.com/MD/Silver-Spring/11926-Centerhill-St-20902/home/11021148,BRIGHT MLS,MDMC2146178,N,Y,39.0516472,-77.072222
MLS Listing,,Townhouse,15941 Coolidge Ave,Silver Spring,MD,20906,710000,3,3.5,BRADFORD'S LANDING,2589,2228,2020,18,274,93,Active,,,https://www.redfin.com/MD/Silver-Spring/15941-Coolidge-Ave-20906/home/167691906,BRIGHT MLS,MDMC2146084,N,Y,39.1157334,-77.0705787
MLS Listing,,Single Family Residential,10611 Meadowhill Rd,Silver Spring,MD,20901,735000,4,3.0,NORTHWEST BRANCH ESTS,2682,16953,1961,18,274,,Active,,,https://www.redfin.com/MD/Silver-Spring/10611-Meadowhill-Rd-20901/home/10564241,BRIGHT MLS,MDMC2145750,N,Y,39.0298253,-76.9980054
MLS Listing,,Condo/Co-op,3730 Bel Pre Rd Unit 3730-3,Silver Spring,MD,20906,219900,2,1.0,FAIRWAYS CODM,891,,1970,18,247,580,Active,,,https://www.redfin.com/MD/Silver-Spring/3730-Bel-Pre-Rd-20906/unit-3730-3/home/11104697,BRIGHT MLS,MDMC2146138,N,Y,39.0919533,-77.0747358
MLS Listing,,Condo/Co-op,1220 Blair Mill Rd #902,Silver Spring,MD,20910,250000,1,1.0,MICA CODM @ SILVER SPRING METRO,860,,1968,18,291,886,Active,,,https://www.redfin.com/MD/Silver-Spring/1220-Blair-Mill-Rd-20910/unit-902/home/23467205,BRIGHT MLS,MDMC2145754,N,Y,38.9894679,-77.0301341
MLS Listing,,Townhouse,20 Tynewick Ct #20,Silver Spring,MD,20906,439000,3,3.5,GEORGIAN COLONIES #5,1360,,1980,18,323,290,Pre On-Market,,,https://www.redfin.com/MD/Silver-Spring/20-Tynewick-Ct-20906/unit-20/home/11105582,BRIGHT MLS,MDMC2145950,N,Y,39.0946118,-77.0750414
MLS Listing,,Townhouse,14910 Dunvegan Ct,Silver Spring,MD,20906,474900,3,2.5,LONGMEAD,1728,1350,1987,18,275,82,Active,,,https://www.redfin.com/MD/Silver-Spring/14910-Dunvegan-Ct-20906/home/11130964,BRIGHT MLS,MDMC2145784,N,Y,39.0987719,-77.046653
MLS Listing,,Single Family Residential,2005 Grace Church Rd,Silver Spring,MD,20910,777369,5,4.0,WOODSIDE,2250,7500,1979,19,345,,Active,,,https://www.redfin.com/MD/Silver-Spring/2005-Grace-Church-Rd-20910/home/10979869,BRIGHT MLS,MDMC2143712,N,Y,39.0025568,-77.0437541
MLS Listing,,Condo/Co-op,2900 N Leisure World Blvd #514,Silver Spring,MD,20906,343000,2,2.0,TURNBERRY COURTS AT LEISURE WORLD CODM,1508,,1998,19,227,1656,Active,,,https://www.redfin.com/MD/Silver-Spring/2900-N-Leisure-World-Blvd-20906/unit-514/home/11152780,BRIGHT MLS,MDMC2146006,N,Y,39.1044395,-77.0597294
MLS Listing,,Single Family Residential,1912 Arcola Ave,Silver Spring,MD,20902,799900,3,3.0,WHEATON VIEW,2324,19375,1957,19,344,,Pre On-Market,,,https://www.redfin.com/MD/Silver-Spring/1912-Arcola-Ave-20902/home/11069257,BRIGHT MLS,MDMC2145986,N,Y,39.0470072,-77.0419818
MLS Listing,,Single Family Residential,10117 Renfrew Rd,Silver Spring,MD,20901,564900,3,2.0,COUNTRY CLUB PARK,1540,6053,1955,19,367,,Active,September-22-2024 01:00 PM,September-22-2024 03:00 PM,https://www.redfin.com/MD/Silver-Spring/10117-Renfrew-Rd-20901/home/11008436,BRIGHT MLS,MDMC2139490,N,Y,39.0231395,-77.0227822
MLS Listing,,Single Family Residential,13813 Beacon Hollow Ln,Silver Spring,MD,20906,625000,4,3.0,STRATHMORE AT BEL PRE,2458,13337,1970,19,254,33,Active,,,https://www.redfin.com/MD/Silver-Spring/13813-Beacon-Hollow-Ln-20906/home/11084578,BRIGHT MLS,MDMC2142372,N,Y,39.0824481,-77.0606752
MLS Listing,,Single Family Residential,4011 Highview Dr,Silver Spring,MD,20906,525000,3,1.5,GARRETT FOREST,1864,7475,1957,20,282,,Active,,,https://www.redfin.com/MD/Silver-Spring/4011-Highview-Dr-20906/home/11045637,BRIGHT MLS,MDMC2142718,N,Y,39.0500076,-77.0791923
MLS Listing,,Condo/Co-op,1111 University Blvd W Unit 1010-A,Silver Spring,MD,20902,194900,1,1.0,UNIVERSITY TOWERS CODM,776,,1967,20,251,570,Active,,,https://www.redfin.com/MD/Silver-Spring/1111-University-Blvd-W-20902/unit-1010A/home/11117282,BRIGHT MLS,MDMC2145838,N,Y,39.0371712,-77.0272102
MLS Listing,,Single Family Residential,10713 Woodsdale Dr,Silver Spring,MD,20901,729900,4,2.5,NORTHWEST BRANCH ESTS,2061,11724,1959,20,354,,Active,,,https://www.redfin.com/MD/Silver-Spring/10713-Woodsdale-Dr-20901/home/10564143,BRIGHT MLS,MDMC2145282,N,Y,39.0320693,-76.9972661
MLS Listing,,Condo/Co-op,3940 Chesterwood Dr #3940,Silver Spring,MD,20906,384900,2,1.5,MONTGOMERY CHASE CODM,1350,,1983,21,285,211,Active,,,https://www.redfin.com/MD/Silver-Spring/3940-Chesterwood-Dr-20906/unit-3940/home/11207621,BRIGHT MLS,MDMC2145702,N,Y,39.0862433,-77.0783929
MLS Listing,,Single Family Residential,1317 Fernway Rd NW,Washington,DC,20012,849000,3,2.0,Shepherd Park,1822,5976,1952,21,466,,Pre On-Market,,,https://www.redfin.com/DC/Washington/1317-Fernway-Rd-NW-20012/home/10022058,BRIGHT MLS,DCDC2156374,N,Y,38.9858846,-77.030455
MLS Listing,,Single Family Residential,11412 Symphony Woods Ln,Silver Spring,MD,20901,799000,4,2.5,DUMONT OAKS,2842,16964,1985,21,281,38,Pre On-Market,,,https://www.redfin.com/MD/Silver-Spring/11412-Symphony-Woods-Ln-20901/home/10582709,BRIGHT MLS,MDMC2145582,N,Y,39.0446416,-76.9971576
MLS Listing,,Condo/Co-op,8314 Fenton St Unit B,Silver Spring,MD,20910,549000,2,2.0,THE LOFTS 24 CODM,1378,,2006,22,398,820,Pre On-Market,,,https://www.redfin.com/MD/Silver-Spring/8314-Fenton-St-20910/unit-B/home/11760565,BRIGHT MLS,MDMC2145458,N,Y,38.993898,-77.024359
MLS Listing,,Single Family Residential,13205 Glenhill Rd,Silver Spring,MD,20904,550000,4,3.0,CAROL ACRES,2422,13800,1964,22,227,,Pre On-Market,,,https://www.redfin.com/MD/Silver-Spring/13205-Glenhill-Rd-20904/home/10567362,BRIGHT MLS,MDMC2145360,N,Y,39.0709784,-76.9999649
MLS Listing,,Single Family Residential,2302 Ashboro Dr,Chevy Chase,MD,20815,1100000,4,3.0,ROCK CREEK FOREST,1978,14164,1951,23,556,,Active,,,https://www.redfin.com/MD/Chevy-Chase/2302-Ashboro-Dr-20815/home/10999302,BRIGHT MLS,MDMC2145184,N,Y,38.991265,-77.0479573
MLS Listing,,Single Family Residential,14933 Notley Rd,Silver Spring,MD,20905,875000,4,2.5,NAPLES MANOR,3640,19439,1988,23,240,27,Active,,,https://www.redfin.com/MD/Silver-Spring/14933-Notley-Rd-20905/home/10591800,BRIGHT MLS,MDMC2144686,N,Y,39.1037211,-77.0171783
MLS Listing,,Single Family Residential,702 Dale Dr,Silver Spring,MD,20910,899900,4,3.0,SOUTH WOODSIDE PARK,2199,5528,1938,23,409,,Active,,,https://www.redfin.com/MD/Silver-Spring/702-Dale-Dr-20910/home/10970737,BRIGHT MLS,MDMC2145138,N,Y,39.0020579,-77.0195883
MLS Listing,,Condo/Co-op,1201 E West Hwy #244,Silver Spring,MD,20910,339990,1,1.0,SILVERTON CODM,819,,2006,25,415,459,Active,,,https://www.redfin.com/MD/Silver-Spring/1201-E-West-Hwy-20910/unit-244/home/17393597,BRIGHT MLS,MDMC2145246,N,Y,38.9907945,-77.0293535
MLS Listing,,Single Family Residential,10209 Edgewood Ave,Silver Spring,MD,20901,882000,4,3.0,NORTHWOOD PARK,3072,8666,1940,25,287,,Active,,,https://www.redfin.com/MD/Silver-Spring/10209-Edgewood-Ave-20901/home/10965035,BRIGHT MLS,MDMC2137482,N,Y,39.0245867,-77.0130403
MLS Listing,,Single Family Residential,9513 Saint Andrews Way,Silver Spring,MD,20901,799900,4,3.0,NORTH HILLS,2533,9318,1951,25,316,,Active,,,https://www.redfin.com/MD/Silver-Spring/9513-Saint-Andrews-Way-20901/home/10964888,BRIGHT MLS,MDMC2145274,N,Y,39.0129632,-77.0202939
MLS Listing,,Single Family Residential,10113 Big Rock Rd,Silver Spring,MD,20901,645000,3,2.0,INDIAN SPRING VILLAGE,1476,6600,1946,25,437,,Active,,,https://www.redfin.com/MD/Silver-Spring/10113-Big-Rock-Rd-20901/home/11016424,BRIGHT MLS,MDMC2144936,N,Y,39.0206286,-76.9982594
MLS Listing,,Single Family Residential,12205 Goodhill Rd,Silver Spring,MD,20902,569888,5,2.0,CONN AVE ESTATES,1512,6272,1953,25,377,,Active,,,https://www.redfin.com/MD/Silver-Spring/12205-Goodhill-Rd-20902/home/11019774,BRIGHT MLS,MDMC2131666,N,Y,39.0561916,-77.068353
MLS Listing,,Condo/Co-op,1121 University Blvd W Unit 1414-B,Silver Spring,MD,20902,194000,1,1.0,UNIVERSITY TOWERS CODM,772,,1967,25,251,565,Active,,,https://www.redfin.com/MD/Silver-Spring/1121-University-Blvd-W-20902/unit-1414-B/home/143319669,BRIGHT MLS,MDMC2145188,N,Y,39.0385292,-77.0282448
MLS Listing,,Single Family Residential,2045 Parkside Dr NW,Washington,DC,20012,1435000,4,3.5,Colonial Village,3911,12391,1956,26,367,,Active,,,https://www.redfin.com/DC/Washington/2045-Parkside-Dr-NW-20012/home/10172272,BRIGHT MLS,DCDC2152838,N,Y,38.9883317,-77.0476397
MLS Listing,,Condo/Co-op,15100 Interlachen Dr Unit 4-211,Silver Spring,MD,20906,180000,1,1.0,GREENS AT LEISURE WORLD 2 CODM,945,,1984,26,190,783,Active,,,https://www.redfin.com/MD/Silver-Spring/15100-Interlachen-Dr-20906/unit-4-211/home/11134206,BRIGHT MLS,MDMC2145152,N,Y,39.1067253,-77.0693828
MLS Listing,,Single Family Residential,13110 Chalkstone Way,Silver Spring,MD,20904,625000,4,3.5,SNOWDENS MILL,2474,10081,1979,27,253,23,Active,,,https://www.redfin.com/MD/Silver-Spring/13110-Chalkstone-Way-20904/home/10579067,BRIGHT MLS,MDMC2144804,N,Y,39.0719555,-76.9723526
MLS Listing,,Single Family Residential,2215 Salisbury Rd,Silver Spring,MD,20910,1175000,5,3.0,DILLES ADD TO LINDEN,2169,8571,1938,27,542,,Active,,,https://www.redfin.com/MD/Silver-Spring/2215-Salisbury-Rd-20910/home/11070826,BRIGHT MLS,MDMC2139488,N,Y,39.0088251,-77.0483594
MLS Listing,,Single Family Residential,7708 Garland Ave,Takoma Park,MD,20912,835000,4,3.5,TAKOMA PARK,2511,9801,1984,27,333,,Active,,,https://www.redfin.com/MD/Takoma-Park/7708-Garland-Ave-20912/home/10976648,BRIGHT MLS,MDMC2145046,N,Y,38.9865753,-76.997054
MLS Listing,,Condo/Co-op,12704 Veirs Mill Rd Unit 29-101,Rockville,MD,20853,300000,3,2.0,PARK TERRACE,1248,,1973,27,240,475,Active,,,https://www.redfin.com/MD/Rockville/12704-Veirs-Mill-Rd-20853/unit-29-101/home/11093411,BRIGHT MLS,MDMC2143930,N,Y,39.0872802,-77.0608986
MLS Listing,,Condo/Co-op,12001 Old Columbia Pike #104,Silver Spring,MD,20904,240000,3,2.0,COLUMBIA TOWERS,1316,,1975,28,182,768,Pre On-Market,,,https://www.redfin.com/MD/Silver-Spring/12001-Old-Columbia-Pike-20904/unit-104/home/21653523,BRIGHT MLS,MDMC2143848,N,Y,39.0519036,-76.9749529
MLS Listing,,Single Family Residential,611 Bryants Nursery Rd,Silver Spring,MD,20905,999999,4,4.0,COLESVILLE OUTSIDE,4031,178160,1984,29,248,,Active,,,https://www.redfin.com/MD/Silver-Spring/611-Bryants-Nursery-Rd-20905/home/10582638,BRIGHT MLS,MDMC2140140,N,Y,39.1150409,-77.0005317
MLS Listing,,Condo/Co-op,8830 Piney Branch Rd #205,Silver Spring,MD,20903,124900,3,2.0,PINEWAY TOWERS CODM,1277,,1971,30,98,1300,Active,,,https://www.redfin.com/MD/Silver-Spring/8830-Piney-Branch-Rd-20903/unit-205/home/11102019,BRIGHT MLS,MDMC2144294,N,Y,39.000622,-76.9929566
MLS Listing,,Single Family Residential,225 Hermleigh Rd,Silver Spring,MD,20902,950000,5,3.0,KEMP MILL ESTATES,2958,26098,1970,30,321,,Active,,,https://www.redfin.com/MD/Silver-Spring/225-Hermleigh-Rd-20902/home/11051374,BRIGHT MLS,MDMC2133226,N,Y,39.0505596,-77.0141277
MLS Listing,,Townhouse,14813 Hammersmith Cir,Silver Spring,MD,20906,450000,3,3.5,LONGMEAD,1708,1260,1985,30,263,82,Active,,,https://www.redfin.com/MD/Silver-Spring/14813-Hammersmith-Cir-20906/home/11125246,BRIGHT MLS,MDMC2144552,N,Y,39.0993647,-77.0490759
MLS Listing,,Townhouse,3442 Gleneagles Dr Unit 78-D,Silver Spring,MD,20906,240000,2,2.5,MONTGOMERY MUTUAL COOP,1600,,1967,31,150,1157,Active,,,https://www.redfin.com/MD/Silver-Spring/3442-Gleneagles-Dr-20906/unit-78D/home/28962136,BRIGHT MLS,MDMC2139452,N,Y,39.099106,-77.068816
MLS Listing,,Condo/Co-op,8601 Manchester Rd #205,Silver Spring,MD,20901,199000,2,1.0,PARK BRADFORD,881,,1958,31,226,752,Active,,,https://www.redfin.com/MD/Silver-Spring/8601-Manchester-Rd-20901/unit-205/home/11103351,BRIGHT MLS,MDMC2144428,N,Y,38.9988865,-77.007606
MLS Listing,,Condo/Co-op,2113 Walsh View Ter Unit 9-101,Silver Spring,MD,20902,228880,2,1.5,AMERICANA FINMARK,1047,,1969,32,219,1097,Active,,,https://www.redfin.com/MD/Silver-Spring/2113-Walsh-View-Ter-20902/unit-9-101/home/11097432,BRIGHT MLS,MDMC2141914,N,Y,39.0176356,-77.0456557
MLS Listing,,Single Family Residential,12306 Veirs Mill Rd,Silver Spring,MD,20906,539900,4,3.0,VEIRS MILL VILLAGE,1398,6891,1946,32,386,,Active,,,https://www.redfin.com/MD/Silver-Spring/12306-Veirs-Mill-Rd-20906/home/11003301,BRIGHT MLS,MDMC2144352,N,Y,39.0589789,-77.0882331
MLS Listing,,Condo/Co-op,1201 East West #001,Silver Spring,MD,20910,426500,1,2.0,SILVERTON CODM,1041,,2006,32,410,621,Active,,,https://www.redfin.com/MD/Silver-Spring/1201-E-West-Hwy-20910/unit-1/home/12183207,BRIGHT MLS,MDMC2144426,N,Y,38.9907945,-77.0293535
MLS Listing,,Single Family Residential,4316 Ferrara Dr,Silver Spring,MD,20906,595000,4,2.0,GARRETT FOREST,1620,7916,1957,32,367,,Active,,,https://www.redfin.com/MD/Silver-Spring/4316-Ferrara-Dr-20906/home/11045676,BRIGHT MLS,MDMC2144132,N,Y,39.0505007,-77.0847645
MLS Listing,,Single Family Residential,3608 Adams Dr,Silver Spring,MD,20902,593900,4,2.0,CONNECTICUT GARDENS,2030,7101,1951,32,293,,Active,,,https://www.redfin.com/MD/Silver-Spring/3608-Adams-Dr-20902/home/11025615,BRIGHT MLS,MDMC2143918,N,Y,39.0467314,-77.0735951
MLS Listing,,Condo/Co-op,8045 Newell St #104,Silver Spring,MD,20910,352000,2,1.0,8045 AT SILVER SPRING METRO,899,,2005,33,392,501,Active,,,https://www.redfin.com/MD/Silver-Spring/8045-Newell-St-20910/unit-104/home/11210600,BRIGHT MLS,MDMC2141612,N,Y,38.9884212,-77.0296203
MLS Listing,,Single Family Residential,9717 Dilston Rd,Silver Spring,MD,20903,519900,3,2.5,OAKVIEW,1683,6710,1950,33,309,,Active,,,https://www.redfin.com/MD/Silver-Spring/9717-Dilston-Rd-20903/home/10561441,BRIGHT MLS,MDMC2140824,N,Y,39.0186071,-76.9817902
MLS Listing,,Townhouse,2523 Holman Ave Unit 2516-B,Silver Spring,MD,20910,409950,2,1.5,GLEN BRIAR,1028,,1953,33,399,385,Active,,,https://www.redfin.com/MD/Silver-Spring/2523-Holman-Ave-20910/unit-2516B/home/11097094,BRIGHT MLS,MDMC2144114,N,Y,39.01623,-77.053544
MLS Listing,,Single Family Residential,13233 Moonlight Trail Dr,Silver Spring,MD,20906,989000,5,4.5,POPLAR RUN,4324,7261,2010,33,229,100,Active,,,https://www.redfin.com/MD/Silver-Spring/13233-Moonlight-Trail-Dr-20906/home/35623783,BRIGHT MLS,MDMC2143614,N,Y,39.076302,-77.034399
MLS Listing,,Single Family Residential,2900 Wilton Ave,Silver Spring,MD,20910,995000,6,2.5,FOREST GLEN PARK,4452,14517,1890,34,223,,Active,,,https://www.redfin.com/MD/Silver-Spring/2900-Wilton-Ave-20910/home/10957127,BRIGHT MLS,MDMC2143172,N,Y,39.0113688,-77.0592702
MLS Listing,,Single Family Residential,10147 Dallas Ave,Silver Spring,MD,20901,750000,4,3.0,DAWN VILLAGE,2316,9914,1948,34,324,,Active,,,https://www.redfin.com/MD/Silver-Spring/10147-Dallas-Ave-20901/home/11070722,BRIGHT MLS,MDMC2142224,N,Y,39.0245155,-77.0204671
MLS Listing,,Single Family Residential,500 Blick Dr,Silver Spring,MD,20904,750000,5,4.5,VALLEYBROOK,2345,20634,1959,34,320,,Active,,,https://www.redfin.com/MD/Silver-Spring/500-Blick-Dr-20904/home/10576911,BRIGHT MLS,MDMC2143490,N,Y,39.0605892,-77.0020876
MLS Listing,,Condo/Co-op,14801 Pennfield Cir #306,Silver Spring,MD,20906,314999,2,2.0,VILLA CORTESE AT LEISURE WORLD CODM,1312,,1995,34,240,1010,Active,,,https://www.redfin.com/MD/Silver-Spring/14801-Pennfield-Cir-20906/unit-306/home/167109374,BRIGHT MLS,MDMC2144124,N,Y,39.0992075,-77.074477
MLS Listing,,Single Family Residential,8302 Donnybrook Dr,Chevy Chase,MD,20815,1440000,6,3.5,ROCK CREEK FOREST,4093,7150,1948,34,352,,Active,,,https://www.redfin.com/MD/Chevy-Chase/8302-Donnybrook-Dr-20815/home/10999519,BRIGHT MLS,MDMC2144118,N,Y,38.9927976,-77.0583052
MLS Listing,,Condo/Co-op,14809 Pennfield Cir #209,Silver Spring,MD,20906,299999,2,2.0,VILLA CORTESE AT LEISURE WORLD CODM,1167,,1996,34,257,924,Active,,,https://www.redfin.com/MD/Silver-Spring/14809-Pennfield-Cir-20906/unit-209/home/11145441,BRIGHT MLS,MDMC2138778,N,Y,39.0992832,-77.0764704
MLS Listing,,Townhouse,14911 Hydrus Rd,Silver Spring,MD,20906,475000,4,2.0,AQUARIUS AT BEL PRE,1407,7860,1972,34,338,28,Active,,,https://www.redfin.com/MD/Silver-Spring/14911-Hydrus-Rd-20906/home/11089236,BRIGHT MLS,MDMC2132168,N,Y,39.1006893,-77.059083
MLS Listing,,Single Family Residential,909 Ednor Rd,Silver Spring,MD,20905,552000,4,3.0,COLESVILLE OUTSIDE,1608,49658,1977,34,343,,Active,,,https://www.redfin.com/MD/Silver-Spring/909-Ednor-Rd-20905/home/10555443,BRIGHT MLS,MDMC2144072,N,Y,39.1364485,-76.9928803
MLS Listing,,Single Family Residential,2726 Washington Ave,Chevy Chase,MD,20815,2129900,5,4.5,ROCK CREEK FOREST,4718,6412,2025,34,451,,Pre On-Market,,,https://www.redfin.com/MD/Chevy-Chase/2726-Washington-Ave-20815/home/10999567,BRIGHT MLS,MDMC2143944,N,Y,38.99,-77.0576606
MLS Listing,,Condo/Co-op,13611 Sir Thomas Way Unit 1-B-11,Silver Spring,MD,20904,265000,2,2.0,THE VINEYARDS CODM,1055,,1988,35,251,459,Active,,,https://www.redfin.com/MD/Silver-Spring/13611-Sir-Thomas-Way-20904/unit-1-B-11/home/191978930,BRIGHT MLS,MDMC2142378,N,Y,39.0806208,-76.9368066
MLS Listing,,Single Family Residential,9632 Cottrell Ter,Silver Spring,MD,20903,540000,5,2.0,OAKVIEW,1855,6195,1951,35,291,,Active,,,https://www.redfin.com/MD/Silver-Spring/9632-Cottrell-Ter-20903/home/10561372,BRIGHT MLS,MDMC2143996,N,Y,39.01391,-76.9828798
MLS Listing,,Condo/Co-op,3330 N Leisure World Blvd Unit 5-415,Silver Spring,MD,20906,245000,2,2.0,FAIRWAYS SOUTH,980,,1989,36,250,845,Active,,,https://www.redfin.com/MD/Silver-Spring/3330-N-Leisure-World-Blvd-20906/unit-5-415/home/11137707,BRIGHT MLS,MDMC2142740,N,Y,39.1064748,-77.0725457
MLS Listing,,Condo/Co-op,1645 Carriage House Ter Unit B,Silver Spring,MD,20904,235000,1,1.0,TIERS AT SIL SPRG CODM,701,,1986,36,335,488,Active,,,https://www.redfin.com/MD/Silver-Spring/1645-Carriage-House-Ter-20904/unit-B/home/167142541,BRIGHT MLS,MDMC2127356,N,Y,39.0486094,-76.9789012
MLS Listing,,Single Family Residential,114 Geneva Ave,Silver Spring,MD,20910,947000,4,2.0,TAKOMA PARK,1860,9636,1981,36,509,,Active,,,https://www.redfin.com/MD/Silver-Spring/114-Geneva-Ave-20910/home/11116408,BRIGHT MLS,MDMC2143894,N,Y,38.9860873,-77.0069847
MLS Listing,,Single Family Residential,8011 Carroll Ave,Takoma Park,MD,20912,849900,5,4.0,TAKOMA PARK,2412,5760,1947,38,352,,Active,,,https://www.redfin.com/MD/Takoma-Park/8011-Carroll-Ave-20912/home/11150654,BRIGHT MLS,MDMC2137490,N,Y,38.989178,-76.993358
MLS Listing,,Single Family Residential,304 Mansfield Rd,Silver Spring,MD,20910,714900,3,2.5,SLIGO PARK HILLS,1320,6064,1946,38,542,,Active,,,https://www.redfin.com/MD/Silver-Spring/304-Mansfield-Rd-20910/home/10969568,BRIGHT MLS,MDMC2143434,N,Y,38.9992647,-77.0130619
MLS Listing,,Townhouse,12107 Ravenwood Ct,Silver Spring,MD,20902,525000,3,2.5,KEMP MILL FOREST,1280,1500,1986,39,410,75,Active,,,https://www.redfin.com/MD/Silver-Spring/12107-Ravenwood-Ct-20902/home/11123809,BRIGHT MLS,MDMC2142056,N,Y,39.0549945,-77.0224581
MLS Listing,,Townhouse,13316 Sheffield Manor Dr #15,Silver Spring,MD,20904,544900,4,3.5,ASPEN RIDGE CODM*,2666,,2007,39,204,270,Active,September-21-2024 12:00 PM,September-21-2024 03:00 PM,https://www.redfin.com/MD/Silver-Spring/13316-Sheffield-Manor-Dr-20904/unit-15/home/12451215,BRIGHT MLS,MDMC2142628,N,Y,39.0770564,-76.9342344
MLS Listing,,Condo/Co-op,7923 Eastern Ave #406,Silver Spring,MD,20910,379000,2,2.0,AURORA CODM,1094,,1965,39,346,509,Active,,,https://www.redfin.com/MD/Silver-Spring/7923-Eastern-Ave-20910/unit-406/home/23466862,BRIGHT MLS,MDMC2142190,N,Y,38.9865176,-77.0288003
MLS Listing,,Vacant Land,212 Bryants Nursery Rd,Silver Spring,MD,20905,725000,,,COLESVILLE OUTSIDE,,231739,,39,,,Active,,,https://www.redfin.com/MD/Silver-Spring/212-Bryants-Nursery-Rd-20905/home/10580861,BRIGHT MLS,MDMC2143380,N,Y,39.1210821,-77.0018404
MLS Listing,,Condo/Co-op,6 Normandy Square Ct Unit 2CB,Silver Spring,MD,20906,295000,3,2.0,LONGMEAD CROSSING CODM,1043,,1988,40,283,580,Active,,,https://www.redfin.com/MD/Silver-Spring/6-Normandy-Square-Ct-20906/unit-2CB/home/11134804,BRIGHT MLS,MDMC2142972,N,Y,39.1017973,-77.0520277
MLS Listing,,Single Family Residential,9201 Wire Ave,Silver Spring,MD,20901,725000,5,3.0,BRANWELL PARK,2186,8026,1948,40,332,,Active,,,https://www.redfin.com/MD/Silver-Spring/9201-Wire-Ave-20901/home/10954698,BRIGHT MLS,MDMC2141882,N,Y,39.0068236,-77.0108124
MLS Listing,,Condo/Co-op,2901 S Leisure World Blvd #417,Silver Spring,MD,20906,325000,2,2.0,CREEKSIDE @ LEISURE WORLD CODM,1280,,2006,40,254,795,Active,,,https://www.redfin.com/MD/Silver-Spring/2901-S-Leisure-World-Blvd-20906/unit-417/home/11760673,BRIGHT MLS,MDMC2143116,N,Y,39.1056008,-77.0593212
MLS Listing,,Single Family Residential,10702 Glenhaven Dr,Silver Spring,MD,20902,599900,4,2.0,NORTHBROOK ESTATES,1679,7966,1951,40,357,,Active,,,https://www.redfin.com/MD/Silver-Spring/10702-Glenhaven-Dr-20902/home/11060456,BRIGHT MLS,MDMC2141752,N,Y,39.0305421,-77.0415205
MLS Listing,,Single Family Residential,11518 Charlton Dr,Silver Spring,MD,20902,775000,4,3.0,KEMP MILL ESTATES,3200,10149,1961,40,242,,Active,,,https://www.redfin.com/MD/Silver-Spring/11518-Charlton-Dr-20902/home/11051012,BRIGHT MLS,MDMC2141570,N,Y,39.046058,-77.0165103
MLS Listing,,Condo/Co-op,1320 Fenwick Ln #609,Silver Spring,MD,20910,269900,1,1.0,DOWNTOWN SILVER SPRING,569,,2016,41,474,566,Active,,,https://www.redfin.com/MD/Silver-Spring/1320-Fenwick-Ln-20910/unit-609/home/109457586,BRIGHT MLS,MDMC2143024,N,Y,38.9968737,-77.0318435
MLS Listing,,Townhouse,12717 Vuillard St,Silver Spring,MD,20906,650000,3,2.5,GLENMONT METROCENTRE,1472,1098,2019,41,442,80,Active,,,https://www.redfin.com/MD/Silver-Spring/12717-Vuillard-St-20906/home/166457686,BRIGHT MLS,MDMC2143138,N,Y,39.0651277,-77.0500531
MLS Listing,,Condo/Co-op,9804 Georgia Ave Unit 23-301,Silver Spring,MD,20902,229900,2,1.5,AMERICANA FINMARK,1047,,1969,41,220,1000,Active,,,https://www.redfin.com/MD/Silver-Spring/9804-Georgia-Ave-20902/unit-23-301/home/11097823,BRIGHT MLS,MDMC2143324,N,Y,39.0161026,-77.04359
MLS Listing,,Single Family Residential,1116 W Nolcrest Dr,Silver Spring,MD,20903,582000,3,2.0,BURNT MILLS KNOLLS,2207,11749,1956,42,264,,Active,,,https://www.redfin.com/MD/Silver-Spring/1116-W-Nolcrest-Dr-20903/home/10562654,BRIGHT MLS,MDMC2140260,N,Y,39.0326788,-76.9898439
MLS Listing,,Single Family Residential,9900 Colesville Rd,Silver Spring,MD,20901,600000,2,1.0,FAIRWAY,1101,9229,1939,42,545,,Active,,,https://www.redfin.com/MD/Silver-Spring/9900-Colesville-Rd-20901/home/11114712,BRIGHT MLS,MDMC2142880,N,Y,39.0181134,-77.0152776
MLS Listing,,Condo/Co-op,9903 Blundon Dr #202,Silver Spring,MD,20902,230000,2,1.5,AMERICANA FINMARK,1047,,1969,43,220,1097,Active,,,https://www.redfin.com/MD/Silver-Spring/9903-Blundon-Dr-20902/unit-202/home/167214793,BRIGHT MLS,MDMC2142914,N,Y,39.017831,-77.0457675
MLS Listing,,Condo/Co-op,3200 N Leisure World Blvd #507,Silver Spring,MD,20906,320000,2,2.0,VANTAGE POINT EAST @ LEISURE WORLD CODM,1315,,2002,45,243,1311,Active,,,https://www.redfin.com/MD/Silver-Spring/3200-N-Leisure-World-Blvd-20906/unit-507/home/11193710,BRIGHT MLS,MDMC2142804,N,Y,39.1074996,-77.0659178
MLS Listing,,Single Family Residential,9714 Braddock Rd,Silver Spring,MD,20903,525000,4,3.0,OAKVIEW,2272,6058,1951,45,231,,Active,,,https://www.redfin.com/MD/Silver-Spring/9714-Braddock-Rd-20903/home/10561871,BRIGHT MLS,MDMC2134502,N,Y,39.0149762,-76.9825448
MLS Listing,,Single Family Residential,12608 Garden Gate Rd,Silver Spring,MD,20902,704490,6,3.5,GLENFIELD MANOR,2782,13811,1969,45,253,,Active,,,https://www.redfin.com/MD/Silver-Spring/12608-Garden-Gate-Rd-20902/home/11087100,BRIGHT MLS,MDMC2142838,N,Y,39.0636157,-77.0392878
MLS Listing,,Single Family Residential,4305 Garrett Park Rd,Silver Spring,MD,20906,529900,4,2.0,VEIRS MILL VILLAGE,1273,7281,1946,45,416,,Active,,,https://www.redfin.com/MD/Silver-Spring/4305-Garrett-Park-Rd-20906/home/11001936,BRIGHT MLS,MDMC2141650,N,Y,39.0440701,-77.0847107
MLS Listing,,Single Family Residential,4301 Garrett Park Rd,Silver Spring,MD,20906,524900,4,2.0,VEIRS MILL VILLAGE,1465,7870,1946,46,358,,Active,,,https://www.redfin.com/MD/Silver-Spring/4301-Garrett-Park-Rd-20906/home/11004596,BRIGHT MLS,MDMC2142678,N,Y,39.0443484,-77.0845401
MLS Listing,,Single Family Residential,11608 Monticello Ave,Silver Spring,MD,20902,1225000,5,5.5,KEMP MILL FARMS,4367,11356,1965,46,281,,Active,,,https://www.redfin.com/MD/Silver-Spring/11608-Monticello-Ave-20902/home/11074831,BRIGHT MLS,MDMC2142660,N,Y,39.0481558,-77.0300361
MLS Listing,,Condo/Co-op,7923 Eastern Ave #301,Silver Spring,MD,20910,374999,2,2.0,AURORA CODM,966,,1965,47,388,509,Active,,,https://www.redfin.com/MD/Silver-Spring/7923-Eastern-Ave-20910/unit-301/home/23465463,BRIGHT MLS,MDMC2135764,N,Y,38.9865176,-77.0288003
MLS Listing,,Condo/Co-op,2310 Colston Dr Unit C202,Silver Spring,MD,20910,242999,1,1.0,ROCK CREEK APTS CODM 1,720,,1948,47,337,573,Active,,,https://www.redfin.com/MD/Silver-Spring/2310-Colston-Dr-20910/unit-C-202/home/169437153,BRIGHT MLS,MDMC2141806,N,Y,38.9941089,-77.0484985
MLS Listing,,Townhouse,10734 Horde St,Silver Spring,MD,20902,569000,3,2.5,WHEATON OUT RES. (2),2070,1324,2005,47,275,161,Active,,,https://www.redfin.com/MD/Silver-Spring/10734-Horde-St-20902/home/11202147,BRIGHT MLS,MDMC2136720,N,Y,39.0330505,-77.0440662
MLS Listing,,Condo/Co-op,14901 Mckisson Ct Unit 7CA,Silver Spring,MD,20906,264990,2,2.0,LONGMEAD CROSSING CODM,914,,1988,47,290,565,Active,,,https://www.redfin.com/MD/Silver-Spring/14901-McKisson-Ct-20906/unit-7CA/home/11136631,BRIGHT MLS,MDMC2142444,N,Y,39.103241,-77.051759
MLS Listing,,Single Family Residential,808 Tanley Rd,Silver Spring,MD,20904,675000,3,2.0,ROCKY BROOK PARK,1576,20178,1938,48,428,,Active,,,https://www.redfin.com/MD/Silver-Spring/808-Tanley-Rd-20904/home/10564009,BRIGHT MLS,MDMC2142096,N,Y,39.0517463,-76.9953845
MLS Listing,,Single Family Residential,9214 Kingsbury Dr,Silver Spring,MD,20910,1150000,4,4.0,SEVEN OAKS,2975,12365,1950,48,387,,Active,,,https://www.redfin.com/MD/Silver-Spring/9214-Kingsbury-Dr-20910/home/10966217,BRIGHT MLS,MDMC2140154,N,Y,39.0058434,-77.0213162
MLS Listing,,Single Family Residential,911 Kerwin Rd,Silver Spring,MD,20901,779000,4,3.0,BALLANTRAE,2550,6426,1952,49,305,,Active,,,https://www.redfin.com/MD/Silver-Spring/911-Kerwin-Rd-20901/home/11036370,BRIGHT MLS,MDMC2142166,N,Y,39.0277272,-77.026157
MLS Listing,,Condo/Co-op,7923 Eastern Ave #202,Silver Spring,MD,20910,374000,2,2.0,AURORA CODM,1103,,1965,49,339,509,Active,,,https://www.redfin.com/MD/Silver-Spring/7923-Eastern-Ave-20910/unit-202/home/23466858,BRIGHT MLS,MDMC2142234,N,Y,38.9865176,-77.0288003
MLS Listing,,Condo/Co-op,614 Sligo Ave #211,Silver Spring,MD,20910,177500,1,1.0,THE CAROLYN,890,,1966,49,199,889,Active,,,https://www.redfin.com/MD/Silver-Spring/614-Sligo-Ave-20910/unit-211/home/11096610,BRIGHT MLS,MDMC2141946,N,Y,38.9908682,-77.0137735
MLS Listing,,Multi-Family (2-4 Unit),912 Prospect,Takoma Park,MD,20912,625000,5,3.0,FLOWER AVE PARK,2040,6084,1953,49,306,,Active,,,https://www.redfin.com/MD/Takoma-Park/912-Prospect-St-20912/home/10957878,BRIGHT MLS,MDMC2142024,N,Y,38.9897599,-76.9982318
MLS Listing,,Vacant Land,0 Parkman Rd,Silver Spring,MD,20903,295000,,,HILLANDALE,,12032,,49,,,Active,,,https://www.redfin.com/MD/Silver-Spring/Parkman-Rd-20903/home/21681907,BRIGHT MLS,MDMC2140862,N,Y,39.087633,-77.004868
MLS Listing,,Townhouse,1305 Alderton Ln,Silver Spring,MD,20906,415000,3,1.5,BONIFANT WOODS,1458,1500,1983,50,285,122,Active,,,https://www.redfin.com/MD/Silver-Spring/1305-Alderton-Ln-20906/home/11115923,BRIGHT MLS,MDMC2141184,N,Y,39.0890301,-77.0299314
MLS Listing,,Townhouse,1782 East West #1782,Silver Spring,MD,20910,316999,2,1.0,CHEVY CHASE CREST,750,,1950,50,423,479,Active,,,https://www.redfin.com/MD/Silver-Spring/1782-E-West-Hwy-20910/unit-1782/home/11092988,BRIGHT MLS,MDMC2141698,N,Y,38.9954251,-77.0394368
MLS Listing,,Condo/Co-op,575 Thayer Ave #801,Silver Spring,MD,20910,169900,1,1.0,THAYER TOWERS,689,,1960,50,247,635,Active,,,https://www.redfin.com/MD/Silver-Spring/575-Thayer-Ave-20910/unit-801/home/11095511,BRIGHT MLS,MDMC2141416,N,Y,38.9937187,-77.0173583
MLS Listing,,Condo/Co-op,3005 S Leisure World Blvd S #806,Silver Spring,MD,20906,229000,2,2.0,TURNBERRY COURTS AT LEISURE WORLD CODM,1035,,1999,51,221,1197,Active,,,https://www.redfin.com/MD/Silver-Spring/3005-S-Leisure-World-Blvd-20906/unit-806/home/11170489,BRIGHT MLS,MDMC2141846,N,Y,39.103644,-77.060706
MLS Listing,,Townhouse,14636 Tynewick Ter Unit 3-1463,Silver Spring,MD,20906,450000,4,3.5,GEORGIAN COLONIES #4,1321,1321,1976,51,341,334,Active,,,https://www.redfin.com/MD/Silver-Spring/14636-Tynewick-Ter-20906/unit-3-1463/home/11100397,BRIGHT MLS,MDMC2139142,N,Y,39.096479,-77.07743
MLS Listing,,Condo/Co-op,3100 N Leisure World Blvd #708,Silver Spring,MD,20906,430000,2,2.0,OVERLOOK AT LEISURE WORLD CODM,1520,,2004,51,283,927,Active,,,https://www.redfin.com/MD/Silver-Spring/3100-N-Leisure-World-Blvd-20906/unit-708/home/11206096,BRIGHT MLS,MDMC2139042,N,Y,39.1058724,-77.0641793
MLS Listing,,Single Family Residential,227 Hannes St,Silver Spring,MD,20901,550000,4,2.0,NORTHWOOD PARK VIEW,1620,7102,1962,54,340,,Active,,,https://www.redfin.com/MD/Silver-Spring/227-Hannes-St-20901/home/11060667,BRIGHT MLS,MDMC2141292,N,Y,39.0352916,-77.0148776
MLS Listing,,Single Family Residential,12310 Middle Rd,Silver Spring,MD,20906,514800,5,3.0,VEIRS MILL VILLAGE,2192,7355,1946,54,235,,Active,,,https://www.redfin.com/MD/Silver-Spring/12310-Middle-Rd-20906/home/11002889,BRIGHT MLS,MDMC2140444,N,Y,39.0576547,-77.089141
MLS Listing,,Townhouse,9219 Three Oaks Dr,Silver Spring,MD,20901,635000,4,3.0,SLIGO PARK HILLS TH,2085,1404,1967,54,305,217,Active,,,https://www.redfin.com/MD/Silver-Spring/9219-Three-Oaks-Dr-20901/home/10969921,BRIGHT MLS,MDMC2140704,N,Y,39.0054764,-77.0134283
MLS Listing,,Condo/Co-op,930 Wayne Ave #404,Silver Spring,MD,20910,290000,1,1.0,CRESCENT CODM*,645,,2006,55,450,375,Active,,,https://www.redfin.com/MD/Silver-Spring/930-Wayne-Ave-20910/unit-404/home/11760882,BRIGHT MLS,MDMC2139516,N,Y,38.9946163,-77.0252154
MLS Listing,,Townhouse,1824 E West Hwy #1824,Silver Spring,MD,20910,310000,2,1.0,CHEVY CHASE CREST,750,,1950,55,413,480,Active,,,https://www.redfin.com/MD/Silver-Spring/1824-E-West-Hwy-20910/unit-1824/home/11093066,BRIGHT MLS,MDMC2141494,N,Y,38.9957768,-77.0400784
MLS Listing,,Single Family Residential,2001 Linden Ln,Silver Spring,MD,20910,749999,3,2.5,MONTGOMERY HILLS,2320,6414,1948,56,323,,Active,,,https://www.redfin.com/MD/Silver-Spring/2001-Linden-Ln-20910/home/10964115,BRIGHT MLS,MDMC2140520,N,Y,39.0092673,-77.0442355
MLS Listing,,Condo/Co-op,3301 Hewitt Ave #508,Silver Spring,MD,20906,125000,2,2.0,HERITAGE WOODS,953,,1973,58,131,,Active,,,https://www.redfin.com/MD/Silver-Spring/3301-Hewitt-Ave-20906/unit-508/home/11092349,BRIGHT MLS,MDMC2141128,N,Y,39.0799697,-77.0671936
MLS Listing,,Single Family Residential,12416 Loft Ln,Silver Spring,MD,20904,670000,6,3.5,ROLLING ACRES,3090,8276,1985,58,217,,Active,,,https://www.redfin.com/MD/Silver-Spring/12416-Loft-Ln-20904/home/10582317,BRIGHT MLS,MDMC2126822,N,Y,39.0606971,-76.9744145
MLS Listing,,Condo/Co-op,9900 Georgia Ave Unit 27-T9,Silver Spring,MD,20902,199000,1,1.0,AMERICANA FINMARK,907,,1969,58,219,920,Active,,,https://www.redfin.com/MD/Silver-Spring/9900-Georgia-Ave-20902/unit-27-T9/home/191754767,BRIGHT MLS,MDMC2141072,N,Y,39.0181476,-77.0446914
MLS Listing,,Condo/Co-op,3005 S Leisure World Blvd #207,Silver Spring,MD,20906,280000,2,2.0,TURNBERRY COURTS AT LEISURE WORLD CODM,1466,,1999,60,191,1620,Active,,,https://www.redfin.com/MD/Silver-Spring/3005-S-Leisure-World-Blvd-20906/unit-207/home/11170638,BRIGHT MLS,MDMC2140968,N,Y,39.103644,-77.060706
MLS Listing,,Single Family Residential,10404 Grandin Rd,Silver Spring,MD,20902,499000,2,1.0,CAMERON HEIGHTS,1198,8024,1949,60,417,,Active,,,https://www.redfin.com/MD/Silver-Spring/10404-Grandin-Rd-20902/home/10981374,BRIGHT MLS,MDMC2140632,N,Y,39.0273082,-77.0395759
MLS Listing,,Single Family Residential,613 Sligo Ave,Silver Spring,MD,20910,979900,4,3.5,BLAIR,3200,6420,1935,61,306,,Active,,,https://www.redfin.com/MD/Silver-Spring/613-Sligo-Ave-20910/home/10954331,BRIGHT MLS,MDMC2134880,N,Y,38.9914477,-77.0137564
MLS Listing,,Condo/Co-op,3820 Chesterwood Dr #3820,Silver Spring,MD,20906,324500,2,1.5,MONTGOMERY CHASE CODM,1310,,1983,61,248,211,Active,,,https://www.redfin.com/MD/Silver-Spring/3820-Chesterwood-Dr-20906/unit-3820/home/11210497,BRIGHT MLS,MDMC2139750,N,Y,39.0872607,-77.0766262
MLS Listing,,Single Family Residential,9915 E Light Dr E,Silver Spring,MD,20903,575000,3,2.0,OAKVIEW,2050,23522,1954,62,280,,Active,,,https://www.redfin.com/MD/Silver-Spring/9915-E-Light-Dr-20903/home/10560845,BRIGHT MLS,MDMC2139320,N,Y,39.0192365,-76.9829702
MLS Listing,,Single Family Residential,8005 Barron St,Takoma Park,MD,20912,649000,4,2.0,KILMAROCK,1806,6983,1938,62,359,,Active,,,https://www.redfin.com/MD/Takoma-Park/8005-Barron-St-20912/home/11058808,BRIGHT MLS,MDMC2139642,N,Y,38.9893687,-76.994596
MLS Listing,,Single Family Residential,9509 Wire Ave,Silver Spring,MD,20901,900000,7,4.5,INDIAN SPRING TERRACE,3347,7500,1948,64,269,,Active,,,https://www.redfin.com/MD/Silver-Spring/9509-Wire-Ave-20901/home/10960959,BRIGHT MLS,MDMC2139932,N,Y,39.0121919,-77.0100185
MLS Listing,,Single Family Residential,1009 Roswell Dr,Silver Spring,MD,20901,629000,4,3.0,SUNSET TERRACE,2267,6655,1951,67,277,,Active,,,https://www.redfin.com/MD/Silver-Spring/1009-Roswell-Dr-20901/home/11030714,BRIGHT MLS,MDMC2133870,N,Y,39.0220193,-77.0269178
MLS Listing,,Condo/Co-op,8045 Newell St #105,Silver Spring,MD,20910,245000,1,1.0,8045 AT SILVER SPRING METRO,568,,2005,68,431,300,Active,,,https://www.redfin.com/MD/Silver-Spring/8045-Newell-St-20910/unit-105/home/11207822,BRIGHT MLS,MDMC2138022,N,Y,38.9884212,-77.0296203
MLS Listing,,Condo/Co-op,9800 Georgia Ave Unit 25-302,Silver Spring,MD,20902,180000,1,1.0,AMERICANA FINMARK,775,,1969,70,232,830,Active,,,https://www.redfin.com/MD/Silver-Spring/9800-Georgia-Ave-20902/unit-25-302/home/11097892,BRIGHT MLS,MDMC2139460,N,Y,39.0158592,-77.0434681
MLS Listing,,Townhouse,8333 Navahoe Dr,Silver Spring,MD,20903,439000,3,2.5,NEW HAMPSHIRE,1150,3750,1950,70,382,,Active,,,https://www.redfin.com/MD/Silver-Spring/8333-Navahoe-Dr-20903/home/10973751,BRIGHT MLS,MDPG2117268,N,Y,38.9961669,-76.9871339
MLS Listing,,Condo/Co-op,3850 Clara Downey Ave #24,Silver Spring,MD,20906,370500,2,2.0,NORBECK CROSSING,1040,,2014,71,356,446,Active,,,https://www.redfin.com/MD/Silver-Spring/3850-Clara-Downey-Ave-20906/unit-24/home/56362661,BRIGHT MLS,MDMC2139248,N,Y,39.11249,-77.073506
MLS Listing,,Condo/Co-op,1320 Fenwick Ln #312,Silver Spring,MD,20910,259900,1,1.0,DOWNTOWN SILVER SPRING,549,,2016,71,473,556,Active,,,https://www.redfin.com/MD/Silver-Spring/1320-Fenwick-Ln-20910/unit-312/home/113112516,BRIGHT MLS,MDMC2138322,N,Y,38.9968737,-77.0318435
MLS Listing,,Single Family Residential,7906 Garland Ave,Takoma Park,MD,20912,689000,3,3.0,FLOWER AVE PARK,2175,4473,1940,74,317,,Active,,,https://www.redfin.com/MD/Takoma-Park/7906-Garland-Ave-20912/home/10957949,BRIGHT MLS,MDMC2132036,N,Y,38.9888605,-76.9985406
MLS Listing,,Vacant Land,12503 Meadowood Dr,Silver Spring,MD,20904,295000,,,MEADOWOOD,,50043,,77,,,Active,,,https://www.redfin.com/MD/Silver-Spring/12503-Meadowood-Dr-20904/home/10560494,BRIGHT MLS,MDMC2138190,N,Y,39.061803,-77.005664
MLS Listing,,Vacant Land,1252 Cresthaven Dr,Silver Spring,MD,20903,295000,,,COLESVILLE OUTSIDE,,21304,,77,,,Active,,,https://www.redfin.com/MD/Silver-Spring/1252-Cresthaven-Dr-20903/home/10557379,BRIGHT MLS,MDMC2138200,N,Y,39.0288139,-76.987021
MLS Listing,,Vacant Land,1254 Cresthaven Dr,Silver Spring,MD,20903,295000,,,COLESVILLE OUTSIDE,,16503,,77,,,Active,,,https://www.redfin.com/MD/Silver-Spring/1254-Cresthaven-Dr-20903/home/178426061,BRIGHT MLS,MDMC2138204,N,Y,39.0289783,-76.9863802
MLS Listing,,Condo/Co-op,3210 N Leisure World Blvd #817,Silver Spring,MD,20906,399000,3,2.0,VANTAGE POINT WEST AT LEISURE WORLD,1489,,2001,78,268,1223,Active,,,https://www.redfin.com/MD/Silver-Spring/3210-N-Leisure-World-Blvd-20906/unit-817/home/11187150,BRIGHT MLS,MDMC2138518,N,Y,39.1084747,-77.0669889
MLS Listing,,Single Family Residential,8605 Barron St,Takoma Park,MD,20912,560000,3,2.0,ROLLING TERRACE,2104,6486,1951,78,266,,Active,,,https://www.redfin.com/MD/Takoma-Park/8605-Barron-St-20912/home/11001067,BRIGHT MLS,MDMC2137838,N,Y,38.9971063,-76.9970711
MLS Listing,,Condo/Co-op,3835 Doc Berlin Dr #33,Silver Spring,MD,20906,419500,2,2.0,NORBECK CROSSING,1150,,2017,81,365,512,Active,,,https://www.redfin.com/MD/Silver-Spring/3835-Doc-Berlin-Dr-20906/unit-33/home/85694984,BRIGHT MLS,MDMC2137904,N,Y,39.113676,-77.074161
MLS Listing,,Condo/Co-op,3346 Hewitt Ave #82,Silver Spring,MD,20906,240000,2,1.5,WESTCHESTER WEST,982,,1968,83,244,498,Active,,,https://www.redfin.com/MD/Silver-Spring/3346-Hewitt-Ave-20906/unit-82/home/191284799,BRIGHT MLS,MDMC2137406,N,Y,39.0792627,-77.0666194
MLS Listing,,Townhouse,3457 Hewitt Ave #203,Silver Spring,MD,20906,299000,2,2.0,THE MONTEREY CODM,1184,,1988,83,253,650,Active,,,https://www.redfin.com/MD/Silver-Spring/3457-Hewitt-Ave-20906/unit-203/home/11135290,BRIGHT MLS,MDMC2134248,N,Y,39.078676,-77.069683
MLS Listing,,Single Family Residential,9505 Garwood St,Silver Spring,MD,20901,1099000,5,3.5,INDIAN SPRING PARK,3550,5375,2024,87,310,,Active,,,https://www.redfin.com/MD/Silver-Spring/9505-Garwood-St-20901/home/190021027,BRIGHT MLS,MDMC2137444,N,Y,39.011831,-77.003491
MLS Listing,,Townhouse,3256 Gleneagles Dr Unit 104-E,Silver Spring,MD,20906,374900,2,2.5,ROSSMOOR MUTUAL #8,1445,,1970,88,259,906,Active,,,https://www.redfin.com/MD/Silver-Spring/3256-Gleneagles-Dr-20906/unit-104E/home/11088471,BRIGHT MLS,MDMC2136464,N,Y,39.1011281,-77.0664298
MLS Listing,,Condo/Co-op,9205 New Hampshire Ave Unit A-1,Silver Spring,MD,20903,194999,3,1.5,PRESIDENTIAL PARK CONDO,1207,,1964,89,162,866,Active,,,https://www.redfin.com/MD/Silver-Spring/9205-New-Hampshire-Ave-20903/unit-A1/home/23234444,BRIGHT MLS,MDPG2114714,N,Y,39.0053772,-76.9799276
MLS Listing,,Condo/Co-op,1320 Fenwick Ln #206,Silver Spring,MD,20910,249900,1,1.0,DOWNTOWN SILVER SPRING,460,,2016,90,543,458,Active,,,https://www.redfin.com/MD/Silver-Spring/1320-Fenwick-Ln-20910/unit-206/home/108579932,BRIGHT MLS,MDMC2136518,N,Y,38.9968737,-77.0318435
MLS Listing,,Condo/Co-op,1201 East West Hwy #330,Silver Spring,MD,20910,345000,1,1.0,SILVERTON CODM,823,,2006,90,419,480,Active,,,https://www.redfin.com/MD/Silver-Spring/1201-E-West-Hwy-20910/unit-330/home/11760614,BRIGHT MLS,MDMC2137004,N,Y,38.9907945,-77.0293535
MLS Listing,,Condo/Co-op,9900 Georgia Ave Unit 27-702,Silver Spring,MD,20902,199500,1,1.0,AMERICANA FINMARK,904,,1969,94,221,920,Active,,,https://www.redfin.com/MD/Silver-Spring/9900-Georgia-Ave-20902/unit-27-702/home/11098243,BRIGHT MLS,MDMC2134208,N,Y,39.0181476,-77.0446914
MLS Listing,,Condo/Co-op,605 Hudson Ave #218,Takoma Park,MD,20912,250000,1,1.0,SLIGO STATION,767,,1986,94,326,300,Active,,,https://www.redfin.com/MD/Takoma-Park/605-Hudson-Ave-20912/unit-218/home/187412026,BRIGHT MLS,MDMC2136716,N,Y,38.9921577,-77.004941
MLS Listing,,Single Family Residential,3014 Gazebo Ct,Silver Spring,MD,20904,599999,5,3.0,CALVERTON,2157,8760,1987,98,278,,Active,,,https://www.redfin.com/MD/Silver-Spring/3014-Gazebo-Ct-20904/home/10588108,BRIGHT MLS,MDMC2134686,N,Y,39.0543093,-76.9472485
MLS Listing,,Single Family Residential,514 Silver Spring Ave,Silver Spring,MD,20910,699900,4,3.5,BLAIR,1920,11730,1936,98,365,,Active,,,https://www.redfin.com/MD/Silver-Spring/514-Silver-Spring-Ave-20910/home/10953875,BRIGHT MLS,MDMC2134996,N,Y,38.9922662,-77.0130956
MLS Listing,,Single Family Residential,1011 Rosemere Ave,Silver Spring,MD,20904,565000,5,4.0,HOLLYWOOD PARK,1508,11374,1966,98,375,,Active,,,https://www.redfin.com/MD/Silver-Spring/1011-Rosemere-Ave-20904/home/10560081,BRIGHT MLS,MDMC2136016,N,Y,39.0649749,-76.9911245
MLS Listing,,Single Family Residential,8028 Eastern Ave NW,Washington,DC,20012,920000,4,2.5,Shepherd Park,1934,5000,1952,103,476,,Active,,,https://www.redfin.com/DC/Washington/8028-Eastern-Ave-NW-20012/home/10021555,BRIGHT MLS,DCDC2142346,N,Y,38.9875576,-77.0307864
MLS Listing,,Condo/Co-op,9824 Georgia Ave Unit 18-101,Silver Spring,MD,20902,225000,2,1.5,AMERICANA FINMARK,1047,,1969,103,215,1097,Active,,,https://www.redfin.com/MD/Silver-Spring/9824-Georgia-Ave-20902/unit-18-101/home/11097661,BRIGHT MLS,MDMC2134332,N,Y,39.0172745,-77.044043
MLS Listing,,Single Family Residential,13116 Estelle Rd,Silver Spring,MD,20906,550000,4,2.5,GREENWOOD KNOLLS,1525,6899,1959,105,361,,Active,,,https://www.redfin.com/MD/Silver-Spring/13116-Estelle-Rd-20906/home/11046279,BRIGHT MLS,MDMC2133756,N,Y,39.0713512,-77.0668493
MLS Listing,,Condo/Co-op,3100 N Leisure World Blvd #823,Silver Spring,MD,20906,274900,1,1.5,OVERLOOK AT LEISURE WORLD CODM,930,,2004,109,296,696,Active,,,https://www.redfin.com/MD/Silver-Spring/3100-N-Leisure-World-Blvd-20906/unit-823/home/11204009,BRIGHT MLS,MDMC2134508,N,Y,39.1058724,-77.0641793
MLS Listing,,Condo/Co-op,13701 Modrad Way #9,Silver Spring,MD,20904,224900,2,2.0,THE VINEYARDS CODM,950,,1988,111,237,421,Active,,,https://www.redfin.com/MD/Silver-Spring/13701-Modrad-Way-20904/unit-9/home/10600973,BRIGHT MLS,MDMC2131650,N,Y,39.0815802,-76.9365368
MLS Listing,,Single Family Residential,2000 Wallace Ave,Silver Spring,MD,20902,849900,4,1.5,GLEN ALLEN,1785,43958,1938,111,476,,Active,,,https://www.redfin.com/MD/Silver-Spring/2000-Wallace-Ave-20902/home/11058021,BRIGHT MLS,MDMC2133816,N,Y,39.0592209,-77.0430099
MLS Listing,,Condo/Co-op,8830 Piney Branch Rd #1205,Silver Spring,MD,20903,158000,3,2.0,PINEWAY TOWERS CODM,1277,,1971,116,124,1115,Active,,,https://www.redfin.com/MD/Silver-Spring/8830-Piney-Branch-Rd-20903/unit-1205/home/11102413,BRIGHT MLS,MDMC2127018,N,Y,39.000622,-76.9929566
MLS Listing,,Single Family Residential,9711 Braddock,Silver Spring,MD,20903,599900,8,3.0,OAKVIEW,3198,6534,1951,118,188,,Active,,,https://www.redfin.com/MD/Silver-Spring/9711-Braddock-Rd-20903/home/10561670,BRIGHT MLS,MDMC2125612,N,Y,39.0145611,-76.9825769
MLS Listing,,Single Family Residential,410 Norwood Rd,Silver Spring,MD,20905,1197000,0,,COLESVILLE OUTSIDE,,283576,1853,124,,,Active,,,https://www.redfin.com/MD/Silver-Spring/410-Norwood-Rd-20905/home/10558081,BRIGHT MLS,MDMC2130012,N,Y,39.1145245,-77.0196547
MLS Listing,,Condo/Co-op,3910 Doc Berlin Dr #14,Silver Spring,MD,20906,419000,2,2.0,NORBECK CROSSING,1040,,2016,134,403,400,Active,,,https://www.redfin.com/MD/Silver-Spring/3910-Doc-Berlin-Dr-20906/unit-14/home/104458775,BRIGHT MLS,MDMC2130986,N,Y,39.1133342,-77.0734231
MLS Listing,,Condo/Co-op,575 Thayer Ave #404,Silver Spring,MD,20910,185000,1,1.0,THAYER TOWERS,689,,1960,137,269,628,Active,,,https://www.redfin.com/MD/Silver-Spring/575-Thayer-Ave-20910/unit-404/home/11095427,BRIGHT MLS,MDMC2130124,N,Y,38.993716,-77.0173741
MLS Listing,,Single Family Residential,2908 Dawson Ave,Silver Spring,MD,20902,555000,5,2.0,WHEATON HILLS,1941,6900,1949,152,286,,Active,,,https://www.redfin.com/MD/Silver-Spring/2908-Dawson-Ave-20902/home/11006223,BRIGHT MLS,MDMC2125614,N,Y,39.0453798,-77.0604714
MLS Listing,,Single Family Residential,1021 E Randolph Rd,Silver Spring,MD,20904,1375000,6,5.5,Silver Spring,4717,12196,2024,167,291,,Active,,,https://www.redfin.com/MD/Silver-Spring/1021-E-Randolph-Rd-20904/home/166106377,BRIGHT MLS,MDMC2126050,N,Y,39.0743284,-76.9918618
MLS Listing,,Condo/Co-op,1220 Blair Mill Rd #201,Silver Spring,MD,20910,244900,1,1.0,MICA CODM @ SILVER SPRING METRO,860,,2006,179,285,886,Active,,,https://www.redfin.com/MD/Silver-Spring/1220-Blair-Mill-Rd-20910/unit-201/home/11760705,BRIGHT MLS,MDMC2121680,N,Y,38.9894679,-77.0301341
MLS Listing,,Vacant Land,Holman Ave,Silver Spring,MD,20910,600000,,,FOREST GLEN INV CO,,20000,,193,,,Active,,,https://www.redfin.com/MD/Silver-Spring/Holman-Ave-20910/home/189919052,BRIGHT MLS,MDMC2121778,N,Y,39.01557835,-77.05319842
MLS Listing,,Single Family Residential,9138 Eton Rd,Silver Spring,MD,20901,1099000,4,2.5,HIGHLAND VIEW,3550,7150,2024,214,310,,Active,,,https://www.redfin.com/MD/Silver-Spring/9138-Eton-Rd-20901/home/174564989,BRIGHT MLS,MDMC2120610,N,Y,39.006256,-77.009755
MLS Listing,,Condo/Co-op,14905 Pennfield Cir Unit 2A,Silver Spring,MD,20906,299900,2,2.0,ROSSMOOR MUTUAL 6-B CODM,1391,,1976,227,216,908,Active,,,https://www.redfin.com/MD/Silver-Spring/14905-Pennfield-Cir-20906/unit-2A/home/11111536,BRIGHT MLS,MDMC2117704,N,Y,39.0994967,-77.0757502
MLS Listing,,Condo/Co-op,15015 Haslemere Ct,Silver Spring,MD,20906,410000,3,2.0,ROSSMOOR MUTUAL #12,1194,,1975,288,343,888,Active,,,https://www.redfin.com/MD/Silver-Spring/15015-Haslemere-Ct-20906/home/188594505,BRIGHT MLS,MDMC2113560,N,Y,39.102052,-77.0630363
MLS Listing,,Condo/Co-op,614 Sligo Ave #209,Silver Spring,MD,20910,220000,2,1.0,THE CAROLYN,978,,1966,292,225,1048,Active,,,https://www.redfin.com/MD/Silver-Spring/614-Sligo-Ave-20910/unit-209/home/11096601,BRIGHT MLS,MDMC2114318,N,Y,38.9908682,-77.0137735
MLS Listing,,Single Family Residential,2704 Harris Ave,Silver Spring,MD,20902,466100,3,1.5,WHEATONCREST,1096,6900,1951,298,425,,Active,,,https://www.redfin.com/MD/Silver-Spring/2704-Harris-Ave-20902/home/11005190,BRIGHT MLS,MDMC2103404,N,Y,39.0506012,-77.0561609
MLS Listing,,Vacant Land,12817 Georgia Ave,Silver Spring,MD,20906,825000,,,WHEATON OUT RES. (2),,38388,,320,,,Active,,,https://www.redfin.com/MD/Silver-Spring/12817-Georgia-Ave-20906/home/10951959,BRIGHT MLS,MDMC2112276,N,Y,39.066586,-77.058823
MLS Listing,,Condo/Co-op,8601 Manchester Rd #214,Silver Spring,MD,20901,149900,1,1.0,PARK BRADFORD,690,,1958,347,217,645,Active,,,https://www.redfin.com/MD/Silver-Spring/8601-Manchester-Rd-20901/unit-214/home/11103384,BRIGHT MLS,MDMC2109626,N,Y,38.9988865,-77.007606
MLS Listing,,Single Family Residential,13727 Notley Rd,Silver Spring,MD,20904,1499475,0,,COLESVILLE OUTSIDE,1641,108900,1941,370,914,,Active,,,https://www.redfin.com/MD/Silver-Spring/13727-Notley-Rd-20904/home/10556457,BRIGHT MLS,MDMC2107342,N,Y,39.0820066,-77.0037149
MLS Listing,,Single Family Residential,13733 Notley Rd,Silver Spring,MD,20904,1499475,0,,COLESVILLE OUTSIDE,2044,108900,1941,370,734,,Active,,,https://www.redfin.com/MD/Silver-Spring/13733-Notley-Rd-20904/home/10556091,BRIGHT MLS,MDMC2107340,N,Y,39.0820053,-77.0042211
MLS Listing,,Vacant Land,1415 Smith Village Rd,Silver Spring,MD,20904,1000000,,,COLESVILLE OUTSIDE,,94525,,392,,,Active,,,https://www.redfin.com/MD/Silver-Spring/1415-Smith-Village-Rd-20904/home/10558312,BRIGHT MLS,MDMC2104814,N,Y,39.072875,-76.982496
MLS Listing,,Vacant Land,11300 Stewart Ln,Silver Spring,MD,20904,300000,,,COLESVILLE OUTSIDE,,87120,,400,,,Active,,,https://www.redfin.com/MD/Silver-Spring/11300-Stewart-Ln-20904/home/10558778,BRIGHT MLS,MDMC2103952,N,Y,39.041441,-76.979108
MLS Listing,,Single Family Residential,8426 Piney Branch Rd,Silver Spring,MD,20901,2900000,3,1.5,CISSELS ADD,3856,6129,1943,406,752,,Active,,,https://www.redfin.com/MD/Silver-Spring/8426-Piney-Branch-Rd-20901/home/11070222,BRIGHT MLS,MDMC2102990,N,Y,38.9980723,-77.0046786
MLS Listing,,Vacant Land,0 Briggs Chaney Rd,Silver Spring,MD,20905,30000,,,COLESVILLE OUTSIDE,,14934,,462,,,Active,,,https://www.redfin.com/MD/Silver-Spring/0-Briggs-Chaney-RD-20905/home/185759357,BRIGHT MLS,MDMC2096842,N,Y,39.08530273,-76.95260243
MLS Listing,,Single Family Residential,14208 Bennett Rd,Silver Spring,MD,20906,849900,3,2.5,WHEATON OUT RES. (1),2200,7840,2024,468,386,,Active,,,https://www.redfin.com/MD/Silver-Spring/14208-Bennett-20906/home/185545093,BRIGHT MLS,MDMC2093572,N,Y,39.08922,-77.03325
MLS Listing,,Vacant Land,212 Heil Rd,Silver Spring,MD,20905,650000,,,COLESVILLE OUTSIDE,,64294,,1423,,,Active,,,https://www.redfin.com/MD/Silver-Spring/212-Heil-Rd-20905/home/22013089,BRIGHT MLS,MDMC723464,N,Y,39.098835,-77.004594
For-Sale-by-Owner Listing,,Single Family Residential,9925 Georgia Ave,Silver Spring,MD,20902,600000,4,5.0,Silver Spring,2578,7840,1956,109,233,,Active,,,https://www.redfin.com/MD/Silver-Spring/9925-Georgia-Ave-20902/home/11039549,Fizber.com,11536268,N,Y,39.0192469,-77.0435608
