SALE TYPE,SOLD DATE,PROPERTY TYPE,ADDRESS,CITY,STATE OR PROVINCE,ZIP OR POSTAL CODE,PRICE,BEDS,BATHS,LOCATION,SQUARE FEET,LOT SIZE,YEAR BUILT,DAYS ON MARKET,$/SQUARE FEET,HOA/MONTH,STATUS,NEXT OPEN HOUSE START TIME,NEXT OPEN HOUSE END TIME,URL (SEE https://www.redfin.com/buy-a-home/comparative-market-analysis FOR INFO ON PRICING),SOURCE,MLS#,FAVORITE,INTERESTED,LATITUDE,LONGITUDE
MLS Listing,,Single Family Residential,2200 S Hawthorne Ave,Sioux Falls,SD,57105-3511,215000,3,1.0,Pettigrew & Tate 4th,1102,6068,1946,1,195,,Active,September-20-2024 04:00 PM,September-20-2024 05:00 PM,https://www.redfin.com/SD/Sioux-Falls/2200-S-Hawthorne-Ave-57105/home/136106278,REALTOR® Association of the Sioux Empire,22406738,N,Y,43.5256504,-96.7484317
MLS Listing,,Condo/Co-op,2501 S Kiwanis Ave #301,Sioux Falls,SD,57105,182400,2,2.0,Country Club Hills Tract,1077,2178,1972,1,169,407,Active,,,https://www.redfin.com/SD/Sioux-Falls/2501-S-Kiwanis-Ave-57105/unit-301/home/136403230,REALTOR® Association of the Sioux Empire,22406858,N,Y,43.5228546,-96.761409
MLS Listing,,Townhouse,108 N Bryggen Pl,Sioux Falls,SD,57107,685000,3,2.5,Cherry Lake Reserve,2680,7470,2024,1,256,158,Active,,,https://www.redfin.com/SD/Sioux-Falls/108-N-Bryggen-Pl-57107/home/192595534,REALTOR® Association of the Sioux Empire,22406855,N,Y,43.5464569,-96.831325
MLS Listing,,Townhouse,4109 W Newcomb Dr,Sioux Falls,SD,57106,324900,4,3.0,River Run Addn,2084,9387,2002,1,156,,Active,,,https://www.redfin.com/SD/Sioux-Falls/4109-W-Newcomb-Dr-57106/home/136741139,REALTOR® Association of the Sioux Empire,22406846,N,Y,43.5390233,-96.7731146
MLS Listing,,Townhouse,1201 E 61st St,Sioux Falls,SD,57108,292000,2,2.0,Bradfelt Park Estate,1695,9670,1997,1,172,,Active,,,https://www.redfin.com/SD/Sioux-Falls/1201-E-61st-St-57108/home/165694715,REALTOR® Association of the Sioux Empire,22406845,N,Y,43.4958104,-96.7073122
MLS Listing,,Single Family Residential,5612 W Dardanella Rd,Sioux Falls,SD,57106,314900,3,2.0,Silver Valley 3rd,1743,8250,1984,1,181,,Active,,,https://www.redfin.com/SD/Sioux-Falls/5612-W-Dardanella-Rd-57106/home/136405755,REALTOR® Association of the Sioux Empire,22406843,N,Y,43.5374847,-96.7953982
MLS Listing,,Single Family Residential,2017 S Fox Trl,Sioux Falls,SD,57103,290000,3,2.0,Huntington Hills Add,1827,9433,1982,1,159,,Active,,,https://www.redfin.com/SD/Sioux-Falls/2017-S-Fox-Trl-57103/home/136673497,REALTOR® Association of the Sioux Empire,22406842,N,Y,43.526474,-96.6804004
MLS Listing,,Single Family Residential,1312 S Blauvelt Ave,Sioux Falls,SD,57105,285000,3,1.0,Riverdale 2nd Addn,1092,7920,1956,1,261,,Active,September-22-2024 03:30 PM,September-22-2024 04:30 PM,https://www.redfin.com/SD/Sioux-Falls/1312-S-Blauvelt-Ave-57105/home/136741106,REALTOR® Association of the Sioux Empire,22406841,N,Y,43.5341715,-96.706069
MLS Listing,,Townhouse,3612 S Chalice Pl,Sioux Falls,SD,57106,309025,3,2.5,41Ellis Addition to the City of Sioux Falls,1657,,2024,1,186,115,Active,,,https://www.redfin.com/SD/Sioux-Falls/3612-CHALICE-Pl-57106/home/192594243,REALTOR® Association of the Sioux Empire,22406840,N,Y,43.5138771,-96.838195
MLS Listing,,Townhouse,3610 S Chalice Pl,Sioux Falls,SD,57106,329025,3,2.5,41Ellis Addition to the City of Sioux Falls,1657,,2024,1,199,115,Active,,,https://www.redfin.com/SD/Sioux-Falls/3610-CHALICE-Pl-57106/home/192594109,REALTOR® Association of the Sioux Empire,22406839,N,Y,43.5138771,-96.838195
MLS Listing,,Single Family Residential,117 N Autumnwood Ct,Sioux Falls,SD,57110,1175000,4,2.5,MYSTIC CREEK ADDITION TO THE CITY OF SIOUX FALLS,3648,19127,2017,1,322,,Active,,,https://www.redfin.com/SD/Sioux-Falls/117-N-Autumnwood-Ct-57110/home/171322679,REALTOR® Association of the Sioux Empire,22406838,N,Y,43.5478181,-96.6367647
MLS Listing,,Townhouse,5807 W Yukon Trl,Sioux Falls,SD,57107,310000,2,2.0,Hazeltine Addn,1385,5489,2014,1,224,140,Active,,,https://www.redfin.com/SD/Sioux-Falls/5807-W-Yukon-Trl-57107/home/143349523,REALTOR® Association of the Sioux Empire,22406836,N,Y,43.5909146,-96.7936046
MLS Listing,,Single Family Residential,7900 S Grass Creek Dr,Sioux Falls,SD,57108,525000,5,3.0,Cinnamon Ridge Addn,2762,9964,2010,1,190,,Active,September-22-2024 03:30 PM,September-22-2024 04:30 PM,https://www.redfin.com/SD/Sioux-Falls/7900-S-Grass-Creek-Dr-57108/home/165698677,REALTOR® Association of the Sioux Empire,22406833,N,Y,43.4733093,-96.7624907
MLS Listing,,Townhouse,8032 E Tencate Pl,Sioux Falls,SD,57110,310425,3,2.5,Tencate Addition an Addition to the City of Sioux Falls,1657,,2024,1,187,110,Active,,,https://www.redfin.com/SD/Sioux-Falls/8032-E-Tencate-Pl-57110/home/192392244,REALTOR® Association of the Sioux Empire,22406832,N,Y,43.5135878,-96.625354
MLS Listing,,Townhouse,8034 E Tencate Pl,Sioux Falls,SD,57110,310425,3,2.5,Tencate Addition an Addition to the City of Sioux Falls,1657,,2024,1,187,110,Active,,,https://www.redfin.com/SD/Sioux-Falls/8034-E-Tencate-Pl-57110/home/192591684,REALTOR® Association of the Sioux Empire,22406831,N,Y,43.5135878,-96.625354
MLS Listing,,Townhouse,8036 E Tencate Pl,Sioux Falls,SD,57110,310425,3,2.5,Tencate Addition an Addition to the City of Sioux Falls,1657,,2024,1,187,110,Active,,,https://www.redfin.com/SD/Sioux-Falls/8036-E-Tencate-Pl-57110/home/192591655,REALTOR® Association of the Sioux Empire,22406830,N,Y,43.5135878,-96.625354
MLS Listing,,Single Family Residential,2708 W Bitterroot St,Sioux Falls,SD,57108,1175000,6,3.0,Prairie Hills South,4391,18769,2016,1,268,,Active,,,https://www.redfin.com/SD/Sioux-Falls/2708-W-Bitterroot-St-57108/home/165670382,REALTOR® Association of the Sioux Empire,22406829,N,Y,43.480303,-96.756407
MLS Listing,,Single Family Residential,4309 S Alpine Ave,Sioux Falls,SD,57110,624900,4,3.0,Prairie Gardens Addn,3020,11918,2015,1,207,,Active,,,https://www.redfin.com/SD/Sioux-Falls/4309-S-Alpine-Ave-57110/home/143349120,REALTOR® Association of the Sioux Empire,22406828,N,Y,43.5053523,-96.6635448
MLS Listing,,Single Family Residential,1219 S Hawthorne Ave,Sioux Falls,SD,57105,249000,3,2.0,Rowland 2nd Addn,1270,6007,1943,1,196,,Active,September-21-2024 01:30 PM,September-21-2024 03:00 PM,https://www.redfin.com/SD/Sioux-Falls/1219-S-Hawthorne-Ave-57105/home/136390554,REALTOR® Association of the Sioux Empire,22406827,N,Y,43.5341356,-96.7490101
MLS Listing,,Single Family Residential,3601 S Genevieve Ave,Sioux Falls,SD,57103,489000,4,3.0,Brady Estates East A,3023,10080,1992,2,162,,Active,,,https://www.redfin.com/SD/Sioux-Falls/3601-S-Genevieve-Ave-57103/home/136330531,REALTOR® Association of the Sioux Empire,22406821,N,Y,43.5122262,-96.6805611
MLS Listing,,Condo/Co-op,3548 S Gateway Blvd #104,Sioux Falls,SD,57106,129900,2,1.0,Gateway Addn,816,2309,1977,2,159,325,Active,September-18-2024 04:00 PM,September-18-2024 05:00 PM,https://www.redfin.com/SD/Sioux-Falls/3548-S-Gateway-Blvd-57106/unit-104/home/136728249,REALTOR® Association of the Sioux Empire,22406820,N,Y,43.5113567,-96.7833466
MLS Listing,,Single Family Residential,3012 Buckingham St,Sioux Falls,SD,57108,375000,4,3.0,Oxford Estates Addn,2150,7883,2015,2,174,,Active,,,https://www.redfin.com/SD/Sioux-Falls/3012-E-Buckingham-St-57108/home/165671169,REALTOR® Association of the Sioux Empire,22406818,N,Y,43.4968889,-96.6881779
MLS Listing,,Single Family Residential,1816 S 1st Ave,Sioux Falls,SD,57105,2695000,6,4.0,Hunters Addn,6235,39601,1932,2,432,,Active,,,https://www.redfin.com/SD/Sioux-Falls/1816-S-1st-Ave-57105/home/136411922,REALTOR® Association of the Sioux Empire,22406816,N,Y,43.5286144,-96.7247744
MLS Listing,,Single Family Residential,4912 S Galway Ave,Sioux Falls,SD,57106,314900,3,2.0,Sertoma Hills Addn,1575,7871,2003,2,200,,Active,,,https://www.redfin.com/SD/Sioux-Falls/4912-S-Galway-Ave-57106/home/136668512,REALTOR® Association of the Sioux Empire,22406813,N,Y,43.501178,-96.8168384
MLS Listing,,Condo/Co-op,3700 E Peony Pl #203,Sioux Falls,SD,57103,224900,2,2.0,Summer Hill South Addn,1244,3729,1997,2,181,300,Active,,,https://www.redfin.com/SD/Sioux-Falls/3700-E-Peony-Pl-57103/unit-203/home/136135246,REALTOR® Association of the Sioux Empire,22406812,N,Y,43.5058251,-96.680855
MLS Listing,,Condo/Co-op,903 S Joseph Pl,Sioux Falls,SD,57106,200000,2,1.0,Prairie West Addn,1194,5028,2007,2,168,175,Active,,,https://www.redfin.com/SD/Sioux-Falls/903-S-Joseph-Pl-57106/home/187825527,REALTOR® Association of the Sioux Empire,22406809,N,Y,43.537245,-96.8154055
MLS Listing,,Single Family Residential,5016 E 16th St,Sioux Falls,SD,57110,399900,6,3.0,Sycamore East Addn,2871,6215,1980,2,139,,Active,,,https://www.redfin.com/SD/Sioux-Falls/5016-E-16th-St-57110/home/136296772,REALTOR® Association of the Sioux Empire,22406808,N,Y,43.5385536,-96.6641334
MLS Listing,,Single Family Residential,521 S Clearbrook Ave,Sioux Falls,SD,57106,295000,3,2.0,Cherry Creek Hts II,1420,7320,2010,2,208,,Active,,,https://www.redfin.com/SD/Sioux-Falls/521-S-Clearbrook-Ave-57106/home/136440588,REALTOR® Association of the Sioux Empire,22406806,N,Y,43.541056,-96.8267546
MLS Listing,,Townhouse,2724 E Meadowside Pl,Sioux Falls,SD,57108-3700,339000,3,2.0,Whisper Ridge South Addition to City of Sioux Falls,1508,5314,2019,2,225,125,Active,September-21-2024 11:00 AM,September-21-2024 12:30 PM,https://www.redfin.com/SD/Sioux-Falls/2724-E-Meadowside-Pl-57108/home/173965734,REALTOR® Association of the Sioux Empire,22406804,N,Y,43.4928188,-96.6931538
MLS Listing,,Single Family Residential,629 N Indiana Ave,Sioux Falls,SD,57103-0865,200000,3,2.0,Dakota Improv Second,1784,12464,1932,2,112,,Active,,,https://www.redfin.com/SD/Sioux-Falls/629-N-Indiana-Ave-57103/home/136497153,REALTOR® Association of the Sioux Empire,22406802,N,Y,43.5544771,-96.7159502
MLS Listing,,Single Family Residential,4613 W 34th St N,Sioux Falls,SD,57107,289900,2,2.0,North Ridge Addn,1095,7072,2024,3,265,,Active,,,https://www.redfin.com/SD/Sioux-Falls/4613-W-34th-St-N-57107/home/177320973,REALTOR® Association of the Sioux Empire,22406799,N,Y,43.5798883,-96.7852302
MLS Listing,,Single Family Residential,3317 N Yukon Ave,Sioux Falls,SD,57107,353900,2,2.0,MCGEE FARMS ADDN TO CITY OF SIOUX FALLS,1078,7560,2024,3,328,,Active,,,https://www.redfin.com/SD/Wayne-Township/3317-N-yukon-Ave-57107/home/192568755,REALTOR® Association of the Sioux Empire,22406798,N,Y,43.5827607,-96.7957168
MLS Listing,,Single Family Residential,7100 E Malta St,Sioux Falls,SD,57110,281400,2,1.0,MAJESTIC VILLAGE ADDITION TO THE CITY OF SIOUX FALLS,886,6000,2024,3,318,,Active,,,https://www.redfin.com/SD/Sioux-Falls/7100-E-Malta-ST-57110/home/192568543,REALTOR® Association of the Sioux Empire,22406797,N,Y,43.5061837577194,-96.6355237670899
MLS Listing,,Single Family Residential,7236 E Athens Ct,Sioux Falls,SD,57110,404900,3,2.0,MAJESTIC VILLAGE ADDITION TO THE CITY OF SIOUX FALLS,1264,7440,2024,3,320,,Active,,,https://www.redfin.com/SD/Sioux-Falls/7236-E-Athens-Ct-57110/home/192568505,REALTOR® Association of the Sioux Empire,22406796,N,Y,43.5059364,-96.6356044
MLS Listing,,Single Family Residential,7104 E Malta St,Sioux Falls,SD,57110,345900,2,2.0,MAJESTIC VILLAGE ADDITION TO THE CITY OF SIOUX FALLS,1049,7560,2024,3,330,,Active,,,https://www.redfin.com/SD/Sioux-Falls/7104-E-Malta-ST-57110/home/192568474,REALTOR® Association of the Sioux Empire,22406795,N,Y,43.5050631932329,-96.6366395660401
MLS Listing,,Vacant Land,5400 E Markham St,Sioux Falls,SD,57110,350000,,,Canterbury Heights Addn,,47175,,3,,,Active,,,https://www.redfin.com/SD/Sioux-Falls/5400-E-Markham-Cir-57110/home/177323439,REALTOR® Association of the Sioux Empire,22406792,N,Y,43.5708552,-96.6586139
MLS Listing,,Single Family Residential,509 S Menlo Ave,Sioux Falls,SD,57104,214900,2,1.0,Folsom 2nd Addn,790,4639,1922,4,272,,Active,,,https://www.redfin.com/SD/Sioux-Falls/509-S-Menlo-Ave-57104/home/136717587,REALTOR® Association of the Sioux Empire,22406789,N,Y,43.5419176,-96.7401725
MLS Listing,,Single Family Residential,4513 S Southridge Dr,Sioux Falls,SD,57105,829000,4,3.5,River Oaks Addn,3480,12800,1987,4,238,,Active,,,https://www.redfin.com/SD/Sioux-Falls/4513-S-Southridge-Dr-57105/home/136743532,REALTOR® Association of the Sioux Empire,22406790,N,Y,43.5021096,-96.7126324
MLS Listing,,Single Family Residential,3509 S Infield Ave,Sioux Falls,SD,57110,479900,4,2.0,Unp 31-101-48,1968,43560,1979,4,244,,Active,,,https://www.redfin.com/SD/Sioux-Falls/3509-S-Infield-Ave-57110/home/136604400,REALTOR® Association of the Sioux Empire,22406788,N,Y,43.513671,-96.644857
MLS Listing,,Townhouse,2703 E Meadowside Pl,Sioux Falls,SD,57108,359000,4,2.5,Whisper Ridge South Addition to City of Sioux Falls,1944,,2021,4,185,110,Active,,,https://www.redfin.com/SD/Sioux-Falls/2703-E-Meadowside-Pl-57108/home/177315557,REALTOR® Association of the Sioux Empire,22406787,N,Y,43.4925157,-96.69451
MLS Listing,,Condo/Co-op,1905 S Sertoma Ave #102,Sioux Falls,SD,57106,245000,2,2.5,Jeannie Addn,1328,4726,1997,4,184,250,Active,,,https://www.redfin.com/SD/Sioux-Falls/1905-S-Sertoma-Ave-57106/unit-102/home/136156181,REALTOR® Association of the Sioux Empire,22406784,N,Y,43.5277057,-96.816704
MLS Listing,,Single Family Residential,2104 Tracy Ln,Sioux Falls,SD,57103,310000,3,2.0,Homestead Trails Addn,1566,7401,1980,5,198,,Active,,,https://www.redfin.com/SD/Sioux-Falls/2104-E-Tracy-Ln-57103/home/136103839,REALTOR® Association of the Sioux Empire,22406782,N,Y,43.5604318,-96.6994545
MLS Listing,,Single Family Residential,5423 W Colonial Ct,Sioux Falls,SD,57107,589900,5,3.5,Jefferson Heights Addition to the City of Sioux Falls,3527,13237,2023,5,167,,Active,,,https://www.redfin.com/SD/Buffalo-Ridge/5423-W-Colonial-Ct-57107/home/191800104,REALTOR® Association of the Sioux Empire,22406780,N,Y,43.566905,-96.794465
MLS Listing,,Single Family Residential,8001 W 55th St,Sioux Falls,SD,57106,319900,3,2.0,Southern Vistas Addn,1525,6325,2009,5,210,,Active,,,https://www.redfin.com/SD/Sioux-Falls/8001-W-55th-St-57106/home/136734671,REALTOR® Association of the Sioux Empire,22406779,N,Y,43.5022595,-96.825411
MLS Listing,,Townhouse,9103 W 43rd St,Sioux Falls,SD,57106,331900,2,2.0,41Ellis Addition to the City of Sioux Falls,1367,,2024,5,243,,Active,,,https://www.redfin.com/SD/Sioux-Falls/9103-W-43rd-St-57106/home/189733625,REALTOR® Association of the Sioux Empire,22406778,N,Y,43.5134915,-96.8077183
MLS Listing,,Single Family Residential,401 E 29th St,Sioux Falls,SD,57105,415000,4,2.0,Hunters Addn,2276,7125,1940,5,182,,Active,,,https://www.redfin.com/SD/Sioux-Falls/401-E-29th-St-57105/home/136104605,REALTOR® Association of the Sioux Empire,22406777,N,Y,43.5261656,-96.7219837
MLS Listing,,Single Family Residential,3228 S Pillsberry Ave,Sioux Falls,SD,57103,359000,4,3.0,Bluegrass Addn,2054,7749,1999,5,175,,Active,,,https://www.redfin.com/SD/Sioux-Falls/3228-S-Pillsberry-Ave-57103/home/136461588,REALTOR® Association of the Sioux Empire,22406775,N,Y,43.5166686,-96.6740238
MLS Listing,,Single Family Residential,809 N Sylvan Dr,Sioux Falls,SD,57110,1000000,4,3.5,Willow Ridge Addn,3270,10698,2024,5,306,,Active,September-21-2024 01:00 PM,September-21-2024 05:00 PM,https://www.redfin.com/SD/Sioux-Falls/809-N-Sylvan-Dr-57110/home/192543581,REALTOR® Association of the Sioux Empire,22406772,N,Y,43.5545991,-96.6225965
MLS Listing,,Single Family Residential,3200 S Unique Pl,Sioux Falls,SD,57110,760000,4,3.5,Three River Bluffs Addition to Minnehaha County,3745,43560,2006,5,203,,Active,,,https://www.redfin.com/SD/Sioux-Falls/3200-Unique-Pl-57110/home/136395978,REALTOR® Association of the Sioux Empire,22406768,N,Y,43.5166609,-96.611764
MLS Listing,,Single Family Residential,46723 Dorothy Dr,Sioux Falls,SD,57107,625000,4,3.0,Songbird Acres,2742,58950,1992,5,228,,Active,,,https://www.redfin.com/SD/Sioux-Falls/46723-Dorothy-Dr-57107/home/136542379,REALTOR® Association of the Sioux Empire,22406766,N,Y,43.5999003,-96.8662349
MLS Listing,,Single Family Residential,3309 N Yukon Ave,Sioux Falls,SD,57107,309900,2,1.0,MCGEE FARMS ADDN TO CITY OF SIOUX FALLS,1001,6000,2024,5,310,,Active,,,https://www.redfin.com/SD/Wayne-Township/3309-N-yukon-Ave-57107/home/192541275,REALTOR® Association of the Sioux Empire,22406763,N,Y,43.5824135,-96.7957125
MLS Listing,,Single Family Residential,5104 S Sarmar Ave,Sioux Falls,SD,57106,349900,4,2.0,Sunset Ridge Addn,2062,7680,2003,5,170,,Active,,,https://www.redfin.com/SD/Sioux-Falls/5104-S-Sarmar-Ave-57106/home/165666898,REALTOR® Association of the Sioux Empire,22406762,N,Y,43.4992694,-96.7963332
MLS Listing,,Single Family Residential,3308 N Geneva Trl,Sioux Falls,SD,57110,283900,2,1.0,MCGEE FARMS ADDN TO CITY OF SIOUX FALLS,894,6858,2024,5,318,,Active,,,https://www.redfin.com/SD/Sioux-Falls/3308-N-Geneva-TRL-57110/home/192541199,REALTOR® Association of the Sioux Empire,22406761,N,Y,43.5816448596516,-96.794508291789
MLS Listing,,Townhouse,1206 N Brennan Ct,Sioux Falls,SD,57110,369900,3,3.0,Wild Meadows,2501,5153,2021,5,148,,Active,,,https://www.redfin.com/SD/Sioux-Falls/1206-N-Brennan-Ct-57110/home/189405443,REALTOR® Association of the Sioux Empire,22406760,N,Y,43.556867,-96.6578012
MLS Listing,,Single Family Residential,3224 N Yukon Ave,Sioux Falls,SD,57107,304900,2,1.0,MCGEE FARMS ADDN TO CITY OF SIOUX FALLS,944,7320,2024,5,323,,Active,,,https://www.redfin.com/SD/Wayne-Township/3224-N-yukon-Ave-57107/home/192540989,REALTOR® Association of the Sioux Empire,22406756,N,Y,43.5822625,-96.7954918
MLS Listing,,Single Family Residential,4712 E Mangrove St,Sioux Falls,SD,57110,569000,5,3.5,Prairie Gardens Addn,2846,10420,2012,5,200,,Active,,,https://www.redfin.com/SD/Sioux-Falls/4712-E-Mangrove-St-57110/home/136475916,REALTOR® Association of the Sioux Empire,22406754,N,Y,43.5069013,-96.6674108
MLS Listing,,Single Family Residential,5716 S San Diego Ave,Sioux Falls,SD,57106,344900,3,2.0,Galway Park Addn,2019,7928,2006,5,171,,Active,,,https://www.redfin.com/SD/Sioux-Falls/5716-S-San-Diego-Ave-57106/home/165645212,REALTOR® Association of the Sioux Empire,22406753,N,Y,43.4943865,-96.8116008
MLS Listing,,Single Family Residential,5809 W 50Th St,Sioux Falls,SD,57106,327000,3,2.0,Rolling Hill's Addn,2037,9239,1971,5,161,,Active,,,https://www.redfin.com/SD/Sioux-Falls/5809-W-50th-St-57106/home/136067866,REALTOR® Association of the Sioux Empire,22406752,N,Y,43.50689,-96.797955
MLS Listing,,Single Family Residential,1700 E 7th St,Sioux Falls,SD,57103,255000,2,2.0,Emerson & Sherman Addn,952,5807,1925,5,268,,Active,,,https://www.redfin.com/SD/Sioux-Falls/1700-E-7th-St-57103/home/136099458,REALTOR® Association of the Sioux Empire,22406751,N,Y,43.5505051,-96.7049559
MLS Listing,,Multi-Family (2-4 Unit),807 S 1st Ave,Sioux Falls,SD,57104,299900,5,2.0,Gales 7th Addn,2146,8050,1962,5,140,,Active,,,https://www.redfin.com/SD/Sioux-Falls/807-S-1st-Ave-57104/home/136664662,REALTOR® Association of the Sioux Empire,22406750,N,Y,43.5383503,-96.7254836
MLS Listing,,Townhouse,9412 W Dolores Dr,Sioux Falls,SD,57106,269900,3,2.5,WESTWOOD VALLEY 2ND ADDITION TO THE CITY OF SIOUX FALLS,1443,3250,2024,5,187,,Active,,,https://www.redfin.com/SD/Sioux-Falls/9412-W-Dolores-Dr-57106/home/192538241,REALTOR® Association of the Sioux Empire,22406749,N,Y,43.5156441,-96.8414174
MLS Listing,,Townhouse,6123 S Alki Pl,Sioux Falls,SD,57108,294900,3,2.5,DONAHOE FARMS ADD,1415,4792,2021,5,208,110,Active,,,https://www.redfin.com/SD/Sioux-Falls/6123-S-Alki-Pl-57108/home/177316848,REALTOR® Association of the Sioux Empire,22406748,N,Y,43.4889828,-96.6939891
MLS Listing,,Townhouse,6407 Keller Cir,Sioux Falls,SD,57108,345000,3,2.0,Diamond Valley Addn,1823,6004,2015,5,189,,Active,,,https://www.redfin.com/SD/Sioux-Falls/6407-S-Keller-Cir-57108/home/168772503,REALTOR® Association of the Sioux Empire,22406745,N,Y,43.486546,-96.7155714
MLS Listing,,Single Family Residential,905 S Garfield Ave,Sioux Falls,SD,57104,229900,2,1.0,Westmoor Addn,1386,7300,1948,5,166,,Active,,,https://www.redfin.com/SD/Sioux-Falls/905-S-Garfield-Ave-57104/home/136597085,REALTOR® Association of the Sioux Empire,22406744,N,Y,43.5379182,-96.7587435
MLS Listing,,Single Family Residential,5412 E Revere Dr,Sioux Falls,SD,57110,425000,4,3.0,Wild Meadows,2107,7214,2021,5,202,,Active,September-21-2024 12:00 PM,September-21-2024 01:00 PM,https://www.redfin.com/SD/Sioux-Falls/5412-E-Revere-Dr-57110/home/185331836,REALTOR® Association of the Sioux Empire,22406743,N,Y,43.54337,-96.63751
MLS Listing,,Multi-Family (2-4 Unit),1426 E 17th St,Sioux Falls,SD,57104,259900,4,2.0,Van Eps Addn,1310,5807,1904,6,198,,Active,,,https://www.redfin.com/SD/Sioux-Falls/1426-E-17th-St-57104/home/136139677,REALTOR® Association of the Sioux Empire,22406739,N,Y,43.5377457,-96.7078422
MLS Listing,,Single Family Residential,712 N Walts Ave,Sioux Falls,SD,57104,280000,3,1.5,Coopers Addn,2220,7750,1919,6,126,,Active,,,https://www.redfin.com/SD/Sioux-Falls/712-N-Walts-Ave-57104/home/136037608,REALTOR® Association of the Sioux Empire,22406737,N,Y,43.5556052,-96.738243
MLS Listing,,Single Family Residential,205 W Willow Trl,Crooks,SD,57020,629900,3,2.5,No Subdivision,1670,11965,2024,6,377,,Active,,,https://www.redfin.com/SD/Benton-Township/205-W-Willow-Trl-57020/home/191840768,REALTOR® Association of the Sioux Empire,22406735,N,Y,43.653117925429,-96.8209311904907
MLS Listing,,Townhouse,2405 E Cama Pl,Sioux Falls,SD,57108,311375,3,2.5,DONAHOE FARMS ADD,1666,,2024,6,187,110,Active,,,https://www.redfin.com/SD/Sioux-Falls/2405-E-Cama-Pl-57108/home/191048213,REALTOR® Association of the Sioux Empire,22406734,N,Y,43.4869157,-96.6955551
MLS Listing,,Single Family Residential,5809 E Rush St,Sioux Falls,SD,57110,588900,2,2.0,GOLDEN GATEWAY ADDITION TO THE CITY OF SIOUX FALLS,1650,8427,2024,6,357,200,Active,September-21-2024 01:00 PM,September-21-2024 05:00 PM,https://www.redfin.com/SD/Sioux-Falls/5809-E-Rush-ST-57110/home/179087312,REALTOR® Association of the Sioux Empire,22406733,N,Y,43.563019,-96.65399
MLS Listing,,Single Family Residential,2312 S Euclid Ave,Sioux Falls,SD,57105,235000,3,2.0,Gerrish & Lord Addn,1000,6072,1932,6,235,,Active,,,https://www.redfin.com/SD/Sioux-Falls/2312-S-Euclid-Ave-57105/home/136284433,REALTOR® Association of the Sioux Empire,22406729,N,Y,43.5232521,-96.7421284
MLS Listing,,Single Family Residential,1121 E 9Th St,Sioux Falls,SD,57103,174900,3,1.0,Morningside 1st Addn,1177,4752,1915,6,149,,Active,,,https://www.redfin.com/SD/Sioux-Falls/1121-E-9th-St-57103/home/136079335,REALTOR® Association of the Sioux Empire,22406727,N,Y,43.5473966,-96.7121024
MLS Listing,,Multi-Family (2-4 Unit),3601 E 3rd St,Sioux Falls,SD,57103,550000,8,6.0,Solar Gardens Addn,4176,10945,1996,6,132,,Active,,,https://www.redfin.com/SD/Sioux-Falls/3601-E-3rd-St-57103/home/136601212,REALTOR® Association of the Sioux Empire,22406724,N,Y,43.5546034,-96.6825663
MLS Listing,,Single Family Residential,5523 W Colonial Ct,Sioux Falls,SD,57107,599900,3,2.0,Jefferson Heights Addition to the City of Sioux Falls,1585,15465,2023,6,378,,Active,,,https://www.redfin.com/SD/Sioux-Falls/5523-W-Colonial-Ct-57107/home/189141823,REALTOR® Association of the Sioux Empire,22406723,N,Y,43.5691398,-96.7947991
MLS Listing,,Vacant Land,27002 S Louise Ave,Sioux Falls,SD,57108-8114,8050000,,,DEBULTEN'S ADDITION,,1983279,,6,,,Active,,,https://www.redfin.com/SD/Sioux-Falls/27002-S-Louise-Ave-57108/home/184783803,REALTOR® Association of the Sioux Empire,22406722,N,Y,43.473461,-96.761964
MLS Listing,,Townhouse,5014 E 63rd St,Sioux Falls,SD,57108,340000,3,2.5,Briarwood Estates,1893,5115,2019,6,180,125,Active,,,https://www.redfin.com/SD/Sioux-Falls/5014-E-63rd-St-57108/home/170675669,REALTOR® Association of the Sioux Empire,22406719,N,Y,43.495062,-96.665438
MLS Listing,,Townhouse,5609 S Yarrow Trl,Sioux Falls,SD,57108,374900,3,2.5,Briarwood Estates,1893,8796,2019,6,198,125,Active,,,https://www.redfin.com/SD/Sioux-Falls/5609-S-Yarrow-Trl-57108/home/173965701,REALTOR® Association of the Sioux Empire,22406717,N,Y,43.494842,-96.6681326
MLS Listing,,Townhouse,6706 S Tomar Rd,Sioux Falls,SD,57108-8360,290000,3,2.0,Diamond Valley Addn,1665,4530,2010,6,174,90,Active,,,https://www.redfin.com/SD/Sioux-Falls/6706-S-Tomar-Rd-57108/home/165646869,REALTOR® Association of the Sioux Empire,22406716,N,Y,43.48355,-96.7122415
MLS Listing,,Single Family Residential,,Sioux Falls,SD,57110,510000,4,2.5,,2852,18026,1976,6,179,21,Active,September-22-2024 01:00 PM,September-22-2024 02:30 PM,https://www.redfin.com/SD/Sioux-Falls/Undisclosed-address-57110/home/136544716,REALTOR® Association of the Sioux Empire,22406715,N,Y,43.5661509,-96.6644176
MLS Listing,,Single Family Residential,4408 S Cliff Ave,Sioux Falls,SD,57103,299900,3,3.0,Crestview Addn,1804,8939,1978,6,166,,Active,,,https://www.redfin.com/SD/Sioux-Falls/4408-S-Cliff-Ave-57103/home/136696359,REALTOR® Association of the Sioux Empire,22406714,N,Y,43.5039321,-96.7088563
MLS Listing,,Single Family Residential,1608 S Deerberry Trl,Sioux Falls,SD,57106,519900,4,3.5,Prairie Highland Addn,3235,11844,1998,6,161,,Active,,,https://www.redfin.com/SD/Sioux-Falls/1608-S-Deerberry-Trl-57106/home/136385149,REALTOR® Association of the Sioux Empire,22406711,N,Y,43.5309886,-96.809022
MLS Listing,,Single Family Residential,3604 W 90th St,Sioux Falls,SD,57108,399900,4,3.0,Platinum Valley III,2388,9600,2007,6,167,,Active,,,https://www.redfin.com/SD/Sioux-Falls/3604-W-90th-St-57108/home/165646440,REALTOR® Association of the Sioux Empire,22406709,N,Y,43.4713121,-96.7703333
MLS Listing,,Single Family Residential,5415 W Patriot St,Sioux Falls,SD,57107,669900,3,2.0,Jefferson Heights Addition to the City of Sioux Falls,1916,11901,2024,6,350,,Active,September-21-2024 01:00 PM,September-21-2024 05:00 PM,https://www.redfin.com/SD/Sioux-Falls/5415-W-Patriot-St-57107/home/177320059,REALTOR® Association of the Sioux Empire,22406708,N,Y,43.567782,-96.793843
MLS Listing,,Single Family Residential,105 W Willow Trl,Crooks,SD,57020,649900,3,2.5,No Subdivision,1759,22004,2024,6,369,,Active,,,https://www.redfin.com/SD/Benton-Township/105-W-Willow-Trl-57020/home/192518236,REALTOR® Association of the Sioux Empire,22406707,N,Y,43.653863136024,-96.8198368492126
MLS Listing,,Single Family Residential,924 S Cloudas Ave,Sioux Falls,SD,57103,219900,2,1.0,Tabbert Subd,1009,7919,1954,6,218,,Active,,,https://www.redfin.com/SD/Sioux-Falls/924-S-Cloudas-Ave-57103/home/136464327,REALTOR® Association of the Sioux Empire,22406705,N,Y,43.5390913,-96.6886952
MLS Listing,,Single Family Residential,5612 W 56th St,Sioux Falls,SD,57106,299900,4,2.0,Pebble Creek Addn,1926,9744,1977,6,156,,Active,,,https://www.redfin.com/SD/Sioux-Falls/5612-W-56th-St-57106/home/136191660,REALTOR® Association of the Sioux Empire,22406704,N,Y,43.5020708,-96.7952102
MLS Listing,,Single Family Residential,1901 E Spruce St,Sioux Falls,SD,57103,250000,3,1.0,Riverside Addn,1376,7261,1958,6,182,,Active,,,https://www.redfin.com/SD/Sioux-Falls/1901-E-Spruce-St-57103/home/136213508,REALTOR® Association of the Sioux Empire,22406701,N,Y,43.567319,-96.7023843
MLS Listing,,Townhouse,7215 E 45th St,Sioux Falls,SD,57110,389900,2,2.0,MAJESTIC MEADOWS ADDITION TO THE CITY OF SIOUX FALLS,1365,,2024,7,286,,Active,,,https://www.redfin.com/SD/Sioux-Falls/7215-E-45th-St-57110/home/188182997,REALTOR® Association of the Sioux Empire,22406699,N,Y,43.511617,-96.6350408
MLS Listing,,Townhouse,7213 E 45th St,Sioux Falls,SD,57110,389900,2,2.0,MAJESTIC MEADOWS ADDITION TO THE CITY OF SIOUX FALLS,1365,,2024,7,286,,Active,,,https://www.redfin.com/SD/Sioux-Falls/7213-E-45th-St-57110/home/184622356,REALTOR® Association of the Sioux Empire,22406698,N,Y,43.5116153,-96.6351365
MLS Listing,,Single Family Residential,4109 S Infield Ave,Sioux Falls,SD,57110,459000,4,3.0,Diamond Field Estate,2286,7819,2020,7,201,,Active,,,https://www.redfin.com/SD/Sioux-Falls/4109-S-Infield-Ave-57110/home/175564730,REALTOR® Association of the Sioux Empire,22406697,N,Y,43.50818,-96.644985
MLS Listing,,Single Family Residential,5210 E Madison St,Sioux Falls,SD,57110,320000,3,2.0,Aspen Hills Addn,1670,13035,1993,7,192,,Active,,,https://www.redfin.com/SD/Sioux-Falls/5210-E-Madison-St-57110/home/136456156,REALTOR® Association of the Sioux Empire,22406695,N,Y,43.5588435,-96.6627888
MLS Listing,,Single Family Residential,2634 E Regency Ct,Sioux Falls,SD,57103,550000,4,3.5,Raven Oaks Addn,3304,15200,1987,7,166,,Active,September-21-2024 01:00 PM,September-21-2024 02:00 PM,https://www.redfin.com/SD/Sioux-Falls/2634-E-Regency-Ct-57103/home/136717358,REALTOR® Association of the Sioux Empire,22406691,N,Y,43.5007861,-96.6940506
MLS Listing,,Single Family Residential,1309 E 70th St N,Sioux Falls,SD,57104,289900,3,1.0,Granite Valley Addn,988,6084,2004,7,293,,Active,,,https://www.redfin.com/SD/Sioux-Falls/1309-E-70th-St-N-57104/home/136632780,REALTOR® Association of the Sioux Empire,22406690,N,Y,43.6148155,-96.7084543
MLS Listing,,Single Family Residential,2600 W Ridgestone Cir,Sioux Falls,SD,57108,1249900,6,3.5,Boulder Ridge Estate,4393,19471,2013,7,285,,Active,,,https://www.redfin.com/SD/Sioux-Falls/2600-W-Ridgestone-Cir-57108/home/165670124,REALTOR® Association of the Sioux Empire,22406689,N,Y,43.4771906,-96.7550877
MLS Listing,,Single Family Residential,5307 E Lake Placid Cir,Sioux Falls,SD,57110,339000,3,2.0,Aspen Hills Addn,1888,12580,1993,7,180,,Active,,,https://www.redfin.com/SD/Sioux-Falls/5307-E-Lake-Placid-Cir-57110/home/136159220,REALTOR® Association of the Sioux Empire,22406687,N,Y,43.5589031,-96.6625161
MLS Listing,,Condo/Co-op,2904 W 33rd St #225,Sioux Falls,SD,57105,130000,1,1.0,Country Club Hills Tract,710,2019,1972,7,183,377,Active,,,https://www.redfin.com/SD/Sioux-Falls/2904-W-33rd-St-57105/unit-225/home/136363859,REALTOR® Association of the Sioux Empire,22406685,N,Y,43.522689,-96.7635462
MLS Listing,,Single Family Residential,2708 S Moss Stone Ave,Sioux Falls,SD,57110,547900,3,2.0,COPPER CREEK 2ND ADDITION TO THE CITY OF SIOUX FALLS,2297,12325,2020,7,239,,Active,,,https://www.redfin.com/SD/Sioux-Falls/2708-S-Moss-Stone-Ave-57110/home/177319306,REALTOR® Association of the Sioux Empire,22406683,N,Y,43.5205427,-96.6444787
MLS Listing,,Single Family Residential,5105 E 22nd St,Sioux Falls,SD,57110,365000,3,2.0,Sunny View East Addn,1899,7828,1994,7,192,,Active,,,https://www.redfin.com/SD/Sioux-Falls/5105-E-22nd-St-57110/home/136598904,REALTOR® Association of the Sioux Empire,22406680,N,Y,43.5322923,-96.6639025
MLS Listing,,Single Family Residential,1918 S Summit Ave,Sioux Falls,SD,57105,125000,1,1.0,University Addn,470,4356,1919,8,266,,Active,,,https://www.redfin.com/SD/Sioux-Falls/1918-S-Summit-Ave-57105/home/136643460,REALTOR® Association of the Sioux Empire,22406676,N,Y,43.5280271,-96.7359342
MLS Listing,,Townhouse,602 E 57th St,Sioux Falls,SD,57108-2917,265000,2,2.0,Tomar Hills Addn,1284,6991,1987,8,206,,Active,,,https://www.redfin.com/SD/Sioux-Falls/602-E-57th-St-57108/home/136577596,REALTOR® Association of the Sioux Empire,22406670,N,Y,43.5005678,-96.7192024
MLS Listing,,Townhouse,5100 E 63rd St,Sioux Falls,SD,57108,314900,2,2.0,Briarwood Estates,1159,5576,2018,8,272,125,Active,September-21-2024 11:00 AM,September-21-2024 12:30 PM,https://www.redfin.com/SD/Sioux-Falls/5100-E-63rd-St-57108/home/173965699,REALTOR® Association of the Sioux Empire,22406668,N,Y,43.4950617,-96.6652134
MLS Listing,,Mobile/Manufactured Home,904 S Garnet Pl,Sioux Falls,SD,57106,135000,3,2.0,Silver Glen Addn,1063,5000,2022,8,127,460,Active,,,https://www.redfin.com/SD/Sioux-Falls/904-S-Garnet-Pl-57106/home/136543628,REALTOR® Association of the Sioux Empire,22406667,N,Y,43.5395333,-96.8036259
MLS Listing,,Single Family Residential,7205 Songbird St,Sioux Falls,SD,57107,399900,3,3.0,Meadow Brook Estates,2874,21201,1965,8,139,,Active,,,https://www.redfin.com/SD/Sioux-Falls/7205-W-Songbird-St-57107/home/136561379,REALTOR® Association of the Sioux Empire,22406666,N,Y,43.5507568,-96.8128495
MLS Listing,,Single Family Residential,8904 W Lakeside Dr,Sioux Falls,SD,57107,1899000,5,4.5,Cherry Lake Reserve,4798,18060,2014,8,396,38,Active,,,https://www.redfin.com/SD/Sioux-Falls/8904-W-Lakeside-Dr-57107/home/143349881,REALTOR® Association of the Sioux Empire,22406665,N,Y,43.5464701,-96.8358511
MLS Listing,,Townhouse,1816 S Marday St,Sioux Falls,SD,57103,204900,3,1.5,Pearson's 1st Addn,1371,2640,1978,8,149,,Active,,,https://www.redfin.com/SD/Sioux-Falls/1816-S-Marday-Ave-57103/home/136364073,REALTOR® Association of the Sioux Empire,22406664,N,Y,43.5287249,-96.6836572
MLS Listing,,Single Family Residential,5825 E Rush St,Sioux Falls,SD,57110,727900,2,2.0,GOLDEN GATEWAY ADDITION TO THE CITY OF SIOUX FALLS,1994,8427,2023,8,365,200,Active,,,https://www.redfin.com/SD/Sioux-Falls/5821-E-Rush-St-57110/home/184907270,REALTOR® Association of the Sioux Empire,22406663,N,Y,43.5633733,-96.6532287
MLS Listing,,Single Family Residential,929 N Prairie Ave,Sioux Falls,SD,57104,239000,3,2.0,Brooks Addn,1071,4500,1942,8,223,,Active,,,https://www.redfin.com/SD/Sioux-Falls/929-N-Prairie-Ave-57104/home/136239570,REALTOR® Association of the Sioux Empire,22406659,N,Y,43.5590665,-96.7373776
MLS Listing,,Mobile/Manufactured Home,912 N Nunda Pl,Sioux Falls,SD,57107,89900,3,2.0,No Subdivision,1404,,2016,8,64,,Active,,,https://www.redfin.com/SD/Sioux-Falls/912-N-Nunda-Pl-57107/home/143350796,REALTOR® Association of the Sioux Empire,22406658,N,Y,43.5574697,-96.7942989
MLS Listing,,Single Family Residential,7500 S Denton Ave,Sioux Falls,SD,57108,445000,6,3.0,Platinum Valley 2nd,2643,11939,2003,8,168,,Active,,,https://www.redfin.com/SD/Sioux-Falls/7500-S-Denton-Ave-57108/home/165697301,REALTOR® Association of the Sioux Empire,22406657,N,Y,43.4782968,-96.7739083
MLS Listing,,Single Family Residential,209 S Western Ave,Sioux Falls,SD,57104,210000,3,1.5,Braley's 1st Addn,1426,6338,1950,8,147,,Active,,,https://www.redfin.com/SD/Sioux-Falls/209-S-Western-Ave-57104/home/136373463,REALTOR® Association of the Sioux Empire,22406656,N,Y,43.5455559,-96.7515093
MLS Listing,,Single Family Residential,3011 E Micah Ln,Sioux Falls,SD,57103,445000,3,3.0,Brady Est Addn,2466,12632,1990,9,180,,Active,September-22-2024 01:00 PM,September-22-2024 02:00 PM,https://www.redfin.com/SD/Sioux-Falls/3011-E-Micah-Ln-57103/home/136059105,REALTOR® Association of the Sioux Empire,22406648,N,Y,43.5115149,-96.685703
MLS Listing,,Single Family Residential,5612 S Sundowner Ave,Sioux Falls,SD,57106,314900,3,2.0,Lincoln Highlands Ad,1646,7920,1995,9,191,,Active,,,https://www.redfin.com/SD/Sioux-Falls/5612-S-Sundowner-Ave-57106/home/165687086,REALTOR® Association of the Sioux Empire,22406646,N,Y,43.4947175,-96.805943
MLS Listing,,Townhouse,6221 S Alki Pl,Sioux Falls,SD,57108,308575,3,2.5,DONAHOE FARMS ADD,1606,,2023,9,192,110,Active,,,https://www.redfin.com/SD/Sioux-Falls/6221-S-Alki-Pl-57108/home/190375028,REALTOR® Association of the Sioux Empire,22406645,N,Y,43.4871459,-96.697052
MLS Listing,,Townhouse,5507 W Liberator Cir,Sioux Falls,SD,57107,319900,3,2.5,Jefferson Heights Addition to the City of Sioux Falls,1481,,2024,9,216,135,Active,,,https://www.redfin.com/SD/Buffalo-Ridge/5507-W-Liberator-Cir-57107/home/190805222,REALTOR® Association of the Sioux Empire,22406642,N,Y,43.566174,-96.792925
MLS Listing,,Townhouse,5505 W Liberator Cir,Sioux Falls,SD,57107,309900,3,2.5,Jefferson Heights Addition to the City of Sioux Falls,1481,,2024,9,209,135,Active,September-21-2024 01:00 PM,September-21-2024 04:00 PM,https://www.redfin.com/SD/Buffalo-Ridge/5505-W-Liberator-Cir-57107/home/190927426,REALTOR® Association of the Sioux Empire,22406641,N,Y,43.5661743,-96.7929246
MLS Listing,,Townhouse,5503 W Liberator Cir,Sioux Falls,SD,57107,309900,3,2.5,Jefferson Heights Addition to the City of Sioux Falls,1481,,2024,9,209,135,Active,,,https://www.redfin.com/SD/Buffalo-Ridge/5503-W-Liberator-Cir-57107/home/190805480,REALTOR® Association of the Sioux Empire,22406640,N,Y,43.566174,-96.792925
MLS Listing,,Townhouse,5501 W Liberator Cir,Sioux Falls,SD,57107,319900,3,2.5,Jefferson Heights Addition to the City of Sioux Falls,1481,,2024,9,216,135,Active,September-21-2024 01:00 PM,September-21-2024 04:00 PM,https://www.redfin.com/SD/Buffalo-Ridge/5501-W-Liberator-Cir-57107/home/190805061,REALTOR® Association of the Sioux Empire,22406639,N,Y,43.566174,-96.792925
MLS Listing,,Mobile/Manufactured Home,6004 S Bremerton Pl,Sioux Falls,SD,57106,90000,3,2.0,Misty Glen Addn,1680,,2000,9,54,455,Active,,,https://www.redfin.com/SD/Sioux-Falls/6004-S-Bremerton-Pl-57106/home/105170875,REALTOR® Association of the Sioux Empire,22406637,N,Y,43.4919932,-96.8017509
MLS Listing,,Townhouse,9514 W Dolores Dr,Sioux Falls,SD,57106,269900,3,2.5,WESTWOOD VALLEY 2ND ADDITION TO THE CITY OF SIOUX FALLS,1443,3250,2024,9,187,,Active,,,https://www.redfin.com/SD/Sioux-Falls/9514-W-Dolores-Dr-57106/home/192436938,REALTOR® Association of the Sioux Empire,22406634,N,Y,43.5156349,-96.8436416
MLS Listing,,Townhouse,9563 W Dolores Dr,Sioux Falls,SD,57106,259900,2,2.0,WESTWOOD VALLEY 2ND ADDITION TO THE CITY OF SIOUX FALLS,1142,3716,2024,9,228,,Active,,,https://www.redfin.com/SD/Sioux-Falls/9563-W-Dolores-Dr-57106/home/192434369,REALTOR® Association of the Sioux Empire,22406631,N,Y,43.51521,-96.845276
MLS Listing,,Single Family Residential,6705 E Corsair Dr,Sioux Falls,SD,57110,670000,3,2.0,Mystic Heights Addition,1866,10057,2023,9,359,,Active,,,https://www.redfin.com/SD/Sioux-Falls/6705-E-Corsair-Dr-57110/home/185573509,REALTOR® Association of the Sioux Empire,22406629,N,Y,43.5506732,-96.6427303
MLS Listing,,Townhouse,3633 E Chatham St,Sioux Falls,SD,57108,290000,3,2.0,Dakota Prairie Addn,1277,5924,2017,9,227,,Active,,,https://www.redfin.com/SD/Sioux-Falls/3633-E-Chatham-St-57108/home/176535780,REALTOR® Association of the Sioux Empire,22406628,N,Y,43.4914036,-96.679777
MLS Listing,,Single Family Residential,8816 W Windmill Ridge St,Sioux Falls,SD,57106,344900,2,2.0,Windmill Ridge Addition to Sioux Falls,1277,6680,2024,9,270,35,Active,,,https://www.redfin.com/SD/Sioux-Falls/8816-Windmill-Ridge-St-57106/home/189597150,REALTOR® Association of the Sioux Empire,22406626,N,Y,43.5406935,-96.8346203
MLS Listing,,Single Family Residential,2605 N Bent Grass Ct,Sioux Falls,SD,57107,375000,3,2.5,Grasslands Addn,1600,10761,2024,10,234,,Active,,,https://www.redfin.com/SD/Sioux-Falls/2605-N-Bent-Grass-Ct-57107/home/192423314,REALTOR® Association of the Sioux Empire,22406621,N,Y,43.5772286,-96.7867747
MLS Listing,,Single Family Residential,1000 N Six Mile Rd,Sioux Falls,SD,57110,499500,4,3.0,Split Rock Township,2454,106286,1971,11,204,,Active,,,https://www.redfin.com/SD/Sioux-Falls/1000-N-Six-Mile-Rd-57110/home/136054419,REALTOR® Association of the Sioux Empire,22406620,N,Y,43.5565384,-96.6306928
MLS Listing,,Townhouse,5311 W Sunnydale Pl,Sioux Falls,SD,57106,389900,3,3.0,Wittelm's Addn,2524,4918,2001,11,154,250,Active,,,https://www.redfin.com/SD/Sioux-Falls/5311-W-Sunnydale-Pl-57106/home/136051866,REALTOR® Association of the Sioux Empire,22406619,N,Y,43.5026125,-96.792077
MLS Listing,,Single Family Residential,7804 Tuscan Club Cir,Sioux Falls,SD,57108,749000,5,3.0,Tuscan Club Estates,3207,14260,2008,11,234,,Active,,,https://www.redfin.com/SD/Sioux-Falls/7804-S-Tuscan-Club-Cir-57108/home/165648769,REALTOR® Association of the Sioux Empire,22406617,N,Y,43.4739422,-96.7734349
MLS Listing,,Single Family Residential,4008 E 24th St,Sioux Falls,SD,57103,314900,4,2.0,Terrace Lawn Addn,2010,8682,1972,11,157,,Active,,,https://www.redfin.com/SD/Sioux-Falls/4008-E-24th-St-57103/home/136605675,REALTOR® Association of the Sioux Empire,22406611,N,Y,43.5315575,-96.6770523
MLS Listing,,Single Family Residential,1018 W 11th St,Sioux Falls,SD,57104,284900,3,1.5,Pettigrew Subd,2163,4800,1920,12,132,,Active,,,https://www.redfin.com/SD/Sioux-Falls/1018-W-11th-St-57104/home/136147423,REALTOR® Association of the Sioux Empire,22406610,N,Y,43.5448955,-96.7408471
MLS Listing,,Single Family Residential,920 N Sylvan Dr,Sioux Falls,SD,57110,505000,2,2.0,Willow Ridge Addn,1515,9884,2023,12,333,,Active,,,https://www.redfin.com/SD/Sioux-Falls/920-N-Sylvan-Dr-57110/home/183021974,REALTOR® Association of the Sioux Empire,22406606,N,Y,43.5559281,-96.6263224
MLS Listing,,Single Family Residential,1601 S Van Eps Ave,Sioux Falls,SD,57105-2230,270000,3,2.0,Spicer Addn,1580,6338,1950,12,171,,Active,,,https://www.redfin.com/SD/Sioux-Falls/1601-S-Van-Eps-Ave-57105/home/136463407,REALTOR® Association of the Sioux Empire,22406604,N,Y,43.5320098,-96.7090406
MLS Listing,,Condo/Co-op,2908 W 37th Cir #501,Sioux Falls,SD,57105,1100000,3,2.5,Vista Park Addn,2603,3652,2008,12,423,423,Active,,,https://www.redfin.com/SD/Sioux-Falls/2908-W-37th-Cir-57105/unit-501/home/136536740,REALTOR® Association of the Sioux Empire,22406597,N,Y,43.5189309,-96.7617969
MLS Listing,,Single Family Residential,105 W St Andrews Dr,Sioux Falls,SD,57108,750000,4,3.5,Prairie Green Addn,4039,14244,1996,12,186,,Active,,,https://www.redfin.com/SD/Sioux-Falls/105-W-Saint-Andrews-Dr-57108/home/165695129,REALTOR® Association of the Sioux Empire,22406588,N,Y,43.4960231,-96.7235141
MLS Listing,,Mobile/Manufactured Home,110 S Caley Pl,Sioux Falls,SD,57110,135000,3,2.0,Temporary Check Back,1768,,2000,12,76,400,Active,,,https://www.redfin.com/SD/Sioux-Falls/110-S-Caley-Pl-57110/home/136189057,REALTOR® Association of the Sioux Empire,22406585,N,Y,43.5470623,-96.6571949
MLS Listing,,Single Family Residential,7408 W Rocky Ridge Cir,Sioux Falls,SD,57106,790000,6,3.5,Rocky Ridge Addn,3760,12432,2018,12,210,,Active,,,https://www.redfin.com/SD/Sioux-Falls/7408-W-Rocky-Ridge-Cir-57106/home/177320933,REALTOR® Association of the Sioux Empire,22406578,N,Y,43.5413071,-96.8187498
MLS Listing,,Townhouse,7709 S Townsley Ave,Sioux Falls,SD,57108,249900,2,1.5,WEST POINTE ESTATES ADD to City of Sioux Falls,1331,,2022,12,188,215,Active,,,https://www.redfin.com/SD/Sioux-Falls/7709-S-Townsley-Ave-57108/home/192392017,REALTOR® Association of the Sioux Empire,22406577,N,Y,43.4739886,-96.7808691
MLS Listing,,Townhouse,7709 S Townsley Ave #6,Sioux Falls,SD,57108,284900,3,2.5,WEST POINTE ESTATES ADD to City of Sioux Falls,1529,,2022,12,186,215,Active,,,https://www.redfin.com/SD/Sioux-Falls/7709-S-Townsley-Ave-57108/unit-6/home/192390080,REALTOR® Association of the Sioux Empire,22406572,N,Y,43.4739886,-96.7808691
MLS Listing,,Townhouse,4701 S Tribbey Trl,Sioux Falls,SD,57106,285000,3,2.5,Southern Vistas Addn,1666,6321,2011,12,171,,Active,September-21-2024 11:00 AM,September-21-2024 12:00 PM,https://www.redfin.com/SD/Sioux-Falls/4701-S-Tribbey-Trl-57106/home/136084758,REALTOR® Association of the Sioux Empire,22406571,N,Y,43.5030064,-96.8300348
MLS Listing,,Single Family Residential,205 N Dewberry Ave,Sioux Falls,SD,57110,445000,4,3.0,Wildflower Estates 2,2638,10158,2001,12,169,,Active,,,https://www.redfin.com/SD/Sioux-Falls/205-N-Dewberry-Ave-57110/home/136546631,REALTOR® Association of the Sioux Empire,22406570,N,Y,43.5464534,-96.6626007
MLS Listing,,Single Family Residential,909 S Fawn Ct,Sioux Falls,SD,57110,695000,4,3.5,Split Rock Hts 2nd,2997,45593,1996,12,232,,Active,,,https://www.redfin.com/SD/Sioux-Falls/909-S-Fawn-Ct-57110/home/136284556,REALTOR® Association of the Sioux Empire,22406567,N,Y,43.5394449,-96.6464025
MLS Listing,,Single Family Residential,1713 N Rosemary Ave,Sioux Falls,SD,57110,800000,3,2.0,GOLDEN GATEWAY ADDITION TO THE CITY OF SIOUX FALLS,2170,6656,2023,12,369,200,Active,,,https://www.redfin.com/SD/Sioux-Falls/1713-N-Rosemary-Ave-57110/home/184083971,REALTOR® Association of the Sioux Empire,22406566,N,Y,43.563636,-96.655149
MLS Listing,,Single Family Residential,6801 E Dugout Ln,Sioux Falls,SD,57110,599000,5,3.0,Diamond Field Estates 2nd Addn,3162,10106,2018,12,189,,Active,,,https://www.redfin.com/SD/Sioux-Falls/6801-E-Dugout-Ln-57110/home/171322396,REALTOR® Association of the Sioux Empire,22406565,N,Y,43.506654,-96.642851
MLS Listing,,Single Family Residential,112 N Saint Paul Ave,Sioux Falls,SD,57103,230000,2,1.0,Unp 15-101-49,1104,7919,1953,13,208,,Active,,,https://www.redfin.com/SD/Sioux-Falls/112-N-Saint-Paul-Ave-57103/home/136116345,REALTOR® Association of the Sioux Empire,22406564,N,Y,43.5478453,-96.6986726
MLS Listing,,Townhouse,4507 W Graceland Pl,Sioux Falls,SD,57106,339000,2,2.0,Graceland Addn,1369,9527,2023,13,248,15,Active,,,https://www.redfin.com/SD/Sioux-Falls/4507-W-Graceland-Pl-57106/home/185269860,REALTOR® Association of the Sioux Empire,22406563,N,Y,43.5324292,-96.7827034
MLS Listing,,Single Family Residential,5313 E Lumin St,Sioux Falls,SD,57108,403170,3,2.0,Harvest Creek Addition to Sioux Falls,1287,,2024,13,313,,Active,,,https://www.redfin.com/SD/Sioux-Falls/5313-E-Lumin-St-57108/home/192378581,REALTOR® Association of the Sioux Empire,22406561,N,Y,43.4950789,-96.66226
MLS Listing,,Mobile/Manufactured Home,4702 W Thad Pl,Sioux Falls,SD,57106,45000,3,1.0,Hidden Valley,1216,,1996,13,37,495,Active,,,https://www.redfin.com/SD/Sioux-Falls/4702-W-Thad-Pl-57106/home/136563619,REALTOR® Association of the Sioux Empire,22406558,N,Y,43.5372881,-96.7837622
MLS Listing,,Single Family Residential,705 Silver Pond Pl,Sioux Falls,SD,57108,4900000,4,8.0,Temporary Check Back,9300,66429,2023,13,527,300,Active,,,https://www.redfin.com/SD/Sioux-Falls/705-E-Silver-Pond-Pl-57108/home/169939540,REALTOR® Association of the Sioux Empire,22406557,N,Y,43.4767222,-96.7164734
MLS Listing,,Townhouse,8037 E Tencate Pl,Sioux Falls,SD,57110,288425,3,2.5,Tencate Addition an Addition to the City of Sioux Falls,1399,,2024,13,206,110,Active,,,https://www.redfin.com/SD/Sioux-Falls/8037-E-Tencate-Pl-57110/home/192378333,REALTOR® Association of the Sioux Empire,22406556,N,Y,43.5135878,-96.625354
MLS Listing,,Townhouse,8035 E Tencate Pl,Sioux Falls,SD,57110,288425,3,2.5,Tencate Addition an Addition to the City of Sioux Falls,1399,,2024,13,206,110,Active,,,https://www.redfin.com/SD/Sioux-Falls/8035-E-Tencate-Pl-57110/home/192378291,REALTOR® Association of the Sioux Empire,22406555,N,Y,43.5135878,-96.625354
MLS Listing,,Single Family Residential,5513 S Spirea Ave,Sioux Falls,SD,57108,365770,3,2.0,Harvest Creek Addition to Sioux Falls,1162,,2024,13,315,,Active,,,https://www.redfin.com/SD/Sioux-Falls/5513-S-Spirea-Ave-57108/home/192378227,REALTOR® Association of the Sioux Empire,22406554,N,Y,43.4956964,-96.6635396
MLS Listing,,Single Family Residential,,Sioux Falls,SD,57103,499000,3,1.5,,1927,27495,1962,13,259,,Active,,,https://www.redfin.com/SD/Sioux-Falls/Undisclosed-address-57103/home/136631863,REALTOR® Association of the Sioux Empire,22406553,N,Y,43.520782,-96.6894233
MLS Listing,,Single Family Residential,4108 N Interlachen Trl,Sioux Falls,SD,57107,579900,4,3.0,Hazeltine Addn,2160,11797,2022,13,268,,Active,,,https://www.redfin.com/SD/Sioux-Falls/4108-N-Interlachen-Trl-57107/home/185250815,REALTOR® Association of the Sioux Empire,22406550,N,Y,43.5918221,-96.7989272
MLS Listing,,Townhouse,8033 E Tencate Pl,Sioux Falls,SD,57110,288425,3,2.5,Tencate Addition an Addition to the City of Sioux Falls,1399,,2024,13,206,110,Active,,,https://www.redfin.com/SD/Sioux-Falls/8033-E-Tencate-Pl-57110/home/192377969,REALTOR® Association of the Sioux Empire,22406548,N,Y,43.5135878,-96.625354
MLS Listing,,Multi-Family (2-4 Unit),201 W 19th St,Sioux Falls,SD,57105,499000,5,4.0,Sherman Addn,4137,7261,1925,13,121,,Active,,,https://www.redfin.com/SD/Sioux-Falls/201-W-19th-St-57105/home/136098045,REALTOR® Association of the Sioux Empire,22406544,N,Y,43.5356117,-96.7278697
MLS Listing,,Single Family Residential,2901 S Stone Pl,Sioux Falls,SD,57105,325000,4,2.0,Stone Addn,1920,8256,1965,13,169,,Active,,,https://www.redfin.com/SD/Sioux-Falls/2901-S-Stone-Pl-57105/home/136484162,REALTOR® Association of the Sioux Empire,22406543,N,Y,43.5189094,-96.7603293
MLS Listing,,Single Family Residential,5813 N Gold Nugget Ave,Sioux Falls,SD,57104,170000,4,3.0,Granite Valley Addn,1647,7800,2005,13,103,,Active,,,https://www.redfin.com/SD/Sioux-Falls/5813-N-Gold-Nugget-Ave-57104/home/136547120,REALTOR® Association of the Sioux Empire,22406542,N,Y,43.6118793,-96.7077053
MLS Listing,,Townhouse,2811 E Fieldstone Pl,Sioux Falls,SD,57108,275000,2,2.0,Whisper Ridge Addn,1498,3441,2011,13,184,210,Active,,,https://www.redfin.com/SD/Sioux-Falls/2811-E-Fieldstone-Pl-57108/home/165672251,REALTOR® Association of the Sioux Empire,22406539,N,Y,43.4936624,-96.6891624
MLS Listing,,Single Family Residential,312 N Prairie Ave,Sioux Falls,SD,57104,237500,4,2.0,Bennett's 1st Addn,2014,6599,1888,13,118,,Active,,,https://www.redfin.com/SD/Sioux-Falls/312-N-Prairie-Ave-57104/home/136430551,REALTOR® Association of the Sioux Empire,22406537,N,Y,43.5503239,-96.7368182
MLS Listing,,Townhouse,8031 E Tencate Pl,Sioux Falls,SD,57110,288425,3,2.5,Tencate Addition an Addition to the City of Sioux Falls,1399,,2024,13,206,110,Active,,,https://www.redfin.com/SD/Sioux-Falls/8031-E-Tencate-Pl-57110/home/192372743,REALTOR® Association of the Sioux Empire,22406535,N,Y,43.5135878,-96.625354
MLS Listing,,Townhouse,3626 E Siasconset Pl,Sioux Falls,SD,57108,322000,3,2.5,Whispering Woods South,1730,2914,2020,13,186,110,Active,September-21-2024 11:30 AM,September-21-2024 12:30 PM,https://www.redfin.com/SD/Sioux-Falls/3626-E-Siasconset-Pl-57108/home/176535742,REALTOR® Association of the Sioux Empire,22406532,N,Y,43.4910451,-96.6803424
MLS Listing,,Single Family Residential,5609 S Copperhead Dr,Sioux Falls,SD,57108,1300000,5,4.5,Prairie Vista Estate,5021,15022,2004,13,259,,Active,,,https://www.redfin.com/SD/Sioux-Falls/5609-S-Copperhead-Dr-57108/home/165643908,REALTOR® Association of the Sioux Empire,22406525,N,Y,43.4922035,-96.7435868
MLS Listing,,Single Family Residential,8305 E Spearfish Ct,Sioux Falls,SD,57110,480000,3,2.0,Willow Ridge Addn,1603,10445,2024,13,299,,Active,,,https://www.redfin.com/SD/Sioux-Falls/8305-E-Spearfish-Ct-57110/home/192368989,REALTOR® Association of the Sioux Empire,22406520,N,Y,43.5523102,-96.6221727
MLS Listing,,Multi-Family (2-4 Unit),2805 E Bragstad Dr,Sioux Falls,SD,57103,712500,11,9.0,Klondike Addn,3350,8640,1993,13,213,,Active,,,https://www.redfin.com/SD/Sioux-Falls/2805-E-Bragstad-Dr-57103/home/136489286,REALTOR® Association of the Sioux Empire,22406516,N,Y,43.5267099,-96.6906506
MLS Listing,,Multi-Family (2-4 Unit),2809 E Bragstad Dr,Sioux Falls,SD,57103,712500,11,9.0,Klondike Addn,3350,8640,1993,13,213,,Active,,,https://www.redfin.com/SD/Sioux-Falls/2809-E-Bragstad-Dr-57103/home/136582444,REALTOR® Association of the Sioux Empire,22406515,N,Y,43.5267154,-96.690367
MLS Listing,,Single Family Residential,6308 S Heatherridge Ave,Sioux Falls,SD,57108,549900,5,3.5,Heather Ridge Addn,3251,10454,2002,14,169,,Active,,,https://www.redfin.com/SD/Sioux-Falls/6308-S-Heatherridge-Ave-57108/home/165678843,REALTOR® Association of the Sioux Empire,22406510,N,Y,43.4868848,-96.7423152
MLS Listing,,Single Family Residential,401 N Stewart Dr,Sioux Falls,SD,57103-1117,335000,3,2.0,Linwood Addn,1816,7906,1984,14,184,,Active,September-22-2024 01:00 PM,September-22-2024 02:30 PM,https://www.redfin.com/SD/Sioux-Falls/401-N-Stewart-Dr-57103/home/136210570,REALTOR® Association of the Sioux Empire,22406508,N,Y,43.5499983,-96.6806336
MLS Listing,,Single Family Residential,2412 S Camden Ave,Sioux Falls,SD,57106,619900,5,3.0,Roosevelt Park Addn,3415,12824,2006,14,182,,Active,,,https://www.redfin.com/SD/Sioux-Falls/2412-S-Camden-Ave-57106/home/136339921,REALTOR® Association of the Sioux Empire,22406505,N,Y,43.5209068,-96.8240435
MLS Listing,,Single Family Residential,6508 S Audie Dr,Sioux Falls,SD,57108,549900,4,3.5,Prairie Meadows 2nd,2991,15682,2007,14,184,,Active,,,https://www.redfin.com/SD/Sioux-Falls/6508-S-Audie-Dr-57108/home/165687234,REALTOR® Association of the Sioux Empire,22406504,N,Y,43.4851248,-96.7326619
MLS Listing,,Single Family Residential,8808 W Rathburn St,Sioux Falls,SD,57106,469900,4,3.0,Windmill Ridge Addition to Sioux Falls,2322,7919,2023,14,202,1,Active,,,https://www.redfin.com/SD/Sioux-Falls/8808-W-Rathburn-ST-57106/home/185789869,REALTOR® Association of the Sioux Empire,22406497,N,Y,43.539019,-96.834157
MLS Listing,,Single Family Residential,4803 S Caraway Dr,Sioux Falls,SD,57108,847300,4,3.0,Swift's 1st Addn,4029,20456,1992,14,210,,Active,,,https://www.redfin.com/SD/Sioux-Falls/4803-S-Caraway-Dr-57108/home/165665198,REALTOR® Association of the Sioux Empire,22406496,N,Y,43.4993854,-96.7437948
MLS Listing,,Townhouse,7103 E Copper Stone Cir,Sioux Falls,SD,57110,484850,2,2.0,COPPER CREEK HEIGHTS AN ADDN TO THE CITY OF SIOUX FALLS,1482,6233,2024,14,327,150,Active,September-21-2024 01:00 PM,September-21-2024 05:00 PM,https://www.redfin.com/SD/Sioux-Falls/7103-E-Copper-Pl-57110/home/192359287,REALTOR® Association of the Sioux Empire,22406495,N,Y,43.5273886,-96.6489636
MLS Listing,,Single Family Residential,48071 270th St,Sioux Falls,SD,57108,700000,4,3.5,Lincoln Lakes Addn,3714,78843,1998,14,188,150,Active,,,https://www.redfin.com/SD/Sioux-Falls/48071-270th-St-57108/home/165635196,REALTOR® Association of the Sioux Empire,22406493,N,Y,43.4745214,-96.5951893
MLS Listing,,Single Family Residential,4904 E Brennan Dr,Sioux Falls,SD,57110,320000,4,2.0,Richmond Estates IV,1874,8398,1999,14,171,,Active,,,https://www.redfin.com/SD/Sioux-Falls/4904-E-Brennan-Dr-57110/home/136126078,REALTOR® Association of the Sioux Empire,22406492,N,Y,43.554784,-96.666469
MLS Listing,,Single Family Residential,7205 S Heatherridge Ave,Sioux Falls,SD,57108,500000,3,2.0,Heather Ridge II Addn,1536,14620,2005,14,326,,Active,,,https://www.redfin.com/SD/Sioux-Falls/7205-S-Heatherridge-Ave-57108/home/165698183,REALTOR® Association of the Sioux Empire,22406490,N,Y,43.4781601,-96.7393992
MLS Listing,,Townhouse,4201 N Knob Hill Ct,Sioux Falls,SD,57107,332500,4,3.5,Hazeltine Addn,2195,7000,2018,14,151,160,Active,,,https://www.redfin.com/SD/Sioux-Falls/4201-Knob-Hill-Ct-57107/home/177316286,REALTOR® Association of the Sioux Empire,22406489,N,Y,43.5945053,-96.7915351
MLS Listing,,Single Family Residential,1201 S Point Dr,Sioux Falls,SD,57103,274500,3,2.0,Hilltop Heights Addn,1684,7810,1961,14,163,,Active,,,https://www.redfin.com/SD/Sioux-Falls/1201-S-Point-Dr-57103/home/136354726,REALTOR® Association of the Sioux Empire,22406487,N,Y,43.5361293,-96.6826709
MLS Listing,,Single Family Residential,6608 S Laguna Cir,Sioux Falls,SD,57108,575000,3,2.0,Diamond Valley Addn,1745,8322,2020,14,330,,Active,September-21-2024 10:00 AM,September-21-2024 12:00 PM,https://www.redfin.com/SD/Sioux-Falls/6608-S-Laguna-Cir-57108/home/173726708,REALTOR® Association of the Sioux Empire,22406485,N,Y,43.484575,-96.7167474
MLS Listing,,Single Family Residential,1708 S Monticello Ave,Sioux Falls,SD,57106,505000,5,3.0,Discovery Park Addn,2854,9360,2007,14,177,,Active,,,https://www.redfin.com/SD/Sioux-Falls/1708-S-Monticello-Ave-57106/home/136096522,REALTOR® Association of the Sioux Empire,22406484,N,Y,43.5303474,-96.8260037
MLS Listing,,Townhouse,7101 E Copper Stone Cir,Sioux Falls,SD,57110,474950,2,2.0,COPPER CREEK HEIGHTS AN ADDN TO THE CITY OF SIOUX FALLS,1440,6247,2024,14,330,150,Active,September-21-2024 01:00 PM,September-21-2024 05:00 PM,https://www.redfin.com/SD/Sioux-Falls/7101-E-Copper-Pl-57110/home/192356710,REALTOR® Association of the Sioux Empire,22406476,N,Y,43.5273886,-96.6489636
MLS Listing,,Single Family Residential,524 S Big Stone Ave,Sioux Falls,SD,57106,374900,2,2.0,Windmill Ridge Addition to Sioux Falls,1429,6168,2024,14,262,35,Active,,,https://www.redfin.com/SD/Sioux-Falls/524-S-Bigstone-Ave-57106/home/192356524,REALTOR® Association of the Sioux Empire,22406474,N,Y,43.5409481,-96.8324572
MLS Listing,,Single Family Residential,3116 E Claudette Dr,Sioux Falls,SD,57103-3330,219900,3,2.0,Hilltop Heights Addn,786,9330,1954,14,280,,Active,,,https://www.redfin.com/SD/Sioux-Falls/3116-E-Claudette-Dr-57103/home/136098976,REALTOR® Association of the Sioux Empire,22406472,N,Y,43.5353351,-96.6862217
MLS Listing,,Single Family Residential,5212 S Yarrow Trl,Sioux Falls,SD,57108,479900,3,2.5,Briarwood Estates,2134,11413,2020,14,225,,Active,,,https://www.redfin.com/SD/Sioux-Falls/5212-S-Yarrow-Trl-57108/home/175190160,REALTOR® Association of the Sioux Empire,22406468,N,Y,43.4984014,-96.667185
MLS Listing,,Single Family Residential,5312 S Solono Ave,Sioux Falls,SD,57108,489900,4,3.0,Whispering Woods,2403,8160,2018,14,204,,Active,,,https://www.redfin.com/SD/Sioux-Falls/5312-S-Solono-Ave-57108/home/168772758,REALTOR® Association of the Sioux Empire,22406465,N,Y,43.496429,-96.6832138
MLS Listing,,Single Family Residential,4201 W Explorer Cir,Sioux Falls,SD,57108,510000,4,3.0,Shadow Valley Addn to Sioux Falls,2723,7930,2016,14,187,,Active,September-21-2024 02:00 PM,September-21-2024 04:00 PM,https://www.redfin.com/SD/Sioux-Falls/4201-W-Explorer-Cir-57108/home/165649252,REALTOR® Association of the Sioux Empire,22406463,N,Y,43.480287,-96.776256
MLS Listing,,Townhouse,500 W Shady Hill St,Sioux Falls,SD,57108,365000,4,3.0,Prairie Meadows Addn,2211,5837,2004,15,165,,Active,,,https://www.redfin.com/SD/Sioux-Falls/500-W-Shady-Hill-St-57108/home/165643169,REALTOR® Association of the Sioux Empire,22406460,N,Y,43.4839791,-96.7296677
MLS Listing,,Single Family Residential,8224 W 51st St,Sioux Falls,SD,57106,460000,5,3.0,Southern Vistas Addn,2630,15438,2014,15,175,,Active,,,https://www.redfin.com/SD/Sioux-Falls/8224-W-51st-St-57106/home/143348987,REALTOR® Association of the Sioux Empire,22406459,N,Y,43.5071558,-96.827669
MLS Listing,,Townhouse,5102 E 63rd St,Sioux Falls,SD,57108,325000,3,2.5,Briarwood Estates,1893,3877,2019,15,172,125,Active,,,https://www.redfin.com/SD/Sioux-Falls/5102-E-63rd-St-57108/home/173965698,REALTOR® Association of the Sioux Empire,22406457,N,Y,43.4950645,-96.6651112
MLS Listing,,Townhouse,6129 E Copper Pl,Sioux Falls,SD,57110,308975,3,2.5,Temporary Check Back,1657,,2024,15,186,110,Active,,,https://www.redfin.com/SD/Sioux-Falls/6129-E-Copper-Pl-57110/home/190395809,REALTOR® Association of the Sioux Empire,22406456,N,Y,43.5273808,-96.649063
MLS Listing,,Townhouse,2305 E Cama Pl,Sioux Falls,SD,57108,311575,3,2.5,DONAHOE FARMS ADD,1666,,2024,15,187,110,Active,September-21-2024 01:00 PM,September-21-2024 02:00 PM,https://www.redfin.com/SD/Sioux-Falls/2305-E-Cama-Pl-57108/home/189138322,REALTOR® Association of the Sioux Empire,22406455,N,Y,43.4869256,-96.6964382
MLS Listing,,Townhouse,2402 E Cama Pl,Sioux Falls,SD,57108,310300,3,2.5,DONAHOE FARMS ADD,1657,,2024,15,187,110,Active,,,https://www.redfin.com/SD/Sioux-Falls/2402-E-Cama-Pl-57108/home/190310059,REALTOR® Association of the Sioux Empire,22406454,N,Y,43.4872769,-96.6956526
MLS Listing,,Single Family Residential,8200 W 51st St,Sioux Falls,SD,57106,440000,5,3.0,Southern Vistas Addn,2389,12119,2014,15,184,,Active,,,https://www.redfin.com/SD/Sioux-Falls/8200-W-51st-St-57106/home/143348993,REALTOR® Association of the Sioux Empire,22406453,N,Y,43.5066682,-96.8264216
MLS Listing,,Single Family Residential,713 S Menlo Ave,Sioux Falls,SD,57104,189900,3,1.0,Folsom 2nd Addn,946,3969,1922,15,201,,Active,,,https://www.redfin.com/SD/Sioux-Falls/713-S-Menlo-Ave-57104/home/136551129,REALTOR® Association of the Sioux Empire,22406452,N,Y,43.5394946,-96.740179
MLS Listing,,Single Family Residential,6300 W 54th St,Sioux Falls,SD,57106,325000,3,2.0,Jandl Heights Addn,1742,9900,1997,15,187,,Active,,,https://www.redfin.com/SD/Sioux-Falls/6300-W-54th-St-57106/home/136358616,REALTOR® Association of the Sioux Empire,22406451,N,Y,43.5038423,-96.8029391
MLS Listing,,Single Family Residential,5708 E Mahogany Cir,Sioux Falls,SD,57110,498000,5,3.5,Manifold Acres Addn,2508,9527,2017,15,199,,Active,,,https://www.redfin.com/SD/Sioux-Falls/5708-E-Mahogany-Cir-57110/home/171322304,REALTOR® Association of the Sioux Empire,22406449,N,Y,43.5157196,-96.6549325
MLS Listing,,Single Family Residential,3104 S Dubuque Ave,Sioux Falls,SD,57110,499900,4,3.0,Manifold Acres Addn,2567,12632,2012,15,195,,Active,September-21-2024 01:00 PM,September-21-2024 02:00 PM,https://www.redfin.com/SD/Sioux-Falls/3104-S-Dubuque-Ave-57110/home/136390567,REALTOR® Association of the Sioux Empire,22406447,N,Y,43.5175421,-96.6606283
MLS Listing,,Single Family Residential,5800 S Tomar Rd,Sioux Falls,SD,57108,620000,5,3.0,Lincoln Hills,2668,11755,1994,15,232,,Active,,,https://www.redfin.com/SD/Sioux-Falls/5800-S-Tomar-Rd-57108/home/165662525,REALTOR® Association of the Sioux Empire,22406446,N,Y,43.4918759,-96.7119139
MLS Listing,,Townhouse,8905 W Annabelle St,Sioux Falls,SD,57106,289900,3,2.0,Westridge Addn,1361,5756,2014,15,213,,Active,,,https://www.redfin.com/SD/Sioux-Falls/8905-W-Annabelle-St-57106/home/165780068,REALTOR® Association of the Sioux Empire,22406443,N,Y,43.5296632,-96.8355075
MLS Listing,,Townhouse,7717 S Townsley Ave #4,Sioux Falls,SD,57108,294900,3,2.5,WEST POINTE ESTATES ADD to City of Sioux Falls,1529,,2022,15,193,215,Active,,,https://www.redfin.com/SD/Sioux-Falls/7717-S-Townsley-Ave-57108/unit-4/home/189084154,REALTOR® Association of the Sioux Empire,22406442,N,Y,43.4741622,-96.7821872
MLS Listing,,Townhouse,2816 S Oriya Pl,Sioux Falls,SD,57106,725000,3,3.5,Lorraine Towne Cente,2533,3568,2022,15,286,275,Active,September-21-2024 02:30 PM,September-21-2024 03:30 PM,https://www.redfin.com/SD/Sioux-Falls/2816-S-Oriya-Pl-57106/home/177315654,REALTOR® Association of the Sioux Empire,22406439,N,Y,43.5186745,-96.786905
MLS Listing,,Townhouse,6111 S Alki Pl,Sioux Falls,SD,57108,274900,3,2.5,DONAHOE FARMS ADD,1251,,2024,15,220,110,Active,,,https://www.redfin.com/SD/Sioux-Falls/6111-S-Alki-Pl-57108/home/190070484,REALTOR® Association of the Sioux Empire,22406436,N,Y,43.4889783,-96.6934413
MLS Listing,,Single Family Residential,2405 S Holly Ave,Sioux Falls,SD,57105,369900,4,2.0,Boyce Addn,2236,8712,1955,17,165,,Active,,,https://www.redfin.com/SD/Sioux-Falls/2405-S-Holly-Ave-57105/home/136424561,REALTOR® Association of the Sioux Empire,22406425,N,Y,43.5237031,-96.755223
MLS Listing,,Vacant Land,1912 E 71st Street St N,Sioux Falls,SD,57104,51500,,,Granite Valley Addn,,6131,,17,,,Active,,,https://www.redfin.com/SD/Sioux-Falls/1912-E-71st-St-N-57104/home/177319968,REALTOR® Association of the Sioux Empire,22406422,N,Y,43.616079,-96.702153
MLS Listing,,Single Family Residential,6408 S Hannby Trl,Sioux Falls,SD,57106,374900,3,2.5,SF - GALWAY VILLAGE,1471,8843,2022,17,255,25,Active,,,https://www.redfin.com/SD/Sioux-Falls/6408-S-Hannby-Trl-57106/home/179231071,REALTOR® Association of the Sioux Empire,22406421,N,Y,43.486696,-96.8124499
MLS Listing,,Single Family Residential,424 W 17th St,Sioux Falls,SD,57105,279900,4,1.5,Lewis Addn,1598,4048,1908,18,175,,Active,,,https://www.redfin.com/SD/Sioux-Falls/424-W-17th-St-57104/home/136249563,REALTOR® Association of the Sioux Empire,22406420,N,Y,43.5379287,-96.7324859
MLS Listing,,Single Family Residential,4417 S Tribbey Trl,Sioux Falls,SD,57106,345000,4,2.0,Southern Vistas Addn,1715,7309,2012,18,201,,Active,September-21-2024 12:00 PM,September-21-2024 01:00 PM,https://www.redfin.com/SD/Sioux-Falls/4417-S-Tribbey-Trl-57106/home/136529297,REALTOR® Association of the Sioux Empire,22406402,N,Y,43.5055354,-96.830182
MLS Listing,,Single Family Residential,2416 S Grinnell Ave,Sioux Falls,SD,57106,490000,5,3.0,Roosevelt Park Addn,2711,11735,2002,19,181,,Active,,,https://www.redfin.com/SD/Sioux-Falls/2416-S-Grinnell-Ave-57106/home/136478227,REALTOR® Association of the Sioux Empire,22406401,N,Y,43.5209362,-96.8203945
MLS Listing,,Single Family Residential,4307 S Marigold Ave,Sioux Falls,SD,57110,655500,5,3.0,Prairie Gardens Addn,3340,10367,2012,19,196,,Active,,,https://www.redfin.com/SD/Sioux-Falls/4307-S-Marigold-Ave-57110/home/136498168,REALTOR® Association of the Sioux Empire,22406400,N,Y,43.5053901,-96.6661919
MLS Listing,,Single Family Residential,519 N Saint Paul Ave,Sioux Falls,SD,57103,249900,3,2.0,Gjere's Addn,1305,5929,1955,19,191,,Active,,,https://www.redfin.com/SD/Sioux-Falls/519-N-Saint-Paul-Ave-57103/home/136099960,REALTOR® Association of the Sioux Empire,22406395,N,Y,43.5520392,-96.6992032
MLS Listing,,Townhouse,8106 E Norway Pines Trl,Sioux Falls,SD,57110,549900,3,2.0,Willow Ridge Addn,2178,19824,2024,19,252,,Active,,,https://www.redfin.com/SD/Sioux-Falls/8106-NORWAY-Pne-57110/home/189642160,REALTOR® Association of the Sioux Empire,22406393,N,Y,43.557978,-96.628854
MLS Listing,,Townhouse,8108 E Norway Pines Trl,Sioux Falls,SD,57110,549900,3,2.0,Willow Ridge Addn,2178,19824,2024,19,252,,Active,,,https://www.redfin.com/SD/Sioux-Falls/8108-NORWAY-Pne-57110/home/189642590,REALTOR® Association of the Sioux Empire,22406391,N,Y,43.5578619,-96.6287854
MLS Listing,,Condo/Co-op,7438 S Louise Ave #301,Sioux Falls,SD,57108-5969,135000,1,1.0,Auburn Hills Addn,750,2093,2010,19,180,215,Active,,,https://www.redfin.com/SD/Sioux-Falls/7438-S-Louise-Ave-57108/unit-301/home/192301937,REALTOR® Association of the Sioux Empire,22406388,N,Y,43.4784128,-96.765667
MLS Listing,,Single Family Residential,517 S Douglas Fir Ave,Sioux Falls,SD,57110,699900,6,3.0,Arbors Edge Addn,3165,10224,2023,19,221,,Active,,,https://www.redfin.com/SD/Sioux-Falls/517-S-Douglas-Fir-Ave-57110/home/177319885,REALTOR® Association of the Sioux Empire,22406384,N,Y,43.5415553,-96.621569
MLS Listing,,Single Family Residential,3712 S Stanford Ave,Sioux Falls,SD,57106,324900,3,2.0,James Addn,1627,8220,2007,19,200,,Active,,,https://www.redfin.com/SD/Sioux-Falls/3712-S-Stanford-Ave-57106/home/136592613,REALTOR® Association of the Sioux Empire,22406383,N,Y,43.5114828,-96.8216468
MLS Listing,,Single Family Residential,500 S Williams Ave,Sioux Falls,SD,57104,152500,3,1.0,Beverly Gardens Addn,1248,7919,1882,19,122,,Active,,,https://www.redfin.com/SD/Sioux-Falls/500-S-Williams-Ave-57104/home/136372220,REALTOR® Association of the Sioux Empire,22406382,N,Y,43.541962,-96.7593358
MLS Listing,,Single Family Residential,1508 S Meadowland Ave,Sioux Falls,SD,57106,425000,2,2.0,Discovery Park Addn,1494,6588,2024,19,284,135,Active,,,https://www.redfin.com/SD/Sioux-Falls/1508-S-Meadowland-Ave-57106/home/185332097,REALTOR® Association of the Sioux Empire,22406379,N,Y,43.5324436,-96.8295907
MLS Listing,,Single Family Residential,8032 E Norway Pine Trl,Sioux Falls,SD,57110,689900,3,2.0,Willow Ridge Addn,1712,11193,2022,19,403,,Active,,,https://www.redfin.com/SD/Sioux-Falls/8032-E-Norway-Pine-Trl-57110/home/185332545,REALTOR® Association of the Sioux Empire,22406376,N,Y,43.556992,-96.62996
MLS Listing,,Single Family Residential,1809 E Wallin Cir,Sioux Falls,SD,57104,585000,4,2.5,Granite Valley Addn,2200,11400,2024,19,266,,Active,September-21-2024 01:00 PM,September-21-2024 05:00 PM,https://www.redfin.com/SD/Sioux-Falls/1809-E-Wallin-CIR-57104/home/182375425,REALTOR® Association of the Sioux Empire,22406374,N,Y,43.613871,-96.702661
MLS Listing,,Single Family Residential,3920 S Villanova Ave,Sioux Falls,SD,57106,359500,4,2.0,James Addn,1892,9448,2008,20,190,,Active,,,https://www.redfin.com/SD/Sioux-Falls/3920-S-Villanova-Ave-57106/home/136571278,REALTOR® Association of the Sioux Empire,22406371,N,Y,43.5094671,-96.8229714
MLS Listing,,Single Family Residential,1200 S Scarlet Oak Trl,Sioux Falls,SD,57110,1250000,5,4.0,Arbors Edge Addn,4348,25021,2017,20,287,75,Active,,,https://www.redfin.com/SD/Sioux-Falls/1200-S-Scarlet-Oak-Trl-57110/home/171321846,REALTOR® Association of the Sioux Empire,22406369,N,Y,43.5361518,-96.6141212
MLS Listing,,Single Family Residential,5908 W 27th St,Sioux Falls,SD,57106,369900,4,3.0,Kingswood Estates 3rd,2225,10378,1979,20,166,,Active,,,https://www.redfin.com/SD/Sioux-Falls/5908-W-27th-St-57106/home/136468542,REALTOR® Association of the Sioux Empire,22406367,N,Y,43.528198,-96.8001443
MLS Listing,,Townhouse,6902 W Gresford Pl,Sioux Falls,SD,57106-2651,295000,2,2.0,SF - GALWAY VILLAGE,1156,4810,2022,20,255,130,Active,,,https://www.redfin.com/SD/Sioux-Falls/6902-W-Gresford-Pl-57106/home/188512253,REALTOR® Association of the Sioux Empire,22406364,N,Y,43.4896917,-96.8120898
MLS Listing,,Single Family Residential,5201 E 65th St,Sioux Falls,SD,57108,479900,5,3.0,Briarwood Estates,2579,8807,2024,20,186,,Active,,,https://www.redfin.com/SD/Sioux-Falls/5201-E-65th-St-57108/home/192289055,REALTOR® Association of the Sioux Empire,22406362,N,Y,43.492862,-96.6644929
MLS Listing,,Condo/Co-op,6106 S Avalon Ave Unit C205,Sioux Falls,SD,57108,399900,2,2.0,Prairie Meadows 2nd,2170,4225,2003,20,184,325,Active,,,https://www.redfin.com/SD/Sioux-Falls/6106-S-Avalon-Ave-57108/unit-C205/home/105170929,REALTOR® Association of the Sioux Empire,22406360,N,Y,43.4890385,-96.7330536
MLS Listing,,Single Family Residential,5427 W Colonial Ct,Sioux Falls,SD,57107,654900,3,2.0,Jefferson Heights Addition to the City of Sioux Falls,1916,13038,2023,20,342,,Active,September-21-2024 11:30 AM,September-21-2024 12:30 PM,https://www.redfin.com/SD/Buffalo-Ridge/5427-W-Colonial-Ct-57107/home/188534388,REALTOR® Association of the Sioux Empire,22406358,N,Y,43.566917,-96.794817
MLS Listing,,Condo/Co-op,6401 S Santa Rosa Cir Unit D,Sioux Falls,SD,57108,183000,2,1.0,Diamond Valley Addn,1092,4008,2008,20,168,200,Active,,,https://www.redfin.com/SD/Sioux-Falls/6401-S-Santa-Rosa-Cir-57108/unit-D/home/177318302,REALTOR® Association of the Sioux Empire,22406356,N,Y,43.4864203,-96.7102357
MLS Listing,,Townhouse,2807 S Terry Ave,Sioux Falls,SD,57106,924900,3,3.0,Lorraine Towne Cente,2776,3187,2021,20,333,275,Active,September-22-2024 03:00 PM,September-22-2024 04:30 PM,https://www.redfin.com/SD/Sioux-Falls/2807-S-Terry-Ave-57106/home/177315572,REALTOR® Association of the Sioux Empire,22406355,N,Y,43.5189942,-96.7865861
MLS Listing,,Townhouse,2803 S Terry Ave,Sioux Falls,SD,57106,794900,2,3.0,Lorraine Towne Cente,2484,2161,2022,20,320,275,Active,,,https://www.redfin.com/SD/Sioux-Falls/2803-S-Terry-Ave-57106/home/178413645,REALTOR® Association of the Sioux Empire,22406353,N,Y,43.519137,-96.786586
MLS Listing,,Townhouse,1121 N Springfield Pl,Sioux Falls,SD,57107,270000,2,2.0,Aspen Heights,1156,4605,2014,20,234,195,Active,,,https://www.redfin.com/SD/Sioux-Falls/1121-N-Springfield-Pl-57107/home/143349172,REALTOR® Association of the Sioux Empire,22406352,N,Y,43.5609727,-96.8024874
MLS Listing,,Single Family Residential,204 N La Salle Ave,Sioux Falls,SD,57110,369900,4,3.0,Wildflower Estates A,2489,7231,1995,20,149,,Active,,,https://www.redfin.com/SD/Sioux-Falls/204-N-La-Salle-Ave-57110/home/136686589,REALTOR® Association of the Sioux Empire,22406350,N,Y,43.5494582,-96.6666311
MLS Listing,,Single Family Residential,3805 S Villanova Ave,Sioux Falls,SD,57106,340000,3,2.0,James Addn,1759,9448,2006,20,193,,Active,September-21-2024 01:00 PM,September-21-2024 02:00 PM,https://www.redfin.com/SD/Sioux-Falls/3805-S-Villanova-Ave-57106/home/136481157,REALTOR® Association of the Sioux Empire,22406368,N,Y,43.5110005,-96.8236176
MLS Listing,,Single Family Residential,26830 480th Ave,Sioux Falls,SD,57108,885000,3,2.5,Oak Trails Addn,3580,126324,1996,20,247,12,Active,,,https://www.redfin.com/SD/Sioux-Falls/26830-480th-Ave-57108/home/165652419,REALTOR® Association of the Sioux Empire,22406349,N,Y,43.4987624,-96.6083722
MLS Listing,,Single Family Residential,400 S Omaha Ave,Sioux Falls,SD,57103,189900,2,1.0,Lewis Heights Addn,768,5502,1953,20,247,,Active,,,https://www.redfin.com/SD/Sioux-Falls/400-S-Omaha-Ave-57103/home/136292510,REALTOR® Association of the Sioux Empire,22406340,N,Y,43.5446653,-96.697419
MLS Listing,,Single Family Residential,3605 E 12th St,Sioux Falls,SD,57103,229900,3,1.0,Park Addition,840,14580,1923,20,274,,Active,,,https://www.redfin.com/SD/Sioux-Falls/3605-E-12th-St-57103/home/136298110,REALTOR® Association of the Sioux Empire,22406337,N,Y,43.5435939,-96.6813196
MLS Listing,,Single Family Residential,2105 S Spring Ave,Sioux Falls,SD,57105,259900,5,2.0,University 2nd Addn,1645,5478,1938,20,158,,Active,,,https://www.redfin.com/SD/Sioux-Falls/2105-S-Spring-Ave-57105/home/136696251,REALTOR® Association of the Sioux Empire,22406331,N,Y,43.5256546,-96.7328327
MLS Listing,,Single Family Residential,509 S Willow Ave,Sioux Falls,SD,57104,250000,4,2.0,Jacobson 1st Addn,1738,5807,1951,21,144,,Active,,,https://www.redfin.com/SD/Sioux-Falls/509-S-Willow-Ave-57104/home/136404265,REALTOR® Association of the Sioux Empire,22406329,N,Y,43.5417384,-96.7502753
MLS Listing,,Condo/Co-op,3867 N Galaxy Ln,Sioux Falls,SD,57107,204900,2,1.0,Thelin Addn,1104,3570,2008,21,186,250,Active,,,https://www.redfin.com/SD/Sioux-Falls/3867-N-Galaxy-Ln-57107/home/180399680,REALTOR® Association of the Sioux Empire,22406328,N,Y,43.587212,-96.7866179
MLS Listing,,Single Family Residential,3909 S Pillsberry Ave,Sioux Falls,SD,57103,599900,5,4.0,Brady Estates East A,4286,9892,2003,21,140,,Active,,,https://www.redfin.com/SD/Sioux-Falls/3909-S-Pillsberry-Ave-57103/home/136613305,REALTOR® Association of the Sioux Empire,22406326,N,Y,43.5092083,-96.6738831
MLS Listing,,Single Family Residential,5709 E Mahogany Cir,Sioux Falls,SD,57110,439000,5,3.0,Manifold Acres Addn,2370,10841,2019,21,185,,Active,,,https://www.redfin.com/SD/Sioux-Falls/5709-Mahogany-Cir-57110/home/177317011,REALTOR® Association of the Sioux Empire,22406325,N,Y,43.51529,-96.6550006
MLS Listing,,Single Family Residential,2008 E Walnut St,Sioux Falls,SD,57103,260000,3,2.0,Riverside Addn,1200,5877,2024,21,217,,Active,,,https://www.redfin.com/SD/Sioux-Falls/2008-E-Walnut-St-57103/home/192269600,REALTOR® Association of the Sioux Empire,22406316,N,Y,43.565911,-96.700526
MLS Listing,,Single Family Residential,1720 E Pine St,Sioux Falls,SD,57103,264900,2,1.5,Riverside Addn,1656,5807,1941,21,160,,Active,,,https://www.redfin.com/SD/Sioux-Falls/1720-E-Pine-St-57103/home/136347866,REALTOR® Association of the Sioux Empire,22406313,N,Y,43.566806,-96.7041289
MLS Listing,,Condo/Co-op,3544 S Gateway Blvd #204,Sioux Falls,SD,57106,134900,2,1.0,Gateway Addn,816,2309,1977,21,165,340,Active,,,https://www.redfin.com/SD/Sioux-Falls/3544-S-Gateway-Blvd-57106/unit-204/home/136130143,REALTOR® Association of the Sioux Empire,22406309,N,Y,43.5119267,-96.7831223
MLS Listing,,Multi-Family (2-4 Unit),3012 S Phillips Ave,Sioux Falls,SD,57105,345000,6,2.0,Barber Addn,2270,9372,1964,22,152,,Active,,,https://www.redfin.com/SD/Sioux-Falls/3012-S-Phillips-Ave-57105/home/192256602,REALTOR® Association of the Sioux Empire,22406305,N,Y,43.5167732,-96.7259248
MLS Listing,,Single Family Residential,3056 S Coral Ct,Sioux Falls,SD,57103,1099000,5,3.0,Bellepine Addn,4393,11901,2003,22,250,,Active,September-22-2024 01:00 PM,September-22-2024 02:00 PM,https://www.redfin.com/SD/Sioux-Falls/3056-S-Coral-Ct-57103/home/136663726,REALTOR® Association of the Sioux Empire,22406297,N,Y,43.5156964,-96.6893403
MLS Listing,,Single Family Residential,6516 W Bonnie Ct,Sioux Falls,SD,57106,439000,3,2.0,Jandl Heights Addn,1573,11670,1995,22,279,,Active,,,https://www.redfin.com/SD/Sioux-Falls/6516-W-Bonnie-Ct-57106/home/136566150,REALTOR® Association of the Sioux Empire,22406296,N,Y,43.5029602,-96.8069624
MLS Listing,,Single Family Residential,425 S Lyndale Ave,Sioux Falls,SD,57104,199900,2,2.0,Residence Park Addn,961,6072,1930,22,208,,Active,,,https://www.redfin.com/SD/Sioux-Falls/425-S-Lyndale-Ave-57104/home/136473535,REALTOR® Association of the Sioux Empire,22406293,N,Y,43.5425138,-96.7539095
MLS Listing,,Single Family Residential,708 S Tanglewood Ave,Sioux Falls,SD,57106,312000,3,2.0,Cherry Creek Hts II,1608,7013,2003,22,194,,Active,,,https://www.redfin.com/SD/Sioux-Falls/708-S-Tanglewood-Ave-57106/home/136067571,REALTOR® Association of the Sioux Empire,22406289,N,Y,43.5392195,-96.8294902
MLS Listing,,Townhouse,5414 W Liberator Cir,Sioux Falls,SD,57107,524900,4,2.5,Jefferson Heights Addition to the City of Sioux Falls,2494,5640,2024,22,210,,Active,,,https://www.redfin.com/SD/Buffalo-Ridge/5414-W-Liberator-Cir-57107/home/192254534,REALTOR® Association of the Sioux Empire,22406286,N,Y,43.5661743,-96.7929246
MLS Listing,,Single Family Residential,4104 E Oak St,Sioux Falls,SD,57103,295000,3,2.0,Huntington Hills Add,1544,6495,1983,22,191,,Active,,,https://www.redfin.com/SD/Sioux-Falls/4104-E-Oak-St-57103/home/136670786,REALTOR® Association of the Sioux Empire,22406285,N,Y,43.5253924,-96.6757456
MLS Listing,,Condo/Co-op,1104 W 57th St Unit 207A,Sioux Falls,SD,57108,179900,2,1.0,River Ridge Addn,1054,1991,1984,22,171,300,Active,September-21-2024 12:30 PM,September-21-2024 01:30 PM,https://www.redfin.com/SD/Sioux-Falls/1104-W-57th-St-57108/unit-207A/home/136578132,REALTOR® Association of the Sioux Empire,22406283,N,Y,43.5008216,-96.740459
MLS Listing,,Single Family Residential,1517 S Frederick Dr,Sioux Falls,SD,57105,299800,3,2.0,Bel Aire Addn,1731,8215,1950,22,173,,Active,,,https://www.redfin.com/SD/Sioux-Falls/1517-S-Frederick-Dr-57105/home/136091581,REALTOR® Association of the Sioux Empire,22406282,N,Y,43.532005,-96.7066541
MLS Listing,,Multi-Family (2-4 Unit),1035 N Spring Ave,Sioux Falls,SD,57104,545900,4,4.0,Brookings Addn,2560,14220,1900,22,213,,Active,,,https://www.redfin.com/SD/Sioux-Falls/1035-N-Spring-Ave-57104/home/136310549,REALTOR® Association of the Sioux Empire,22406279,N,Y,43.5601105,-96.7331848
MLS Listing,,Single Family Residential,2609 S Judy Ave,Sioux Falls,SD,57103,312500,5,3.0,Ascot Park Addn,1548,14601,1984,22,202,,Active,,,https://www.redfin.com/SD/Sioux-Falls/2609-S-Judy-Ave-57103/home/136353360,REALTOR® Association of the Sioux Empire,22406277,N,Y,43.5228723,-96.6759218
MLS Listing,,Single Family Residential,3204 E 3rd St,Sioux Falls,SD,57103,449900,5,3.0,Timberline Estates Addn,2616,19537,2012,23,172,,Active,,,https://www.redfin.com/SD/Sioux-Falls/3204-E-3rd-St-57103/home/136225708,REALTOR® Association of the Sioux Empire,22406274,N,Y,43.5550724,-96.6861378
MLS Listing,,Townhouse,9107 W 43rd St,Sioux Falls,SD,57106,349400,3,2.0,41Ellis Addition to the City of Sioux Falls,1508,,2024,23,232,,Active,,,https://www.redfin.com/SD/Sioux-Falls/9107-W-43rd-St-57106/home/191598686,REALTOR® Association of the Sioux Empire,22406273,N,Y,43.512412,-96.8375556
MLS Listing,,Townhouse,6214 S Tanner Ave,Sioux Falls,SD,57108,345900,3,2.0,DONAHOE FARMS ADD,1519,,2024,23,228,,Active,,,https://www.redfin.com/SD/Sioux-Falls/6214-S-Tanner-Ave-57108/home/192243792,REALTOR® Association of the Sioux Empire,22406272,N,Y,43.4871854,-96.6931628
MLS Listing,,Townhouse,3607 S Chalice Pl,Sioux Falls,SD,57106,314525,3,2.5,41Ellis Addition to the City of Sioux Falls,1646,,2024,23,191,115,Active,,,https://www.redfin.com/SD/Sioux-Falls/3607-CHALICE-Pl-57106/home/191171113,REALTOR® Association of the Sioux Empire,22406271,N,Y,43.5138771,-96.838195
MLS Listing,,Townhouse,3606 S Chalice Pl,Sioux Falls,SD,57106,313375,3,2.5,41Ellis Addition to the City of Sioux Falls,1657,,2024,23,189,115,Active,,,https://www.redfin.com/SD/Sioux-Falls/3606-CHALICE-Pl-57106/home/191170422,REALTOR® Association of the Sioux Empire,22406270,N,Y,43.5138771,-96.838195
MLS Listing,,Townhouse,6212 S Tanner Ave,Sioux Falls,SD,57108,345900,3,2.0,DONAHOE FARMS ADD,1519,,2024,23,228,,Active,,,https://www.redfin.com/SD/Sioux-Falls/6212-S-Tanner-Ave-57108/home/192243385,REALTOR® Association of the Sioux Empire,22406269,N,Y,43.4872712,-96.6931615
MLS Listing,,Single Family Residential,1317 S Bahnson Ave,Sioux Falls,SD,57103,319900,5,2.0,Hilltop Heights Addn,2383,10335,1969,23,134,,Active,,,https://www.redfin.com/SD/Sioux-Falls/1317-S-Bahnson-Ave-57103/home/136328810,REALTOR® Association of the Sioux Empire,22406268,N,Y,43.534864,-96.6817393
MLS Listing,,Single Family Residential,7312 W Lancaster St,Sioux Falls,SD,57106,550000,5,3.0,Roosevelt Park Addn,3156,11500,1999,23,174,,Active,,,https://www.redfin.com/SD/Sioux-Falls/7312-W-Lancaster-St-57106/home/136064660,REALTOR® Association of the Sioux Empire,22406267,N,Y,43.5191042,-96.8176367
MLS Listing,,Single Family Residential,3104 S Prairie Ave,Sioux Falls,SD,57105,315900,2,2.0,South Sioux Subd,1297,15768,1955,23,244,,Active,,,https://www.redfin.com/SD/Sioux-Falls/3104-S-Prairie-Ave-57105/home/136475129,REALTOR® Association of the Sioux Empire,22406265,N,Y,43.5163686,-96.7371736
MLS Listing,,Townhouse,9101 W 43rd St,Sioux Falls,SD,57106,331900,2,2.0,41Ellis Addition to the City of Sioux Falls,1367,,2024,23,243,,Active,,,https://www.redfin.com/SD/Sioux-Falls/9101-W-43rd-St-57106/home/189733533,REALTOR® Association of the Sioux Empire,22406258,N,Y,43.5134915,-96.8077183
MLS Listing,,Single Family Residential,9101 W Counsel St,Sioux Falls,SD,57106,408080,4,3.0,41Ellis Addition to the City of Sioux Falls,1877,,2024,23,217,,Active,,,https://www.redfin.com/SD/Sioux-Falls/9101-W-Counsel-St-57106/home/192238477,REALTOR® Association of the Sioux Empire,22406256,N,Y,43.511393,-96.838366
MLS Listing,,Single Family Residential,9013 W Counsel St,Sioux Falls,SD,57106,379945,3,2.0,41Ellis Addition to the City of Sioux Falls,1193,,2024,23,318,,Active,,,https://www.redfin.com/SD/Sioux-Falls/9013-W-Counsel-St-57106/home/192237949,REALTOR® Association of the Sioux Empire,22406253,N,Y,43.511393,-96.838146
MLS Listing,,Single Family Residential,234 N Fairfax Ave,Sioux Falls,SD,57103,219900,4,2.0,Greater Sioux Falls,1692,6118,1955,24,130,,Active,,,https://www.redfin.com/SD/Sioux-Falls/234-N-Fairfax-Ave-57103/home/136592249,REALTOR® Association of the Sioux Empire,22406147,N,Y,43.5497713,-96.7138914
MLS Listing,,Single Family Residential,3709 Pillsberry Ave,Sioux Falls,SD,57103,665000,5,3.5,Brady Estates East A,3149,10785,2002,25,211,,Active,,,https://www.redfin.com/SD/Sioux-Falls/3709-S-Pillsberry-Ave-57103/home/136456311,REALTOR® Association of the Sioux Empire,22406242,N,Y,43.5107864,-96.6744624
MLS Listing,,Condo/Co-op,6600 S Tomar Rd #2,Sioux Falls,SD,57108-8380,285000,3,2.0,Diamond Valley Addn,1439,4922,2010,25,198,180,Active,,,https://www.redfin.com/SD/Sioux-Falls/6600-S-Tomar-Rd-57108/unit-2/home/105171125,REALTOR® Association of the Sioux Empire,22406237,N,Y,43.4846326,-96.7115666
MLS Listing,,Single Family Residential,901 W 26th St,Sioux Falls,SD,57105,209500,3,1.5,University Addn,1144,4488,1926,26,183,,Active,,,https://www.redfin.com/SD/Sioux-Falls/901-W-26th-St-57105/home/136694089,REALTOR® Association of the Sioux Empire,22406236,N,Y,43.5292331,-96.7365164
MLS Listing,,Single Family Residential,509 Mable Ave,Sioux Falls,SD,57103,264900,4,2.0,Van Eps 2nd Addn,2140,5500,1954,26,124,,Active,,,https://www.redfin.com/SD/Sioux-Falls/509-S-Mable-Ave-57103/home/136731191,REALTOR® Association of the Sioux Empire,22406234,N,Y,43.5435575,-96.7054524
MLS Listing,,Single Family Residential,4604 S Deerfield Cir,Sioux Falls,SD,57105,709900,5,3.0,River Oaks Addn,3023,12998,1986,26,235,,Active,September-21-2024 01:00 PM,September-21-2024 03:00 PM,https://www.redfin.com/SD/Sioux-Falls/4604-S-Deerfield-Cir-57105/home/136705172,REALTOR® Association of the Sioux Empire,22406232,N,Y,43.5011355,-96.710666
MLS Listing,,Single Family Residential,6717 E Dugout Ln,Sioux Falls,SD,57110,525000,4,3.0,Diamond Field Estates 2nd Addn,2615,11622,2016,26,201,,Active,,,https://www.redfin.com/SD/Sioux-Falls/6717-E-Dugout-Ln-57110/home/143350770,REALTOR® Association of the Sioux Empire,22406229,N,Y,43.506481,-96.643439
MLS Listing,,Condo/Co-op,1313 N Hazel Pl,Sioux Falls,SD,57107,195000,2,1.0,Aspen Heights,1130,6098,2007,26,173,275,Active,,,https://www.redfin.com/SD/Sioux-Falls/1313-N-Hazel-Pl-57107/home/187824545,REALTOR® Association of the Sioux Empire,22406228,N,Y,43.5612613,-96.7937727
MLS Listing,,Single Family Residential,1611 S 1st Ave,Sioux Falls,SD,57105,330000,3,1.5,McKennan Park Addn,1965,5001,1920,26,168,,Active,,,https://www.redfin.com/SD/Sioux-Falls/1611-S-1st-Ave-57105/home/136675475,REALTOR® Association of the Sioux Empire,22406224,N,Y,43.5305261,-96.7255775
MLS Listing,,Townhouse,307 N Heron Pl,Sioux Falls,SD,57107,245000,1,2.0,Hayward Meadows Addn,1520,4778,2022,26,161,170,Active,,,https://www.redfin.com/SD/Sioux-Falls/307-N-Heron-Pl-57107/home/185332788,REALTOR® Association of the Sioux Empire,22406220,N,Y,43.5514322,-96.8067431
MLS Listing,,Single Family Residential,7225 E Waters Edge Pl,Sioux Falls,SD,57110,416027,2,2.0,Willows Edge Addition to Sioux Falls,1338,6000,2024,26,311,125,Active,,,https://www.redfin.com/SD/Sioux-Falls/7225-E-Waters-Edge-Pl-57110/home/192202133,REALTOR® Association of the Sioux Empire,22406218,N,Y,43.5417147,-96.6370374
MLS Listing,,Single Family Residential,1101 N Brennan Ct,Sioux Falls,SD,57110,435000,4,3.0,Wild Meadows,1920,27377,2020,27,227,,Active,,,https://www.redfin.com/SD/Sioux-Falls/1101-N-Brennan-Ct-57110/home/177317391,REALTOR® Association of the Sioux Empire,22406207,N,Y,43.5580242,-96.6572078
MLS Listing,,Single Family Residential,6608 W Thatcher Dr,Sioux Falls,SD,57106,465000,5,3.0,Palmer Glen Addn,2884,10487,1998,27,161,,Active,,,https://www.redfin.com/SD/Sioux-Falls/6608-W-Thatcher-Dr-57106/home/136351011,REALTOR® Association of the Sioux Empire,22406202,N,Y,43.5273263,-96.8110169
MLS Listing,,Single Family Residential,6315 S Pinehurst Ct,Sioux Falls,SD,57108,819000,4,4.0,Prairie Green Addn,3977,19575,2004,27,206,,Active,,,https://www.redfin.com/SD/Sioux-Falls/6315-S-Pinehurst-Ct-57108/home/165686719,REALTOR® Association of the Sioux Empire,22406201,N,Y,43.4863619,-96.722014
MLS Listing,,Single Family Residential,2600 E Marson Dr,Sioux Falls,SD,57103,659900,5,3.5,The Park in Tuthill Highlands,3084,11450,1990,27,214,,Active,,,https://www.redfin.com/SD/Sioux-Falls/2600-E-Marson-Dr-57103/home/136686642,REALTOR® Association of the Sioux Empire,22406199,N,Y,43.511027,-96.692048
MLS Listing,,Single Family Residential,2513 N Pampas Grass Ave,Sioux Falls,SD,57107,320000,4,2.0,Grasslands Addn,1924,8583,2020,27,166,,Active,,,https://www.redfin.com/SD/Sioux-Falls/2513-N-Pampas-Grass-Ave-57107/home/177317348,REALTOR® Association of the Sioux Empire,22406198,N,Y,43.5769957,-96.7886996
MLS Listing,,Townhouse,7579 Grand Arbor Pl,Sioux Falls,SD,57108,267000,2,2.5,Grand Arbor Village,1474,4792,2008,27,181,175,Active,,,https://www.redfin.com/SD/Sioux-Falls/7579-S-Grand-Arbor-Pl-57108/home/187825991,REALTOR® Association of the Sioux Empire,22406192,N,Y,43.4765325,-96.7469207
MLS Listing,,Single Family Residential,1800 S Kinderhook Ave,Sioux Falls,SD,57106,430000,5,3.0,Berry Addn,2245,10572,2003,27,192,,Active,,,https://www.redfin.com/SD/Sioux-Falls/1800-S-Kinderhook-Ave-57106/home/136619149,REALTOR® Association of the Sioux Empire,22406189,N,Y,43.528535,-96.8271724
MLS Listing,,Single Family Residential,2412 S Grinnell Ave,Sioux Falls,SD,57106,599900,4,3.0,Roosevelt Park Addn,3544,11235,2000,27,169,,Active,,,https://www.redfin.com/SD/Sioux-Falls/2412-S-Grinnell-Ave-57106/home/136533469,REALTOR® Association of the Sioux Empire,22406188,N,Y,43.5211635,-96.8203891
MLS Listing,,Single Family Residential,206 W 81st St,Sioux Falls,SD,57108,423000,3,2.0,Dakota Crossing Addn,2280,6098,2012,27,186,175,Active,,,https://www.redfin.com/SD/Sioux-Falls/206-W-81st-St-57108/home/165649192,REALTOR® Association of the Sioux Empire,22406178,N,Y,43.4785317,-96.7248243
MLS Listing,,Single Family Residential,1208 S Glendale Ave,Sioux Falls,SD,57105,249900,3,1.0,University 2nd Addn,1030,5874,1939,27,243,,Active,,,https://www.redfin.com/SD/Sioux-Falls/1208-S-Glendale-Ave-57105/home/136555396,REALTOR® Association of the Sioux Empire,22406177,N,Y,43.5346266,-96.7472291
MLS Listing,,Single Family Residential,804 S Sneve Ave,Sioux Falls,SD,57103,315000,3,2.0,Grandview Park Addn,1173,5962,2023,28,269,,Active,,,https://www.redfin.com/SD/Sioux-Falls/804-S-Sneve-Ave-57103/home/192176935,REALTOR® Association of the Sioux Empire,22406175,N,Y,43.541122,-96.684976
MLS Listing,,Single Family Residential,805 S Edward Cir,Sioux Falls,SD,57103,315000,3,1.0,Grandview Park Addn,1123,7152,2023,28,280,,Active,,,https://www.redfin.com/SD/Sioux-Falls/805-S-Edward-Dr-57103/home/192176914,REALTOR® Association of the Sioux Empire,22406174,N,Y,43.541149,-96.684589
MLS Listing,,Single Family Residential,7813 E Marana St,Sioux Falls,SD,57110,475000,3,2.0,Temporary Check Back,1425,8542,2022,28,333,,Active,,,https://www.redfin.com/SD/Sioux-Falls/7813-E-Marana-St-57110/home/191890665,REALTOR® Association of the Sioux Empire,22406172,N,Y,43.5120108,-96.6294575
MLS Listing,,Condo/Co-op,1257 N Marion Rd #2,Sioux Falls,SD,57107,267900,2,2.0,Aspen Heights,1130,,2022,28,237,220,Active,,,https://www.redfin.com/SD/Sioux-Falls/1257-N-Marion-Rd-57107/unit-2/home/192175291,REALTOR® Association of the Sioux Empire,22406168,N,Y,43.5600223,-96.7917654
MLS Listing,,Single Family Residential,2404 S Stephen Ave,Sioux Falls,SD,57103,299900,4,3.0,Morningside Heights,1832,10319,1975,28,164,,Active,,,https://www.redfin.com/SD/Sioux-Falls/2404-S-Stephen-Ave-57103/home/136364618,REALTOR® Association of the Sioux Empire,22406159,N,Y,43.5234025,-96.6822439
MLS Listing,,Single Family Residential,6609 E Corsair Dr,Sioux Falls,SD,57110,674900,3,2.0,Mystic Heights Addition,1781,11626,2024,28,379,,Active,,,https://www.redfin.com/SD/Sioux-Falls/6609-N-Corsair-Cir-57110/home/182325258,REALTOR® Association of the Sioux Empire,22406158,N,Y,43.550724,-96.644029
MLS Listing,,Townhouse,6205 S Vintage Pl,Sioux Falls,SD,57108,505000,3,3.0,Diamond Valley Addn,2118,6533,2008,28,238,310,Active,,,https://www.redfin.com/SD/Sioux-Falls/6205-S-Vintage-Pl-57108/home/165697998,REALTOR® Association of the Sioux Empire,22406157,N,Y,43.488379,-96.717409
MLS Listing,,Single Family Residential,410 N Linwood Ct,Sioux Falls,SD,57103,334900,4,3.5,Linwood Gardens Addn,2008,9005,1994,28,167,,Active,,,https://www.redfin.com/SD/Sioux-Falls/410-N-Linwood-Ct-57103/home/136184710,REALTOR® Association of the Sioux Empire,22406156,N,Y,43.5499132,-96.6824354
MLS Listing,,Single Family Residential,6613 E Corsair Dr,Sioux Falls,SD,57110,765900,3,2.5,Mystic Heights Addition,1908,12248,2024,28,401,,Active,September-21-2024 01:00 PM,September-21-2024 05:00 PM,https://www.redfin.com/SD/Sioux-Falls/6613-E-Corsair-Dr-57110/home/182325067,REALTOR® Association of the Sioux Empire,22406154,N,Y,43.5507605,-96.6436877
MLS Listing,,Single Family Residential,3220 S Willow Ave,Sioux Falls,SD,57105,295000,4,2.0,Pettingill & Steadman's Addn,1577,7986,1960,28,187,,Active,,,https://www.redfin.com/SD/Sioux-Falls/3220-S-Willow-Ave-57105/home/136720442,REALTOR® Association of the Sioux Empire,22406150,N,Y,43.5158706,-96.7495764
MLS Listing,,Mobile/Manufactured Home,,Sioux Falls,SD,57106,119900,3,2.0,,1438,,2000,28,83,,Active,,,https://www.redfin.com/SD/Sioux-Falls/Undisclosed-address-57106/home/105170860,REALTOR® Association of the Sioux Empire,22406149,N,Y,43.4922574,-96.8002394
MLS Listing,,Single Family Residential,5613 S Culbert Ave,Sioux Falls,SD,57106,324900,4,2.0,Galway Park Addn,1918,7884,2015,28,169,,Active,,,https://www.redfin.com/SD/Sioux-Falls/5613-S-Culbert-Ave-57106/home/165667650,REALTOR® Association of the Sioux Empire,22406148,N,Y,43.4950248,-96.823655
MLS Listing,,Condo/Co-op,8506 W Lavern Wipf St,Sioux Falls,SD,57106,225000,2,1.0,Westridge II Addn,1128,3670,2007,29,199,250,Active,,,https://www.redfin.com/SD/Sioux-Falls/8506-W-Lavern-Wipf-St-57106/home/187825017,REALTOR® Association of the Sioux Empire,22406142,N,Y,43.5263171,-96.8313529
MLS Listing,,Condo/Co-op,5517 E Eastbridge Pl,Sioux Falls,SD,57110,417900,2,2.0,Canterbury Heights Addn,1721,9884,2012,29,243,430,Active,,,https://www.redfin.com/SD/Sioux-Falls/5517-E-Eastbridge-Pl-57110/home/136494016,REALTOR® Association of the Sioux Empire,22406141,N,Y,43.559334,-96.660696
MLS Listing,,Single Family Residential,1204 N Archer Dr,Sioux Falls,SD,57103-1202,325000,4,3.0,Timberline Estates 2,1915,7680,2007,29,170,,Active,,,https://www.redfin.com/SD/Sioux-Falls/1204-N-Archer-Dr-57103/home/136328027,REALTOR® Association of the Sioux Empire,22406139,N,Y,43.5615046,-96.6885822
MLS Listing,,Townhouse,9205 W Ark Pl,Sioux Falls,SD,57106,224900,1,1.0,OLLERICH FARMS ADDITION TO THE CITY OF SIOUX FALLS,889,,2023,29,253,110,Active,,,https://www.redfin.com/SD/Sioux-Falls/9205-W-Ark-Pl-57106/home/192153686,REALTOR® Association of the Sioux Empire,22406131,N,Y,43.5173883,-96.8400015
MLS Listing,,Single Family Residential,3913 W 83rd St,Sioux Falls,SD,57108,444900,4,3.0,No Subdivision,2433,8756,2008,29,183,,Active,September-22-2024 12:00 PM,September-22-2024 01:00 PM,https://www.redfin.com/SD/Sioux-Falls/3913-W-83rd-St-57108/home/165645682,REALTOR® Association of the Sioux Empire,22406128,N,Y,43.4765454,-96.774201
MLS Listing,,Single Family Residential,1613 S Monticello Ave,Sioux Falls,SD,57106,495000,5,3.0,Discovery Park Addn,2508,9750,2008,29,197,,Active,,,https://www.redfin.com/SD/Sioux-Falls/1613-S-Monticello-Ave-57106/home/136662066,REALTOR® Association of the Sioux Empire,22406121,N,Y,43.5309984,-96.8266812
MLS Listing,,Single Family Residential,5401 Breezeway Ave,Sioux Falls,SD,57108,494900,4,3.0,Whispering Woods,2732,11413,2017,29,181,,Active,,,https://www.redfin.com/SD/Sioux-Falls/5401-S-Breezeway-Ave-57108/home/168772724,REALTOR® Association of the Sioux Empire,22406120,N,Y,43.4955843,-96.6849704
MLS Listing,,Single Family Residential,2408 W 95th St,Sioux Falls,SD,57108,869900,6,3.5,Harrisburg Schools 2nd Addn,3868,13023,2023,30,225,,Active,,,https://www.redfin.com/SD/Sioux-Falls/2408-W-95th-St-57108/home/177323544,REALTOR® Association of the Sioux Empire,22406118,N,Y,43.4676835,-96.7524934
MLS Listing,,Single Family Residential,3100 W Courtyard Ln,Sioux Falls,SD,57108-1729,420000,4,3.5,Rose Crest Addn,2162,9540,2005,30,194,,Active,September-21-2024 02:00 PM,September-21-2024 03:00 PM,https://www.redfin.com/SD/Sioux-Falls/3100-W-Courtyard-Ln-57108/home/165646200,REALTOR® Association of the Sioux Empire,22406113,N,Y,43.4761545,-96.7621891
MLS Listing,,Townhouse,1423 S Westward Ho Pl,Sioux Falls,SD,57105-0155,439900,3,3.0,Westward Ho Townhome,2481,8925,1980,30,177,350,Active,,,https://www.redfin.com/SD/Sioux-Falls/1423-S-Westward-Ho-Pl-57105/home/136208881,REALTOR® Association of the Sioux Empire,22406112,N,Y,43.5320375,-96.7673403
MLS Listing,,Townhouse,1943 S Sonoma Pl,Sioux Falls,SD,57106,439900,3,3.0,WESTVIEW ESTATES ADDITION TO THE CITY OF SIOUX FALLS,2150,5924,2020,30,205,160,Active,,,https://www.redfin.com/SD/Sioux-Falls/1943-S-Sonoma-Pl-57106/home/175564560,REALTOR® Association of the Sioux Empire,22406110,N,Y,43.5279408,-96.8394449
MLS Listing,,Single Family Residential,816 W Madison St,Sioux Falls,SD,57104,152500,2,1.0,Brooks Addn,752,4395,1941,30,203,,Active,,,https://www.redfin.com/SD/Sioux-Falls/816-W-Madison-St-57104/home/136497680,REALTOR® Association of the Sioux Empire,22406105,N,Y,43.5586814,-96.7379669
MLS Listing,,Townhouse,614 S Mary Gene Ave,Sioux Falls,SD,57106,343000,3,2.5,Windmill Ridge Addition to Sioux Falls,2017,4461,2021,30,170,165,Active,,,https://www.redfin.com/SD/Sioux-Falls/614-S-Mary-Gene-Ave-57106/home/177318323,REALTOR® Association of the Sioux Empire,22406103,N,Y,43.5395883,-96.8312086
MLS Listing,,Single Family Residential,600 E Sunnybrook Dr,Sioux Falls,SD,57105-7144,665000,5,3.5,Tomar Hills Addn,3276,19685,1977,30,203,,Active,,,https://www.redfin.com/SD/Sioux-Falls/600-E-Sunnybrook-Dr-57105/home/136203194,REALTOR® Association of the Sioux Empire,22406101,N,Y,43.5030364,-96.7194299
MLS Listing,,Single Family Residential,3204 S Phillips Ave,Sioux Falls,SD,57105-5725,275000,4,1.0,County Auditor Subd,1575,6673,1952,30,175,,Active,,,https://www.redfin.com/SD/Sioux-Falls/3204-S-Phillips-Ave-57105/home/136687832,REALTOR® Association of the Sioux Empire,22406099,N,Y,43.515604,-96.7259439
MLS Listing,,Townhouse,7203 E Brooks Edge Pl,Sioux Falls,SD,57110,294900,2,2.0,Willows Edge Addition to Sioux Falls,1214,4370,2024,30,243,125,Active,,,https://www.redfin.com/SD/Sioux-Falls/7203-E-Brooks-Edge-Pl-57110/home/192135773,REALTOR® Association of the Sioux Empire,22406098,N,Y,43.5421232,-96.6353784
MLS Listing,,Single Family Residential,2205 W 15th St,Sioux Falls,SD,57104,209900,2,1.0,Westmoor 3rd Addn,598,7492,1953,30,351,,Active,,,https://www.redfin.com/SD/Sioux-Falls/2205-W-15th-St-57104/home/136068488,REALTOR® Association of the Sioux Empire,22406097,N,Y,43.54007,-96.7551488
MLS Listing,,Single Family Residential,804 E 64Th St,Sioux Falls,SD,57108,609900,4,3.5,Lincoln Hills,3462,11195,1992,30,176,,Active,,,https://www.redfin.com/SD/Sioux-Falls/804-E-64th-St-57108/home/165695373,REALTOR® Association of the Sioux Empire,22406096,N,Y,43.4942777,-96.7125051
MLS Listing,,Single Family Residential,1809 W LaQuinta St,Sioux Falls,SD,57108,499900,4,3.0,Heather Ridge Addn,3088,12442,2004,30,162,,Active,,,https://www.redfin.com/SD/Sioux-Falls/1809-W-Laquinta-St-57108/home/165678917,REALTOR® Association of the Sioux Empire,22406094,N,Y,43.4849122,-96.7457687
MLS Listing,,Single Family Residential,6605 N Angel Ave,Sioux Falls,SD,57104,328000,4,3.0,EVERGREEN ACRES ADDN SW1/4 22 102 49 MAPLETON TOWNSHIP,2119,6599,2003,30,155,,Active,,,https://www.redfin.com/SD/Sioux-Falls/6605-N-Angel-Ave-57104/home/136444796,REALTOR® Association of the Sioux Empire,22406091,N,Y,43.6202729,-96.7073525
MLS Listing,,Single Family Residential,4425 W 69th St,Sioux Falls,SD,57108,1300000,5,4.5,Brandt's Addn,4560,130680,2018,30,285,,Active,,,https://www.redfin.com/SD/Sioux-Falls/4425-W-69th-St-57108/home/188512134,REALTOR® Association of the Sioux Empire,22406088,N,Y,43.48812,-96.777673
MLS Listing,,Single Family Residential,4209 S Hickory Hill Rd,Sioux Falls,SD,57103-4949,307500,4,2.5,Crestview Addn,2100,9200,1967,30,146,,Active,,,https://www.redfin.com/SD/Sioux-Falls/4209-S-Hickory-Hill-Rd-57103/home/136591786,REALTOR® Association of the Sioux Empire,22406087,N,Y,43.5061005,-96.7098616
MLS Listing,,Townhouse,4004 S Bahnson Ave,Sioux Falls,SD,57103,285000,2,2.5,Brady Estates East A,2167,6607,1994,30,132,,Active,,,https://www.redfin.com/SD/Sioux-Falls/4004-S-Bahnson-Ave-57103/home/136627628,REALTOR® Association of the Sioux Empire,22406085,N,Y,43.508174,-96.6810823
MLS Listing,,Single Family Residential,3308 S Judy Ave,Sioux Falls,SD,57103,530000,5,3.5,Brady Estates East A,3079,9727,2001,30,172,,Active,,,https://www.redfin.com/SD/Sioux-Falls/3308-S-Judy-Ave-57103/home/136541037,REALTOR® Association of the Sioux Empire,22406083,N,Y,43.5140406,-96.676255
MLS Listing,,Vacant Land,2013 Red Oak Ave,Sioux Falls,SD,57110,85000,,,SUNDANCE RIDGE ADDITION TO CITY OF SIOUX FALL,,12650,,31,,,Active,,,https://www.redfin.com/SD/Sioux-Falls/2013-S-Red-Oak-Ave-57110/home/177320022,REALTOR® Association of the Sioux Empire,22406080,N,Y,43.5267989,-96.658962
MLS Listing,,Vacant Land,3506 N 9th. Ave,Sioux Falls,SD,57104,75000,,,Froehlich Aka: Co Aud Tracts 4-101-49,,17097,,32,,,Active,,,https://www.redfin.com/SD/Sioux-Falls/3506-N-9th-Ave-57104/home/185332873,REALTOR® Association of the Sioux Empire,22406079,N,Y,43.5837465,-96.7139303
MLS Listing,,Single Family Residential,3512 N 9th Ave,Sioux Falls,SD,57104,399900,5,3.0,Froehlich Aka: Co Aud Tracts 4-101-49,2952,23132,1947,32,135,,Active,,,https://www.redfin.com/SD/Sioux-Falls/3512-N-9th-Ave-57104/home/136072284,REALTOR® Association of the Sioux Empire,22406078,N,Y,43.5839955,-96.7143923
MLS Listing,,Townhouse,6510 6Th Pl,Sioux Falls,SD,57107,267997,3,3.5,Hayward Meadows Addn,1283,4382,2018,32,209,135,Active,,,https://www.redfin.com/SD/Sioux-Falls/6510-W-6th-Pl-57107/home/190830652,REALTOR® Association of the Sioux Empire,22406069,N,Y,43.5514288,-96.80211
MLS Listing,,Single Family Residential,4601 S Dunlap Ave,Sioux Falls,SD,57103,404900,4,3.0,Sertoma Hills Addn,2202,13680,2002,33,184,,Active,,,https://www.redfin.com/SD/Sioux-Falls/4601-S-Dunlap-Ave-57106/home/136485943,REALTOR® Association of the Sioux Empire,22406067,N,Y,43.5045079,-96.81564
MLS Listing,,Single Family Residential,1801 E Otonka N/A,Sioux Falls,SD,57103,375000,4,3.0,Tuthill Park Hills 2,2400,13070,1969,33,156,,Active,,,https://www.redfin.com/SD/Sioux-Falls/1801-E-Otonka-Trl-57103/home/177316508,REALTOR® Association of the Sioux Empire,22406064,N,Y,43.509245,-96.7036107
MLS Listing,,Townhouse,6513 Santa Rosa Pl,Sioux Falls,SD,57108,250000,3,2.5,Diamond Valley Addn,1375,2614,2008,33,182,265,Active,,,https://www.redfin.com/SD/Sioux-Falls/6513-S-Santa-Rosa-Pl-57108/home/165680512,REALTOR® Association of the Sioux Empire,22406062,N,Y,43.4853827,-96.7103966
